%time,field.header.seq,field.header.stamp,field.pose.pose.position.x,field.pose.pose.position.y,field.pose.pose.position.z,field.pose.pose.orientation.x,field.pose.pose.orientation.y,field.pose.pose.orientation.z,field.pose.pose.orientation.w,field.twist.twist.linear.x,field.twist.twist.linear.y,field.twist.twist.linear.z,field.twist.twist.angular.x,field.twist.twist.angular.y,field.twist.twist.angular.z
1623490936253574610,0,1623490936253574610,-0.0016960384844006422,-0.004280396520651464,-0.00014329934578786926,4.026512667396554e-05,-4.4932233669473835e-05,0.0003266037055265514,0.9999999448449148,-0.000558820167817107,0.0006152577531772093,0.0016409421252882007,0.0,0.0,0.0
1623490936353550673,1,1623490936353550673,0.0009199483983224346,0.0009243627235158693,0.0001736875430320971,4.8898246665304195e-05,5.160427294871094e-05,0.00013270338420215397,0.9999999886678853,0.026342036705304606,0.05208376299157565,0.00464099107861608,0.0,0.0,0.0
1623490936453368902,2,1623490936453368902,0.0007079501823271211,0.0027989695812030103,-0.00016067837250693788,2.4298116794818036e-05,-8.415682519960533e-06,0.00010721202564464765,0.9999999939221788,0.008878857249948174,0.03094913821157768,-0.0014042577655436921,0.0,0.0,0.0
1623490936553390741,3,1623490936553390741,0.00045590527235426647,0.0035849170847448235,-0.0002878921367174159,9.610172620407571e-06,-4.172054479255746e-05,0.00020449033936717855,0.99999997817537,0.002395031620238848,0.016441219502095757,-0.0010666390429537893,0.0,0.0,0.0
1623490936653603792,4,1623490936653603792,0.0006102658719800756,0.003829500366697519,-6.193822373628898e-06,2.3642973091292178e-05,6.089613283354632e-06,0.00018503519279226737,0.9999999825829514,0.0014302630855508836,0.006366850734179223,0.0021314830722954934,0.0,0.0,0.0
1623490936753328562,5,1623490936753328562,0.0028513978733498173,0.0002942519139699161,0.0004490326465250978,4.963956123779419e-05,1.3969992836182794e-05,0.0003291110745711516,0.9999999445133245,0.01500089155269484,-0.022660241547720197,0.004867771447469865,0.0,0.0,0.0
1623490936855913639,6,1623490936855913639,0.001596971765578336,-0.002504327560462355,0.0005058256387912178,4.894559156096803e-05,2.842736477897204e-05,0.00023080202778777282,0.999999971763318,-0.0005768146393271348,-0.030658438521769575,0.002630611445368134,0.0,0.0,0.0
1623490936953389883,7,1623490936953389883,0.0010779751675153457,-0.0022276940110819857,0.000410494839813206,5.1623484213841315e-05,-1.0823116294250959e-05,0.00029556375541519116,0.9999999549299701,-0.004789567637819394,-0.01646636960264316,0.0007634400875801165,0.0,0.0,0.0
1623490937053371429,8,1623490937053371429,0.0004872846585739637,-0.0036427814973874475,0.00033260776427474945,4.575495648059968e-05,-1.576254467862996e-05,0.0002546326166475857,0.9999999664101278,-0.006529974193078488,-0.018977045123139243,6.366629442512836e-05,0.0,0.0,0.0
1623490937153368235,9,1623490937153368235,-0.002174072708923527,-0.0034866126174092267,0.0005666819470169995,4.628959052666149e-05,7.469605481818846e-06,0.00028246140706914084,0.9999999590085155,-0.019280049866162483,-0.010458664614122351,0.0020526234531466126,0.0,0.0,0.0
1623490937253371716,10,1623490937253371716,-0.003961303993132401,-0.002197354812886706,0.0005554044333464846,4.809097875683526e-05,2.8135375189082245e-06,0.00012773020079391787,0.9999999906821686,-0.021614980840632108,-0.0004595709922360757,0.001258925576337325,0.0,0.0,0.0
1623490937353342056,11,1623490937353342056,-0.0028314883430824384,-0.0021093123969969855,0.00047880787728145087,4.557346528357803e-05,-7.149824604501534e-06,0.0002436795434637032,0.9999999692461093,-0.005599627580855356,-0.00203809734876145,0.00036241061288617917,0.0,0.0,0.0
1623490937453212976,12,1623490937453212976,-0.0037341673105763334,-0.0014579659667031037,0.00038967813727325994,3.9296155327760024e-05,-6.792328240541499e-06,0.0002499323286911487,0.9999999679717534,-0.007960841710863269,0.0015926773709231965,0.00034339285843433456,0.0,0.0,0.0
1623490937553212404,13,1623490937553212404,-0.0011973655546810265,-0.001016641108868677,0.0005643873626015265,4.3670827771989836e-05,3.3591625876740518e-06,0.00017921593528586767,0.9999999829816117,0.009091172849137038,-0.0001371652052530542,0.0015568795027088853,0.0,0.0,0.0
1623490937653192759,14,1623490937653192759,-0.0016915764254960921,0.0011358001558711436,0.0005211620627492504,4.752048473951356e-05,2.0224405707563468e-07,1.2434474571086692e-05,0.999999998793573,0.0012230606528927032,0.010201102570951628,-7.02162959640405e-06,0.0,0.0,0.0
1623490937753381729,15,1623490937753381729,-0.0010296717456185704,0.00043755483878992146,0.0003513284211089846,4.175087120714863e-05,-5.198777373580309e-06,0.00012736811847803523,0.9999999910035994,0.004279037911692245,0.0006052929482613569,-0.0016475301527602887,0.0,0.0,0.0
1623490937853270292,16,1623490937853270292,0.0001698941353131419,-5.82822291152538e-05,4.3190915159837666e-05,2.5173223963978715e-05,-4.156910589953959e-05,0.00026892059445115206,0.999999962660015,0.00843320203517553,-0.0036937717359198153,-0.0028980608477852726,0.0,0.0,0.0
1623490937953504562,17,1623490937953504562,-0.0009583310696667272,-0.0008167150998973527,9.179340011178253e-05,3.851669474863492e-05,-1.926612643256853e-06,0.0002345903430106278,0.9999999717400606,-0.0015157270566617514,-0.00657615916748944,-0.0005009304415811693,0.0,0.0,0.0
1623490938053557396,18,1623490938053557396,-0.0015548755928675628,-0.0008265237076553823,0.0003113766927008874,4.1882551304013864e-05,-7.36293363862386e-06,0.000276644045555536,0.999999960829854,-0.004280081205826562,-0.004427978767789764,0.0010059584653936342,0.0,0.0,0.0
1623490938153536797,19,1623490938153536797,-0.002295852701879094,-0.00010194276959380937,0.00047918370091875993,5.10219430931452e-05,3.416481534203731e-06,0.00019965888839796377,0.9999999787607086,-0.006436861263506119,0.00021877450454542858,0.0016292196666379652,0.0,0.0,0.0
1623490938253288507,20,1623490938253288507,-0.0024572306966799437,0.0008718158392817204,0.000373247128175945,3.750481256548313e-05,-1.1680896708557873e-05,0.000220643669823699,0.9999999748866579,-0.005059116880494954,0.003544718137181755,-0.000787684789067892,0.0,0.0,0.0
1623490938353345871,21,1623490938353345871,-0.002550647945914684,0.0022514447466063176,0.00037347659835308315,3.5646265473591295e-05,9.546644912743256e-07,0.00011178109778145664,0.9999999931167091,-0.003849710744365177,0.007599635033547682,0.0003659781529601857,0.0,0.0,0.0
1623490938453360558,22,1623490938453360558,-0.0014740227435121236,0.00027072049669670564,0.0005585789333371692,4.748843836816176e-05,-6.751595865012795e-06,0.0002330502358335485,0.9999999716934257,0.0041854020766854995,-0.007271346465355346,0.0016516890677282002,0.0,0.0,0.0
1623490938553413868,23,1623490938553413868,-0.001309516697881641,-0.00029137949453539796,0.00030253109369988323,5.208375542234898e-05,9.324134151651042e-06,0.00014176582357927563,0.9999999885513968,0.0031945516120110676,-0.007383857107289968,-0.0013773566379510645,0.0,0.0,0.0
1623490938653548717,24,1623490938653548717,-0.0013901208222003348,-0.0014867240076942348,0.00024756726839439695,4.5123302841194716e-05,-9.411201732390844e-06,0.0003124078185653271,0.9999999501383341,0.001299266543982233,-0.01056371689475369,-0.0013027115842903314,0.0,0.0,0.0
1623490938753373623,25,1623490938753373623,-0.0022965958221074423,-0.0017625900964443365,-2.4689105227305846e-06,3.432512575695434e-05,-5.73951329431563e-06,4.5667693321671255e-05,0.9999999983516519,-0.004177776015509323,-0.007473168147004028,-0.0015254248210090607,0.0,0.0,0.0
1623490938853354692,26,1623490938853354692,-0.0035492037352031556,-0.0016013020746360983,0.0002163906986431396,3.5813343623304606e-05,-2.26201438033117e-05,0.0002473288904031822,0.9999999685170751,-0.008998949855980976,-0.004136363110062534,0.0015461290461130641,0.0,0.0,0.0
1623490938953297377,27,1623490938953297377,-0.002217075318319631,-0.0011252094494117889,0.00019588936773758025,3.608435900082533e-05,-1.0200097958006121e-05,0.00016448429634044966,0.9999999857693952,0.0008713268771638766,-0.0010623009555372474,0.0010630946445907312,0.0,0.0,0.0
1623490939053256035,28,1623490939053256035,-0.00046144894004804607,-0.0006628421230461472,0.00030021395880328803,4.5094194084220116e-05,-1.007463616400659e-05,0.00016944371750857694,0.999999984576919,0.008943264714771417,0.0004064479064009663,0.0012062240250937353,0.0,0.0,0.0
1623490939153380394,29,1623490939153380394,0.0001457440514869426,-0.000658124573238529,0.00035493094203292106,3.9235237964299056e-05,-2.562376672907888e-05,0.000300895098515436,0.9999999536330757,0.007392664635349901,-0.0005420319102071738,0.0010153746216704277,0.0,0.0,0.0
1623490939254184246,30,1623490939254184246,-0.00025867189451149307,-0.0003349460924601792,0.0003471300797557172,4.0568268805642535e-05,2.2982758711681415e-06,0.00019798442482205618,0.9999999795755478,0.0011063969383327422,0.0005799947541529746,0.000391144812001021,0.0,0.0,0.0
1623490939353159904,31,1623490939353159904,0.00017069041721512614,0.0016848327660147345,0.00023748369137637567,3.462496599816195e-05,-1.0467899314749707e-05,0.0001952735376992397,0.9999999802798876,0.002003655071303505,0.009012623167669558,-0.00034688602595545895,0.0,0.0,0.0
1623490939453400612,32,1623490939453400612,0.000980780212685835,0.001550951813682961,0.00015139144693982213,3.272071348526293e-05,-7.701152769664896e-06,0.0002384513257378087,0.9999999710055031,0.004871143014895331,0.003313443559715871,-0.0006768415557139068,0.0,0.0,0.0
1623490939553201675,33,1623490939553201675,-0.0002678659010149528,0.0017503156613596102,0.00023152675727487737,3.255730152525286e-05,-8.52779970272312e-06,0.0002545559323378628,0.9999999670342853,-0.0034519552391219233,0.0021365685506681818,0.00026785750514567294,0.0,0.0,0.0
1623490939653423786,34,1623490939653423786,0.0007185317296139917,0.00022342515828828555,0.00048390754022450326,3.9170314533308916e-05,-2.6424567531233604e-06,0.00025939580995115263,0.9999999655862564,0.0030879832703429215,-0.007532934946915686,0.002111659569436467,0.0,0.0,0.0
1623490939753430605,35,1623490939753430605,0.0014408686672441016,-0.0007472127174434854,0.0006979183404066189,5.9324440695627455e-05,2.234727300038121e-05,0.00021137613284104935,0.999999975650668,0.005117537226658312,-0.0099097043797177,0.002427194429712972,0.0,0.0,0.0
1623490939853191376,36,1623490939853191376,0.0010179598857534753,-0.0005412141106480701,0.0006400572485955898,4.7696284571451166e-05,1.0182607661032756e-05,0.0002467460105614282,0.9999999683688898,0.0003054463580039286,-0.004759642770135524,0.0008906382619697163,0.0,0.0,0.0
1623490939953486919,37,1623490939953486919,0.00016177687532045675,-5.9674347373255443e-05,0.0004483493731140549,3.868649936754565e-05,6.716757705527705e-08,0.00020426902341683223,0.9999999783887551,-0.004364651329481614,-0.0007950187428805884,-0.0015574895097488152,0.0,0.0,0.0
1623490940053235769,38,1623490940053235769,0.0010054327110825777,-3.056559560390347e-05,0.00028301293546580716,4.21150508544219e-05,2.2872106417869002e-06,0.0001645799246770416,0.9999999855672663,0.0016463949195279553,-0.001246205129362419,-0.0012287044530804145,0.0,0.0,0.0
1623490940153258562,39,1623490940153258562,0.0008749538424801948,0.0004180149769821349,0.0003307115802626107,3.718079281893925e-05,8.313292336610079e-06,0.00026357033594851437,0.9999999645395736,0.00025010275887958687,0.0006722357730530614,3.0445004433373845e-06,0.0,0.0,0.0
1623490940253298044,40,1623490940253298044,0.00029452885959247084,-0.0013833158958013894,0.0004346560492032205,4.475882547046248e-05,-6.652050923816623e-08,0.00014429707612743705,0.9999999885874944,-0.0018236820036249338,-0.008126353142215102,0.0011115239465119826,0.0,0.0,0.0
1623490940353414059,41,1623490940353414059,-0.0013933216867375714,-0.0019212140028246902,0.0006082060684988201,4.4630842234647555e-05,3.0854347053624383e-06,0.00017748079641465784,0.9999999832495634,-0.009306357582114372,-0.006173670949775618,0.002159127550985645,0.0,0.0,0.0
1623490940453224182,42,1623490940453224182,0.00019705786096684387,-0.0010195973376161342,0.000562127566356428,4.429187486833695e-05,-7.846029120044484e-06,0.00022594869277766787,0.9999999734619245,0.001869409638850024,-0.0011340348462056124,0.0009946083796535203,0.0,0.0,0.0
1623490940553354979,43,1623490940553354979,0.0008192793489817259,-0.0015517213571185357,0.0004484252002798411,4.047889357975986e-05,-8.313961138499298e-06,0.00022370230267428195,0.9999999741248045,0.004119165071176415,-0.004005093508033972,-0.00023588101418896387,0.0,0.0,0.0
1623490940653145313,44,1623490940653145313,-0.001286410594458444,-0.002092741788804547,0.0004149157311414132,4.821352689111565e-05,3.4045178137387456e-06,0.00027775111059441987,0.9999999602590888,-0.007417809734625426,-0.0045015724257784235,0.0006407096039153528,0.0,0.0,0.0
1623490940753134251,45,1623490940753134251,-0.000780561096072969,-0.0012128969389772104,0.0004872881648962785,5.709924404106736e-05,1.3139182045375084e-05,0.00018433647102423934,0.999999981293548,-0.0028224958306618036,0.0006893420905347107,0.000740851428533103,0.0,0.0,0.0
1623490940853323460,46,1623490940853323460,-0.0025362777826841596,-0.002645050176998654,0.0004314296317463713,5.200847636684453e-05,-3.5019962997227414e-06,0.0002757245848923908,0.9999999606293992,-0.008559295423047286,-0.006244825151560604,0.00042277465098998815,0.0,0.0,0.0
1623490940953141451,47,1623490940953141451,-0.0019377394760085453,-0.0027320489341396722,0.0004439765880275886,5.1029468528709294e-05,5.91103546519342e-06,0.00028647184884063933,0.9999999576474619,-0.002544160877741215,-0.0046222757927784994,0.00039234661685814655,0.0,0.0,0.0
1623490941053214550,48,1623490941053214550,-0.0024136604940819266,-0.0013623529924916735,0.0004907794481370638,5.023900261297013e-05,-5.73220974049782e-06,4.205512023479406e-05,0.9999999978372721,-0.004592525722933685,0.0034211166356183202,0.00034953730255616705,0.0,0.0,0.0
1623490941153210640,49,1623490941153210640,-0.001620240598443905,-0.0026281557151741383,0.0002756611842561228,4.1322748839162196e-05,-1.0060848613787677e-05,0.0002542207711296259,0.9999999667815012,0.001381815796421412,-0.0044408030866834765,-0.0008605782892800686,0.0,0.0,0.0
1623490941253260374,50,1623490941253260374,-0.0032998724965037822,-0.003047964758134632,0.00020885184130107625,4.385756299115997e-05,-4.7550467870057935e-06,0.00020674431883364695,0.9999999776553423,-0.006989641635171234,-0.00444452382731794,-0.00021888734451188462,0.0,0.0,0.0
1623490941353489876,51,1623490941353489876,-0.0038954952973882587,-0.0027093566803754617,0.0001197232087723464,4.2968575839330327e-05,-8.050482286459923e-06,0.00014324010898382204,0.9999999887855785,-0.006503377768169565,-0.0013886067223580112,-0.0008249967063437746,0.0,0.0,0.0
1623490941453257084,52,1623490941453257084,-0.0005779498924056838,-0.00096820582468933,0.0002131215819481385,4.218694225038018e-05,-1.4285649223044475e-05,0.0002922991557449611,0.9999999562886895,0.01049290012829801,0.005391485655983387,0.00046529634509094033,0.0,0.0,0.0
1623490941553143024,53,1623490941553143024,-0.000576174042029435,-0.0007798632082974172,0.00039400821811149506,4.698424514667096e-05,-7.450829419816998e-06,0.0002468291332450479,0.9999999684061692,0.006106668408137412,0.00373636496477519,0.0017208887766224175,0.0,0.0,0.0
1623490941653119564,54,1623490941653119564,-0.0007767751799423081,-0.0012883558064201194,0.00048171264212877536,5.0985662842650824e-05,-9.819261287521925e-06,0.0003640035365273889,0.9999999324027296,0.002881120623056486,-0.00027399042062358284,0.0009382493224243975,0.0,0.0,0.0
1623490941753168106,55,1623490941753168106,-0.0001611714972035063,-0.001992535905279471,0.000543402641516743,5.5104323945948835e-05,2.7641410365191127e-06,0.0001510044458465868,0.9999999870767623,0.004049441801955174,-0.003845992908209328,0.0009898658575310188,0.0,0.0,0.0
1623490941853178263,56,1623490941853178263,0.001666866143760327,-0.00012055356718592229,0.0004230000944474872,4.1187478245856746e-05,-1.1965479380214582e-05,0.0002898525542478459,0.9999999570729544,0.01005085894026843,0.005821083919202036,-0.00018572024432288625,0.0,0.0,0.0
1623490941953182459,57,1623490941953182459,-0.0007894844415256124,-0.001010308322941151,0.00044465134260260813,4.55665314939765e-05,6.305731710391808e-06,0.0002049781219047586,0.9999999779339462,-0.005759976573494056,-6.995606527558651e-05,-0.0002851794914532672,0.0,0.0,0.0
1623490942053345919,58,1623490942053345919,-0.0014173889779972478,-0.0005148549862189678,0.000497396929476922,4.897006846294032e-05,2.2095616279881078e-06,0.00022690685937328458,0.999999973055161,-0.006157746959052539,0.00221065210048381,0.0006643782766821088,0.0,0.0,0.0
1623490942153095007,59,1623490942153095007,-0.000803438112994561,0.0003003357148730117,0.0005140289785235013,4.168205555013173e-05,-8.834185007015848e-06,0.0001761793179032046,0.9999999835727026,-0.0010139579483742613,0.0039005156742127713,0.00039679524449685546,0.0,0.0,0.0
1623490942253080845,60,1623490942253080845,0.00041250660715628964,0.0019603079288091465,0.0006918918293181579,4.1155098307719e-05,-3.7421576931706645e-06,0.00015784791529447083,0.9999999866881414,0.0042521642582638115,0.008642671842561737,0.0015344655712602373,0.0,0.0,0.0
1623490942353108168,61,1623490942353108168,-0.00017864539201049387,0.00026217499751519393,0.0005936948966900522,5.193404946351011e-05,-1.8714448036016464e-06,0.0003394355605328395,0.9999999410414209,0.0007645829432119571,-0.0033150283593026512,-5.620079650177725e-05,0.0,0.0,0.0
1623490942453399897,62,1623490942453399897,-0.0009341098323595563,-0.0016547028352935844,0.00036693352633844945,4.054513585852055e-05,-1.7267532542161098e-07,0.00025861703491487025,0.9999999657366416,-0.0022092437711466063,-0.010773113068939093,-0.0016609822433314345,0.0,0.0,0.0
1623490942553222418,63,1623490942553222418,-0.0006579607080438634,-0.00015760761744759906,0.0004967381036387255,4.8390040199460937e-05,-3.4248751824712904e-06,0.00018894217116419533,0.9999999809737606,-0.0010640114935525906,0.0002915064408382118,0.0008727624894419909,0.0,0.0,0.0
1623490942653417110,64,1623490942653417110,-0.00039652521076647703,-0.0008787980721557501,0.0006304501861679857,5.227009894429248e-05,-4.366401470740369e-06,0.00017918414181374034,0.999999982570903,0.0006576659977708601,-0.0037912959679590567,0.0014353431998211225,0.0,0.0,0.0
1623490942753228188,65,1623490942753228188,0.0013424519921014727,0.0006761819471995258,0.0005678914883422815,4.0321007911358765e-05,6.15088342995015e-06,0.0001510173304187502,0.9999999877650703,0.00771064399182713,0.004138882819327797,-3.401830089399464e-05,0.0,0.0,0.0
1623490942853197098,66,1623490942853197098,0.0008211509989215114,6.44741824482023e-05,0.0005404834375504057,4.231148563844618e-05,1.552237091320813e-06,0.00019889849228982507,0.9999999793233549,0.0020405097162107394,-0.0003303348870931826,9.913400919027342e-05,0.0,0.0,0.0
1623490942953102350,67,1623490942953102350,-0.0011238031879216028,-6.762350309339065e-05,0.0005303032828519726,4.356318423568575e-05,-7.302931200459006e-06,0.00013268280446123874,0.9999999902220905,-0.007299540404918481,-0.00023831247144188089,0.00037956909345814797,0.0,0.0,0.0
1623490943053111553,68,1623490943053111553,-0.0018909518299841627,-0.0002866887450235099,0.0005829090465005265,4.382641119782454e-05,9.738444423918816e-06,0.0002751706961274271,0.9999999611327436,-0.007728561373438285,-0.001577884125761151,0.0005531375275091548,0.0,0.0,0.0
1623490943153082132,69,1623490943153082132,-0.0004083373051367864,0.0002887496779315016,0.0007061211813818024,4.982813369510115e-05,-1.4818217128425218e-06,0.00024294149868313758,0.9999999692471903,0.0020188863291432744,0.0005795822359309104,0.0014049107474141552,0.0,0.0,0.0
1623490943253051758,70,1623490943253051758,-0.001070453475575302,2.448261015330116e-05,0.0007058195467041278,4.406025050672357e-05,-5.220616448859334e-07,0.00023206855831621546,0.9999999721012987,-0.001914983660704962,-0.0005758873411737327,0.0007609389164683086,0.0,0.0,0.0
1623490943353043556,71,1623490943353043556,-0.0012217816089792723,-0.0009522045991726986,0.0004784149187956248,4.065983537820461e-05,-1.970818622738528e-06,0.00025073326313144865,0.9999999677378569,-0.0013626783729558398,-0.00549586950288452,-0.001623188043172786,0.0,0.0,0.0
1623490943453028202,72,1623490943453028202,-0.00035641175196667935,-0.0016191069198294918,0.00046649684141975527,4.63694425788387e-05,-2.864716337608261e-06,0.00018150272420493674,0.9999999824492101,0.0032275630484240522,-0.006944403176763637,-0.00019983428113069085,0.0,0.0,0.0
1623490943553036928,73,1623490943553036928,-0.001270054928930027,-0.0017545881923863552,0.0005295454642176079,4.97061155141526e-05,-4.161250975130294e-06,0.00021943402586874642,0.9999999746803427,-0.002547343377651344,-0.004964095291210663,0.0006878335519123983,0.0,0.0,0.0
1623490943653101206,74,1623490943653101206,0.00042617466091168977,-0.0017385152076530347,0.000571678085136219,5.542938718402024e-05,1.83073416176973e-05,0.00034079703222879493,0.9999999402248979,0.00607300453765931,-0.003866963086879944,0.0006565346690741775,0.0,0.0,0.0
1623490943753161669,75,1623490943753161669,-0.00026035590301634517,-0.00040548395282355616,0.00036731803335588587,3.882357953801584e-05,1.4915922974840203e-05,0.00023092544747375124,0.9999999724718373,-0.00017274186026750536,0.0036958292621292917,-0.0009304472623443956,0.0,0.0,0.0
1623490943853151798,76,1623490943853151798,6.030025035868237e-05,0.0006128043414280859,0.0005542017041006108,4.961818840674837e-05,1.1811543070697486e-05,0.00022160263793818993,0.9999999741453923,0.0007052450269252236,0.006301238262020451,0.000823243174696365,0.0,0.0,0.0
1623490943953169584,77,1623490943953169584,-0.00029460564563732895,0.0005361790962535136,0.0006957635390733704,4.8313038032880925e-05,5.108102148017028e-06,0.0002548702705867698,0.9999999663404465,-0.0009210314204031401,0.002690153165292556,0.0015316835259963513,0.0,0.0,0.0
1623490944053144693,78,1623490944053144693,-0.0006771520664809706,-0.0006696617568214137,0.0008145455926157606,5.7145965897816546e-05,1.3864464464577098e-05,0.0001765974203123777,0.9999999826777283,-0.001524589846149592,-0.00461921521721635,0.0016175859347791785,0.0,0.0,0.0
1623490944153094530,79,1623490944153094530,-0.0006941647599633341,-8.234292131100357e-05,0.0008568298356338903,5.691645165148329e-05,6.555979658492186e-06,0.00017156857229194786,0.9999999836408762,-0.0012252664430979494,4.1341255818097035e-05,0.0015978690019948405,0.0,0.0,0.0
1623490944253216028,80,1623490944253216028,-0.0020972686767943938,-0.0007467097143307458,0.0006796523694063128,4.530798182777075e-05,-3.899937553917703e-07,0.00025671505713598694,0.999999966022202,-0.006715179545484863,-0.0024103895341630647,-0.00033959413124930995,0.0,0.0,0.0
1623490944353010893,81,1623490944353010893,-0.0011807329498931373,-0.0018039087665685275,0.0005179340215389915,5.029427058184624e-05,-1.2780275859318547e-06,0.0003141878915965516,0.9999999493774044,0.001050508711449587,-0.006997963668671494,-0.0005727778956414199,0.0,0.0,0.0
1623490944453132391,82,1623490944453132391,-0.002757441179088282,-0.0012511636499123974,0.0004460950650279268,4.981768327214826e-05,-7.466615187796238e-07,0.00017861772082347125,0.9999999828066699,-0.006939515992923726,-0.001137320440913303,-0.0009456380254522375,0.0,0.0,0.0
1623490944553218126,83,1623490944553218126,-0.0030314759526051203,-0.0009862006342422518,0.0003908642556177051,4.730544068124765e-05,-1.1467423854876241e-05,0.0002971956141871758,0.9999999546527237,-0.005076517267827572,0.0003511545259018455,-0.00028109799047827303,0.0,0.0,0.0
1623490944653110981,84,1623490944653110981,-0.00011939936444805218,-0.00041049655324278394,0.0004832737414799943,5.084024733816085e-05,9.2898020489052e-06,0.00038723003476582495,0.9999999236909257,0.009548442097586301,0.0014531807144115513,0.00018809578830474407,0.0,0.0,0.0
1623490944753300905,85,1623490944753300905,0.001871077911410125,-0.00013034284106474382,0.0005384325243323044,4.385474338453992e-05,6.234986245119001e-06,0.0004694157291053088,0.9999998888433678,0.014124754289542353,0.0013887203807404444,0.00021433041048104725,0.0,0.0,0.0
1623490944852880239,86,1623490944852880239,0.0019849788688814747,-0.00034266786496115495,0.0005340076398899211,4.030985333518822e-05,-7.923095728478634e-07,0.00036545435668230834,0.9999999324087925,0.008692047604027291,-0.00021659823670903348,-9.872490140157766e-06,0.0,0.0,0.0
1623490944953285456,87,1623490944953285456,0.001541731823035881,-0.001177339612479409,0.0005489580613027664,3.829572472350144e-05,-8.680249850485644e-06,0.0003357129278518998,0.9999999428774528,0.003417454088389721,-0.004220839850742668,0.00012448273469961812,0.0,0.0,0.0
1623490945053291798,88,1623490945053291798,-0.00014946674139679428,-0.002082745170694861,0.00038071184406073314,3.830049973691532e-05,5.472923282515591e-06,0.0002656567399667538,0.999999963964802,-0.005086554945202902,-0.006033886409114168,-0.0008373124773719687,0.0,0.0,0.0
1623490945153005362,89,1623490945153005362,-0.0012523479934788554,-0.0028997058543050297,0.00037854961281232004,4.53015643813636e-05,-1.7009550863362365e-06,0.00025815987356485174,0.9999999656491714,-0.007791523414958842,-0.00716101805007854,-0.0001278141499003626,0.0,0.0,0.0
1623490945253223896,90,1623490945253223896,0.0006340107437761872,-0.00025759697943617254,0.00048043891297255327,3.755308722865186e-05,-4.763507509574234e-06,8.665672292325154e-05,0.9999999955288381,0.0029124425601990255,0.006390724405157646,0.0009990344360519476,0.0,0.0,0.0
1623490945353182316,91,1623490945353182316,-0.001103781335542962,-0.0006880657000985621,0.0005652761513217309,3.940755006204148e-05,-5.470255246819549e-06,0.00031435903646866755,0.9999999497977525,-0.005496559204374037,0.002179439639304447,0.0011511453314515128,0.0,0.0,0.0
1623490945453204393,92,1623490945453204393,-0.0004936771116413793,5.793271249143489e-05,0.0004924468271262377,4.2017337969197795e-05,-5.268524210655039e-08,0.00031635963921108976,0.9999999490755531,-0.0007632504911556492,0.004000562842145412,-0.00033869116576694673,0.0,0.0,0.0
1623490945552981853,93,1623490945552981853,-0.00046741609275087383,-0.0009008131884946227,0.0004401519448694608,4.112916512850735e-05,1.135035835922539e-06,0.00032456032854696014,0.999999946483841,0.0001712208578800896,-0.0022757994636170608,-0.00018549398481516185,0.0,0.0,0.0
1623490945653189421,94,1623490945653189421,-0.0007936334858879813,-0.002685863831583388,0.0005297962773191324,5.1860090017005265e-05,6.540558339221884e-06,0.0003381147477389845,0.9999999414730766,-0.0005666251043539436,-0.009077740432499572,0.00034760243156022215,0.0,0.0,0.0
1623490945753303051,95,1623490945753303051,-0.0006564293806388348,-0.0023351042298137416,0.0005404578772556281,4.482002237675904e-05,-7.8159005920359e-06,0.0003493215105460043,0.9999999379522705,-9.964746832036108e-05,-0.0037713372256655857,1.1790224521803405e-05,0.0,0.0,0.0
1623490945853304148,96,1623490945853304148,-0.00021734873516759,-0.0005247278106131789,0.0005866694807769773,4.478130135062972e-05,-2.6124728767948975e-06,0.00034990442566077676,0.9999999377773419,0.000843140695788663,0.0054030192571700685,0.0004056280901274551,0.0,0.0,0.0
1623490945953044176,97,1623490945953044176,0.0009998060290861866,-0.0003306874299285617,0.0005683483631900026,4.1723086959672685e-05,-5.431154602371078e-06,0.00031751561081700406,0.9999999487067524,0.006265131000806827,0.0027211622885114244,0.0001772268951378939,0.0,0.0,0.0
1623490946053201914,98,1623490946053201914,0.0005015711187116049,-0.0009607896325610561,0.0005477372698478288,5.067656790410043e-05,4.283013737429375e-06,0.0003178951389973934,0.9999999481781011,0.002133050518729508,-0.0013475923124905529,0.00035987974552719544,0.0,0.0,0.0
1623490946153176308,99,1623490946153176308,0.0003168284029084432,-0.0002360361124616491,0.0005550310444802211,4.173116864034884e-05,-4.258997498358475e-06,0.0003843623886685992,0.9999999252529509,0.00048113672720212584,0.0024945163589762264,-0.00018655187284756568,0.0,0.0,0.0
1623490946252970695,100,1623490946252970695,-0.002001927495550773,-0.0019301468111464855,0.0005259800274572665,4.29993650729661e-05,-7.923382582806402e-06,0.00038751021824045314,0.9999999239620411,-0.009061839480772426,-0.005326114935730381,-0.00045849343417313297,0.0,0.0,0.0
1623490946353001118,101,1623490946353001118,-0.0013852146207483434,-0.0016514032023610607,0.0005041365731236653,4.4954970353696256e-05,-3.7586627679903694e-06,0.00038973636965208337,0.999999923035231,-0.0027933771124449324,-0.002243627485189807,-0.0003091078291065393,0.0,0.0,0.0
1623490946452886105,102,1623490946452886105,-0.0006415224090542593,-0.0020162547315766407,0.0004566555779790946,4.2829541176094287e-05,-4.067753014602245e-06,0.00037470350358313813,0.9999999288731731,0.0016109832748445914,-0.003657420366249302,-0.00043774811067348016,0.0,0.0,0.0
1623490946553336382,103,1623490946553336382,0.0005314444928437366,-0.002660220275818277,0.0004372461387418739,4.462012863537578e-05,2.8885416797413413e-07,0.0003103720449167823,0.9999999508390677,0.0059781562984586685,-0.006029152397164528,-0.0004386126922858337,0.0,0.0,0.0
1623490946653171778,104,1623490946653171778,-0.0009591646482740168,-0.0027165747420157538,0.00036305211794950346,4.392578546206929e-05,4.628785065459658e-06,0.0003174037099100967,0.9999999486519818,-0.003430332153865235,-0.003527742621853151,-0.00013902172514052371,0.0,0.0,0.0
1623490946753230333,105,1623490946753230333,-0.00033947368365401043,-0.0023683769165771503,0.0004538496339398365,4.7083637342813863e-05,6.633354182281347e-06,0.00032582933957822315,0.9999999457871745,0.00030699038886794917,-0.001228047990118109,8.567402193617227e-05,0.0,0.0,0.0
1623490946853044510,106,1623490946853044510,0.0005294508409507844,-0.0015968123614270781,0.0005644338692673774,4.332545095222838e-05,-5.260259576114514e-06,0.00027277700883357556,0.9999999618439588,0.0038711618843825396,0.00167276900384764,0.0012284934164111913,0.0,0.0,0.0
1623490946953094482,107,1623490946953094482,0.0012166741015082177,-0.0014285629262264124,0.0006870023293805174,4.389230087470121e-05,-3.6629910873398477e-06,0.0003543444858472941,0.9999999362500047,0.00516933613200983,0.0013419802453728145,0.0016564705120110006,0.0,0.0,0.0
1623490947053094387,108,1623490947053094387,0.0020211477700109483,-0.0009412860501478474,0.0006328230397593355,5.227621202965163e-05,5.547686911249528e-06,0.00040992330765920196,0.9999999145996374,0.006007919041253594,0.0027823991604668565,3.320048121757636e-05,0.0,0.0,0.0
1623490947153038979,109,1623490947153038979,0.000425277942814689,-0.000425265665994288,0.0005980997943420077,4.563752972920105e-05,-3.5017248587644642e-06,0.0004270623526396759,0.9999999077613358,-0.003758787095700623,0.004733509900826037,-0.00039404812422984395,0.0,0.0,0.0
1623490947253201723,110,1623490947253201723,-0.00019618268955636723,-0.0009545665950686927,0.0006342380582649178,4.4032784058753315e-05,-1.9733217997037364e-06,0.0004690584508094428,0.999999889020678,-0.00449106061366303,0.00025819423332342113,0.0004892540092804089,0.0,0.0,0.0
1623490947352952242,111,1623490947352952242,-0.0019025217330479948,-0.001579880058569265,0.0005954294601581985,4.4760009057828426e-05,-1.4689244544609435e-06,0.00043030004916070735,0.9999999064181107,-0.009895154285928949,-0.0026896002186489335,0.0004753695136371278,0.0,0.0,0.0
1623490947452915668,112,1623490947452915668,-0.00034031950544640777,-0.0011427330221811243,0.000706315939625217,4.690014387222639e-05,-1.962224542704289e-06,0.0003420585632219056,0.99999994039622,0.00016055933879385344,-0.0010791612947338475,0.0014268172850079928,0.0,0.0,0.0
1623490947553121805,113,1623490947553121805,0.00042865232803762963,-0.0011798203043718186,0.0006954548130798063,4.731423962078664e-05,3.911568415081998e-06,0.00040678228382093573,0.9999999161371033,0.00301856765013787,-0.0016060115513363278,0.0004901742951021059,0.0,0.0,0.0
1623490947653074503,114,1623490947653074503,0.00015717481231952525,-0.0012777487761706481,0.0006364640716930967,4.514517881523415e-05,7.974471694446442e-06,0.00043411836989677287,0.9999999047197652,0.0002407536637366479,-0.0010975621899237775,0.0008673761678652377,0.0,0.0,0.0
1623490947753135920,115,1623490947753135920,0.00020353005689893283,-0.0015975939828026964,0.0005967570995559883,5.155980980392397e-05,8.702566401711832e-06,0.0003975373423261687,0.9999999196149418,0.0002910676231234364,-0.002119127710321721,-0.00012093967322122706,0.0,0.0,0.0
1623490947852966309,116,1623490947852966309,0.0004256181918033941,-0.0011801729016158388,0.0004911926512183175,4.034910872840307e-05,-2.3779041398574786e-06,0.0003627925258958185,0.999999933373926,0.00099979148034903,0.0005457416587374866,-0.0003990876263061,0.0,0.0,0.0
1623490947953583956,117,1623490947953583956,0.00033923670873535494,-0.0013590321783996738,0.0005175692512379406,4.627191707688162e-05,-3.94132420107342e-06,0.0003337688821427534,0.9999999432208424,0.0005007925351683355,-0.0009348765631078115,0.00039098585831987215,0.0,0.0,0.0
1623490948052928448,118,1623490948052928448,-0.0001115526811410898,-0.0022228157342900037,0.0006653990047470343,5.200198159432332e-05,-6.361722594525437e-06,0.00033867395325547407,0.9999999412776261,-0.001717779052551368,-0.004439067929916296,0.0015105224179252134,0.0,0.0,0.0
1623490948152849436,119,1623490948152849436,0.0006757544243989779,-0.0020368854073006377,0.000488605920606952,4.587107918383851e-05,5.408667916161789e-06,0.0004642003750700031,0.9999998911922854,0.0017794211034007443,-0.0028322969570841127,-0.0008638505897764612,0.0,0.0,0.0
1623490948253053188,120,1623490948253053188,-0.00020477154100164886,-0.0018617943879754317,0.0005219081096815404,4.2710337664223116e-05,-1.1136838821619684e-05,0.00037518350350606894,0.9999999286445557,-0.002688673250629571,-0.000643949998781011,0.0006351174092753189,0.0,0.0,0.0
1623490948353034258,121,1623490948353034258,-0.0011473431552326227,-0.0014171125691870199,0.0006766582227310749,4.914443602175306e-05,3.333514850439274e-06,0.00038765664103134324,0.9999999236480074,-0.005654905767719438,0.0019065506412155057,0.00167706658119012,0.0,0.0,0.0
1623490948452856064,122,1623490948452856064,-0.00044006279021072185,-0.0012050106535038878,0.0006590879664126602,4.651014197541808e-05,9.91956055552756e-07,0.0003883726340835832,0.9999999235012461,-0.0003215515931745917,0.0013972961871909163,0.00046655022601488545,0.0,0.0,0.0
1623490948553116798,123,1623490948553116798,-0.0012138096812119178,-0.0020092931149103144,0.0005776926483049468,5.214655056547021e-05,4.7340429205901445e-06,0.00038916358373412423,0.9999999229050017,-0.002915389348163567,-0.003024624266459512,-0.0008704175763622924,0.0,0.0,0.0
1623490948653173923,124,1623490948653173923,-0.00016231314646270893,-0.0011615122246503976,0.0005504766131948149,4.0462323616315535e-05,-6.165080430910534e-07,0.0004069345287421882,0.9999999163833403,0.002422729806303541,0.0015323973406438877,0.000587564962250757,0.0,0.0,0.0
1623490948752942801,125,1623490948752942801,6.324386011983529e-07,-0.0024969575155656043,0.0007277600576388269,5.599468670933164e-05,3.1606163015609654e-06,0.0003514850160457842,0.9999999366564316,0.002970766919463176,-0.005192610261674897,0.0018710512586524576,0.0,0.0,0.0
1623490948853121996,126,1623490948853121996,0.001292967461322583,-0.0024536933882977397,0.0006638080545790504,5.2274003344628585e-05,5.448566670154768e-06,0.00040912968967835825,0.9999999149253046,0.006643974017509541,-0.003311716665948969,0.0005622452320471598,0.0,0.0,0.0
1623490948952901602,127,1623490948952901602,0.0004675994787815285,-0.0029238229461543003,0.00057657386185096,5.245532935443666e-05,8.236784118593103e-06,0.00032013698873566284,0.9999999473464387,0.0005388669327205386,-0.003874550144888944,-0.0006207651576547207,0.0,0.0,0.0
1623490949052738190,128,1623490949052738190,-0.0011551294455614224,-0.0035406719276607477,0.000658343804539375,6.013302364793883e-05,1.2668918728806793e-06,0.0003653012380253834,0.9999999314686968,-0.006343378734393941,-0.004483030307102064,0.0010136432303038938,0.0,0.0,0.0
1623490949153079748,129,1623490949153079748,0.0003534220917467372,-0.0014559237027672188,0.000763512610406283,5.162586490122139e-05,3.9600926832445615e-06,0.0003687079394161671,0.9999999306867581,0.0017887789752694559,0.0053501895883898,0.0016976345849225069,0.0,0.0,0.0
1623490949252859592,130,1623490949252859592,-0.00017538696978244324,-0.001645267590703236,0.0007280638461572195,4.3830545084965444e-05,-8.61803803503545e-06,0.0003939847433532712,0.9999999213903032,-0.0009008636950398458,0.002225008108654242,0.0006690091027691336,0.0,0.0,0.0
1623490949352861881,131,1623490949352861881,0.00203409795347741,-0.002203675710891126,0.0007103742687804299,5.830363038366203e-05,1.2804703025933982e-05,0.0005425465281611278,0.9999998510399734,0.008944497677565976,-0.002407698456290057,0.0005527737011896741,0.0,0.0,0.0
1623490949452860355,132,1623490949452860355,0.0030016155120985884,-0.002768006035569858,0.0005440156017414663,4.6507934457879417e-05,8.776744009056645e-06,0.0004825242595909624,0.9999998824651406,0.009380703300154267,-0.004053251612375535,-0.0009292678698262589,0.0,0.0,0.0
1623490949552941322,133,1623490949552941322,0.0015542796081064454,-0.0031810167412299937,0.0005497280775743998,4.811239399648057e-05,1.8035184259508783e-06,0.0005920270212137271,0.9999998235929471,-0.00029121100058546526,-0.003288901164076606,-0.00015589068389144868,0.0,0.0,0.0
1623490949653047800,134,1623490949653047800,0.0017041333381218637,-0.001963546476751205,0.0005042642879122027,4.131641512046339e-05,-8.063739743813686e-06,0.00037584749836195723,0.9999999284832781,-0.00016952899140097128,0.003446205145567053,3.488555690284971e-05,0.0,0.0,0.0
1623490949752854347,135,1623490949752854347,0.0015949282659097938,-0.002154354567992615,0.0005172806258045377,4.819179130563116e-05,4.993802331950444e-06,0.0004131947877289445,0.9999999134613233,-0.0001593775740700337,0.000718212568501091,-4.774461319276876e-05,0.0,0.0,0.0
1623490949852827549,136,1623490949852827549,0.0018995238822579737,-0.0020321669470383425,0.0005491846221302036,4.955676507413003e-05,3.9728766220294156e-06,0.0002877841172755051,0.9999999573543079,0.0011787609852927888,0.0005172784035587043,0.0001839310126997509,0.0,0.0,0.0
1623490949953031540,137,1623490949953031540,0.0007348150752589251,-0.0025061932073113745,0.000574138151706183,4.434634595183407e-05,-4.126445977129189e-06,0.00027398872927032086,0.9999999614732606,-0.003810517271318899,-0.001799227505902509,0.0003448555802351606,0.0,0.0,0.0
1623490950053048134,138,1623490950053048134,3.575148303886548e-05,-0.000996405524602992,0.0005358251685507311,4.513249687062251e-05,-7.5643834335762936e-06,0.0004380499983192188,0.9999999030089998,-0.0056553227772627775,0.005596953282114068,-0.0008091140725761656,0.0,0.0,0.0
1623490950152811527,139,1623490950152811527,0.0007816537401424043,-0.0011177966464234143,0.00039065995144007816,4.441420478377557e-05,-2.391729116568435e-06,0.00043204987755763154,0.9999999056772616,0.00020882309121587547,0.0020226218296982355,-0.001019949442558002,0.0,0.0,0.0
1623490950253046274,140,1623490950253046274,0.001486147918797198,-0.0014269272205560545,0.0004950840016085911,4.713148075825031e-05,3.664862027375197e-06,0.00033939786871252847,0.9999999412871231,0.0034047725033623166,-0.00061333166237219,0.0007527335359379648,0.0,0.0,0.0
1623490950352884293,141,1623490950352884293,0.0005667793667325205,-0.0018865392929060315,0.0005530125878044791,4.672286224011244e-05,1.590609639000299e-06,0.00043245924305832407,0.9999999053967045,-0.0016388614260260449,-0.0015546122756822254,0.001629908763314783,0.0,0.0,0.0
1623490950453051567,142,1623490950453051567,0.00013985790778650684,-0.0015440343875119643,0.0006040504000150287,4.524525802372799e-05,1.3250205175781445e-06,0.0004616694866862995,0.9999998924061771,-0.002837903590842571,6.820243337684554e-05,0.001416536432978096,0.0,0.0,0.0
1623490950552868843,143,1623490950552868843,7.496234141862346e-06,-0.0021578381567220854,0.0007464201372729575,5.639932811606972e-05,9.594397382916173e-06,0.00045159459780297784,0.9999998963946706,-0.0018137537117842671,-0.0029682715036276823,0.002133306155809947,0.0,0.0,0.0
1623490950653011322,144,1623490950653011322,0.000303354140684175,-0.0014830864837110528,0.000775279696735475,5.362294308731473e-05,3.2900085154261973e-06,0.00028614350480494154,0.9999999576178078,-0.00042541962236703206,0.0002470195783689849,0.0007430077384207516,0.0,0.0,0.0
1623490950752767086,145,1623490950752767086,0.0018582262161932672,-0.0009301090300321228,0.0006961941327547822,5.2744551404528376e-05,1.0924022409466881e-05,0.00036076513248507795,0.9999999334735802,0.0062600477656124245,0.0013786315361290244,-0.00017745045512020325,0.0,0.0,0.0
1623490950852771044,146,1623490950852771044,0.0013620148159327276,-0.0012132816125823437,0.0006949030933074145,4.7957547502901795e-05,5.787739188682252e-06,0.00043092387111044533,0.9999999059855758,0.0016292287502659075,-0.0005275844842986871,0.00029454486501830546,0.0,0.0,0.0
1623490950953011036,147,1623490950953011036,0.0017096608979125186,-0.001124273091885519,0.0007156699942333619,5.0451766137565785e-05,-8.501230653652596e-08,0.0003593386571899432,0.999999934165152,0.002486057899884362,-0.00023531886757079595,0.00038698203464285056,0.0,0.0,0.0
1623490951052782774,148,1623490951052782774,0.0012539289038950169,-0.0010936279466043192,0.0006213362483338534,4.387135545117113e-05,1.788188436347542e-06,0.00040192542765525363,0.9999999182640081,-0.0002496894351918205,-0.0004754447084411173,-0.00020520046659752668,0.0,0.0,0.0
1623490951152820587,149,1623490951152820587,0.0014864063321715546,-0.00029175882711461414,0.0006017993347559094,4.537698306691357e-05,5.770271794939018e-06,0.0003228616694396543,0.9999999468339692,0.0007936680345627527,0.002630152293605094,-0.0001770228895998455,0.0,0.0,0.0
1623490951253021240,150,1623490951253021240,0.001483024814629669,-0.0012891898210313538,0.0007257967884305554,5.165024321700237e-05,8.317136804853492e-06,0.0005049347329960547,0.9999998711519709,0.001412632699732416,-0.002987944314509795,0.0008862916075911605,0.0,0.0,0.0
1623490951352849483,151,1623490951352849483,0.001417910877289888,-0.0014235031041172311,0.0007342032368183325,5.8983578757389e-05,4.705098190237274e-06,0.00047684497430951125,0.9999998845588104,0.000432701015419323,-0.002639565559292726,-7.964923806609456e-05,0.0,0.0,0.0
1623490951452854872,152,1623490951452854872,0.001440261815733117,-0.0012246866575079491,0.0005819963851549685,5.1071699866878446e-05,7.029604726774677e-06,0.0004705594006676512,0.9999998879580342,0.00036815483635181716,-0.0007067763824102826,-0.0008443000962059362,0.0,0.0,0.0
1623490951552852631,153,1623490951552852631,0.001426253007303011,-0.0010007215490466478,0.0005231895080603287,4.623826724509259e-05,-1.186606079058644e-06,0.0004245187780017508,0.9999999088221889,-0.00013435710500684286,0.00024149805887858596,-0.001097053048809276,0.0,0.0,0.0
1623490951652815342,154,1623490951652815342,0.0006673017733745442,-0.001639971437073609,0.0006582966371938771,4.40641586357925e-05,-4.195721309017586e-06,0.0005327290172774105,0.9999998571202424,-0.003051119343528492,-0.0027506022060042046,0.0011617010411135147,0.0,0.0,0.0
1623490951752795696,155,1623490951752795696,0.00017323987094761538,-0.002398438839658663,0.0006712398803573068,4.7689780792055946e-05,3.6358744682169212e-06,0.0003920618469781484,0.9999999219999661,-0.004033257719049592,-0.005189297179374297,0.00044810573501793103,0.0,0.0,0.0
1623490951852833748,156,1623490951852833748,0.0012484787939900262,-0.003159539882833125,0.0005607574370909248,4.622071363320575e-05,3.669995707946843e-06,0.00036361997725013685,0.999999932815324,0.002586620740757246,-0.007351338372627754,-0.0004012985096720025,0.0,0.0,0.0
1623490951953015566,157,1623490951953015566,-0.00019045069771598055,-0.0027374680392225864,0.0006373410024686438,4.7300490917095404e-05,-7.0534633298808285e-06,0.0004300143923433348,0.9999999064002443,-0.004851607974645817,-0.0019870668011215597,0.0011418029605215286,0.0,0.0,0.0
1623490952052809477,158,1623490952052809477,-0.0009643436354999725,-0.003955817122437527,0.000588963426201441,5.32355706302493e-05,5.644767583898517e-06,0.00032114306670553863,0.9999999470006007,-0.005987955618797202,-0.006418079739936757,0.00015284017193363617,0.0,0.0,0.0
1623490952153033495,159,1623490952153033495,-0.00038242030343027544,-0.0023098623012901623,0.0007136047668860653,5.7948916380410866e-05,1.3041524573916322e-05,0.00036665057246930806,0.9999999310195783,-0.0019458176359122854,0.0032095656985720363,0.0009102404136642438,0.0,0.0,0.0
1623490952253057957,160,1623490952253057957,-0.001995138168183445,-0.0025548833992434846,0.0009287222002694983,5.516327772130913e-05,3.5499526247999053e-06,0.00033301850565287035,0.9999999430215218,-0.008136500037438543,0.0013034357246106505,0.002984246187253851,0.0,0.0,0.0
1623490952352829456,161,1623490952352829456,-0.0002643221824807259,-0.0025644563189893194,0.0008729747762990946,4.4429679017153415e-05,-7.0788063962470674e-06,0.0004649532717140468,0.9999998908971487,0.0024318509857884953,-0.0003022557390442958,0.0008844408287985292,0.0,0.0,0.0
1623490952452803135,162,1623490952452803135,-0.001004540703018467,-0.002544273671890444,0.0005814202091943616,5.2269661563212277e-05,1.393644548312813e-05,0.0004719117350516232,0.9999998871864594,-0.0012493068839210045,-0.0001249187574332791,-0.0014495510917819786,0.0,0.0,0.0
1623490952552749395,163,1623490952552749395,-0.0014369565446738844,-0.0023880100175322117,0.0004999102936193102,4.529554349473191e-05,-3.7402485602369394e-06,0.000256421795511986,0.9999999660910722,-0.0024251100585306364,0.0008709983209332007,-0.0008334240640633311,0.0,0.0,0.0
1623490952652721643,164,1623490952652721643,-0.0015432057210378795,-0.0017197303766999556,0.0005564172805053128,4.2254998748982327e-05,-7.739454575953703e-06,0.00040999447490606256,0.9999999150295484,-0.0023872110811185695,0.0028293008082542165,0.00016922763848120637,0.0,0.0,0.0
1623490952752702713,165,1623490952752702713,0.001151234859694366,2.147181675974696e-05,0.0006246690648385432,4.5313182388003725e-05,1.758837952120635e-06,0.00043572546786391306,0.9999999040434432,0.009650779830939886,0.007649073712015957,0.0010123328185724437,0.0,0.0,0.0
1623490952852597713,166,1623490952852597713,0.0014380839514609308,-0.0004332818353307408,0.0005622369431569577,4.338877326525596e-05,3.0346172905063978e-06,0.00041807240876821233,0.9999999116618079,0.007244588673372465,0.0022733654364266147,0.0001573930600515652,0.0,0.0,0.0
1623490952952584267,167,1623490952952584267,0.0001504120648191591,-0.0015684526837946699,0.0006370912311005496,4.8163794059798213e-05,9.658240455150643e-06,0.0003966968580413242,0.9999999201092606,-0.0008368886418208326,-0.0031493124776632163,0.0016078192483065582,0.0,0.0,0.0
1623490953052868366,168,1623490953052868366,-0.0015565886640115918,-0.002606126669127545,0.0008487958259815272,5.152659454032969e-05,9.852880786297434e-07,0.00037981932322750557,0.999999926540636,-0.007291165235252611,-0.0059748605879031405,0.0019046589591230965,0.0,0.0,0.0
1623490953152674913,169,1623490953152674913,5.577023698719223e-05,-0.0026999824662961615,0.0007658202171487329,4.959165062031645e-05,3.920753856961789e-06,0.0004935303896050442,0.999999876976496,0.0022705436007385248,-0.0054125650190865165,1.6719488852907916e-05,0.0,0.0,0.0
1623490953252768993,170,1623490953252768993,0.00022167116589506786,-0.0029700697349909744,0.0007121761852880436,4.7557087316889605e-05,2.9005598680120536e-06,0.0004917567655170151,0.9999998779525672,0.0018133510936197742,-0.00447854996538867,-0.00011764683489818488,0.0,0.0,0.0
1623490953352785110,171,1623490953352785110,0.0005733606089941524,-0.0015086218324355564,0.00047253962539445563,4.1475850172969004e-05,3.1930963193299374e-06,0.00040271772258466845,0.9999999180439711,0.001980667089936402,0.0038249811126573703,-0.0019813409383000625,0.0,0.0,0.0
1623490953452822924,172,1623490953452822924,-0.0005126638757520851,-0.0012461298181730561,0.0004306628859812579,4.56419717989079e-05,6.715640902245856e-06,0.000415757671731587,0.9999999125086079,-0.0033737757721069316,0.0034794151991688394,-0.0002913367055121436,0.0,0.0,0.0
1623490953552757740,173,1623490953552757740,-0.0013268601032746644,-0.0025316107578506027,0.0005299156796546733,4.6854544300067876e-05,-1.1416129862604715e-05,0.00047033840295769526,0.9999998882280269,-0.0047622432336257,-0.0032519263284930583,0.0004883057971519886,0.0,0.0,0.0
1623490953652985573,174,1623490953652985573,0.0005392530601020591,-0.0032983165025465694,0.0008169681711167196,4.820858808806448e-05,-9.334329899557993e-06,0.0005085731609333638,0.9999998694710398,0.005226262341096599,-0.0060068754462490655,0.002341791810015924,0.0,0.0,0.0
1623490953752753496,175,1623490953752753496,0.0003491605402414841,-0.003383607807548292,0.0008602341437631149,6.174732124726234e-05,1.1637367306835642e-05,0.0003637980319063452,0.9999999318513908,0.002179944768514215,-0.003918021836901744,0.001198434453664516,0.0,0.0,0.0
1623490953852740288,176,1623490953852740288,-0.0012899424168067541,-0.0036055114224525565,0.0008068946848700895,5.850237243659783e-05,2.7406729817378216e-06,0.00040840975723717323,0.9999999148856891,-0.005388457066723396,-0.0023748246837093524,0.0008427286442789484,0.0,0.0,0.0
1623490953952708244,177,1623490953952708244,-0.0011531400824985542,-0.003098667089946415,0.0007916363354770035,4.600957697413462e-05,-4.0358963291446846e-06,0.0004201999974259257,0.9999999106493688,-0.0033689029042050364,0.0007803098746433604,0.0006235242561282217,0.0,0.0,0.0
1623490954052947283,178,1623490954052947283,-0.0012593296224331515,-0.002657030935614232,0.0006595347733316275,5.104351569665375e-05,2.1696403936194363e-06,0.0004963013892298401,0.9999998755373605,-0.0021920084213302308,0.001594924284518748,-0.0011130646895830588,0.0,0.0,0.0
1623490954152680397,179,1623490954152680397,-0.00012463115147279632,-0.0025936397455684707,0.0006127122414301653,4.958597615583578e-05,7.138880438714042e-06,0.00033770803184928215,0.9999999417217511,0.00343315648756445,0.0002971066271747055,-0.00036061594120695775,0.0,0.0,0.0
1623490954252462387,180,1623490954252462387,0.00047049020290849903,-0.0017953058586171076,0.0004631321216198775,3.8145490829289086e-05,-1.6472259297762346e-06,0.0004137324226805846,0.9999999136838179,0.004302056672393078,0.0034805470702593735,-0.0013481997176698027,0.0,0.0,0.0
1623490954352866411,181,1623490954352866411,-8.341220144213754e-05,-0.0009062772783354851,0.0006059524606478194,4.5980054900192496e-05,6.114811314584239e-06,0.0003828042621334267,0.9999999256546441,9.327192612220651e-05,0.0061302383792570594,0.001037435046685168,0.0,0.0,0.0
1623490954452753067,182,1623490954452753067,-0.001640476690648615,-0.002293113717506531,0.0007502641762460034,5.458500213065353e-05,5.1340314711782435e-06,0.0004246514323748803,0.9999999083326125,-0.006019849010867162,-0.0023026187268134707,0.0013230489214654168,0.0,0.0,0.0
1623490954552762747,183,1623490954552762747,-0.000978574765866571,-0.0024932293451849444,0.0007786944858827155,5.077294469054531e-05,-7.1194463467021185e-06,0.0001457582640408435,0.9999999880629512,-0.00044634115551971977,-0.003626375408560051,0.0003954611922537013,0.0,0.0,0.0
1623490954652585506,184,1623490954652585506,-0.0010867160032093368,-0.003024990133366357,0.0007033733872566488,5.2424795757024854e-05,7.118137194694513e-06,0.0003876965940501925,0.9999999234461352,-0.0007216335620155956,-0.004994979168157855,0.00046481053719417875,0.0,0.0,0.0
1623490954752543449,185,1623490954752543449,-0.000790443667584696,-0.0031365833549061185,0.0006276310496634363,4.0120568002857614e-05,-7.967819057130316e-06,0.00042897628823721943,0.999999907153071,0.00039568595803259076,-0.003743706858333565,-0.00030601748802412405,0.0,0.0,0.0
1623490954852468252,186,1623490954852468252,-0.0018128592514845266,-0.004149824370084763,0.0007011594555066658,5.401027239831496e-05,-2.930978264801553e-06,0.00046077705548353573,0.9999998923793725,-0.004045923636842555,-0.0066479876908642245,0.0008994095056749675,0.0,0.0,0.0
1623490954953642845,187,1623490954953642845,-0.0014550822447826552,-0.0039095088081691695,0.0007897333609915552,5.268975234729878e-05,-3.621790954952267e-07,0.00043846086324510235,0.9999999024878348,-0.0010202726780458686,-0.0028729333866856477,0.0011229046718791956,0.0,0.0,0.0
1623490955052620649,188,1623490955052620649,-0.00046098520533024534,-0.002807133479021795,0.0007254769681739279,4.651654457860653e-05,6.00410387305993e-06,0.0004439161671569044,0.9999999003692682,0.003286380924918714,0.0019885672191094455,0.0006780813170658608,0.0,0.0,0.0
1623490955152656794,189,1623490955152656794,0.0005173109368186996,-0.001716143292846077,0.0006910847525553029,5.258181881262887e-05,7.908648458868936e-06,0.00040485384339116517,0.9999999166329568,0.006280727982373686,0.0057550818096488805,8.154024080762694e-05,0.0,0.0,0.0
1623490955252775192,190,1623490955252775192,0.0003109387501117005,-0.002335813960250049,0.0006742564921861399,5.5270465909721174e-05,7.214675367831215e-06,0.0004885908285763405,0.9999998790860303,0.002942700892928731,0.0007255919552536802,6.918232444277914e-05,0.0,0.0,0.0
1623490955352788687,191,1623490955352788687,0.0009619872042095718,-0.0018270492338342454,0.0006298373675029767,5.0596319373536916e-05,7.02748333626814e-06,0.0003916819634743302,0.9999999219879045,0.0040454214149022085,0.0019467650126443821,-0.00027337467409721625,0.0,0.0,0.0
1623490955452734232,192,1623490955452734232,-0.00011369897660713766,-0.0026884933100169393,0.0007109639896113758,5.374973354304039e-05,9.685463211793129e-06,0.0003891201840809964,0.9999999228012912,-0.0020852706075779287,-0.0023884847095389707,0.0005008118453041265,0.0,0.0,0.0
1623490955552954912,193,1623490955552954912,-0.0003642167544727433,-0.0022383538424755206,0.0006896804653085154,4.551665308467203e-05,1.174145299502791e-06,0.00047795662997120576,0.9999998847421246,-0.0017995867105638228,0.0005415077343945526,0.00012571918989407013,0.0,0.0,0.0
1623490955652849436,194,1623490955652849436,-0.00014202914136467884,-0.00173651810039686,0.0008126600400535301,5.371791631514076e-05,4.846181732830226e-06,0.00047856273468195544,0.9999998840342708,-0.00019886108588190298,0.0018169614166331056,0.0012465984270947444,0.0,0.0,0.0
1623490955752606153,195,1623490955752606153,0.0002865524595005573,-0.0019208940489950704,0.0008087710771573333,5.315817839393813e-05,6.33984020137458e-06,0.0005039112042945542,0.9999998716037211,0.0014533547556864754,-0.0007237383629940788,0.0005682549694475185,0.0,0.0,0.0
1623490955852625370,196,1623490955852625370,0.000574903043068692,-0.0024835730495445874,0.0007916502407997629,5.033137111351967e-05,5.989845636600334e-06,0.0003336894103833282,0.999999943041097,0.0027180325902925475,-0.002753838925953192,0.00025778354424997455,0.0,0.0,0.0
1623490955952621698,197,1623490955952621698,0.0009944630838082922,-0.001819344643972925,0.000699468957585375,4.8172963097934945e-05,6.795302565586468e-06,0.0004148866244233594,0.9999999127511084,0.003187784981160933,0.00103020335987153,-0.00029454463858832815,0.0,0.0,0.0
1623490956052613258,198,1623490956052613258,0.001216691132547055,-0.00221447067350249,0.000686401370053351,5.5089534281115776e-05,1.7428436432935025e-05,0.0004185324662666982,0.9999999107459527,0.0028194925702592494,-0.0014499874138283668,5.4631385832116825e-05,0.0,0.0,0.0
1623490956152563095,199,1623490956152563095,0.000371643540864682,-0.0026982424425221097,0.0005629660163486226,4.8944784520885515e-05,9.079865590915892e-06,0.00044085173725100685,0.999999901585823,-0.00146401745272143,-0.0027494031051441166,-0.000463782582780609,0.0,0.0,0.0
1623490956252570391,200,1623490956252570391,-0.0021851902652762455,-0.0035147356494426366,0.0006234463595301717,5.083576741398293e-05,5.419980723217739e-06,0.00034400202374409327,0.9999999395244484,-0.01088105181070009,-0.004573324853362993,0.0008791312344134809,0.0,0.0,0.0
1623490956352791548,201,1623490956352791548,-0.0006339883642948945,-0.0020306605549742494,0.0006978346419244466,5.090983616317387e-05,4.820696275975991e-06,0.00044527135089170216,0.9999998995591541,-0.000206731720041764,0.0023951609105705134,0.0011741281171321518,0.0,0.0,0.0
1623490956452817678,202,1623490956452817678,0.00022355465608190646,-0.00019303077242704871,0.0007267289457853176,4.628597323741841e-05,3.9723112795282935e-07,0.00036534092520049523,0.9999999321916994,0.003065638441909476,0.008818349507836424,0.001209964540242337,0.0,0.0,0.0
1623490956552583456,203,1623490956552583456,-0.0014682735205353086,-0.00032675284160977165,0.0007139498841361886,4.8120879742671195e-05,7.056061709852128e-06,0.00029391827469236586,0.9999999556232914,-0.004587625400791339,0.005133342463978745,0.00036640164387484095,0.0,0.0,0.0
1623490956652600288,204,1623490956652600288,-0.001675195089162205,-0.0022672656974728916,0.0006137579412799778,4.8699803933151294e-05,-2.56096866507407e-07,0.0002046963239745697,0.9999999778638107,-0.002475451827193622,-0.006890915863585077,-0.00037464081693275796,0.0,0.0,0.0
1623490956752643824,205,1623490956752643824,-5.35136065604633e-05,-0.0024585820051280225,0.0005334279115132829,5.117277136279574e-05,1.4335964829925981e-05,0.00040694597970670083,0.9999999157853666,0.00559495269116863,-0.005918313511676433,-0.0009944571880001847,0.0,0.0,0.0
1623490956852906466,206,1623490956852906466,-0.0003408736722466347,-0.0016089949426731957,0.0005214136357096111,4.661563480940911e-05,6.43455830687545e-06,0.00038046538109111604,0.9999999265158055,0.001414373736465426,5.7915444875654074e-05,0.00022864739294714423,0.0,0.0,0.0
1623490956952891350,207,1623490956952891350,0.00039437749744778816,-0.0015928902279053658,0.0005443474795512073,4.584169570171476e-05,4.46036997545429e-06,0.0003898697665234095,0.9999999229400736,0.0033578338032287094,-0.0004807276350243482,-0.00016987230596126658,0.0,0.0,0.0
1623490957052788973,208,1623490957052788973,-0.0007658444322617398,-0.002019789540613219,0.0006753814246983179,4.997760493278502e-05,7.0859937079596305e-06,0.0004477919573081776,0.9999998984671612,-0.0028072201789830853,-0.0011215245369209776,0.001306883162459079,0.0,0.0,0.0
1623490957152567148,209,1623490957152567148,-0.0015901423509376632,-0.002543895122084583,0.0007384509237695594,4.9873199985915145e-05,-2.5742008664509525e-06,0.0003794988310430143,0.9999999267433056,-0.004560367861794394,-0.0031750881886065292,0.0012183199883348313,0.0,0.0,0.0
1623490957252546072,210,1623490957252546072,-0.002148741678500296,-0.0017724384295416745,0.0007444486410960686,4.852334998947868e-05,-8.350068684865597e-07,0.0002301807165078365,0.9999999723307826,-0.005234781877974703,0.000740356468712575,0.0004675823645421929,0.0,0.0,0.0
1623490957352558851,211,1623490957352558851,-0.0014066979041589551,-0.0010518884324584995,0.0007250148995209181,3.9398809670309705e-05,-4.290755355174078e-06,0.0003496807966672606,0.9999999380762999,-0.0001330196607233127,0.00285010265152501,0.0006247753918673262,0.0,0.0,0.0
1623490957452544689,212,1623490957452544689,-0.0006380674543731346,-0.0009455894633778572,0.0005710394711213447,4.336914730627759e-05,6.613367047097579e-06,0.00035477792038937005,0.9999999361039721,0.0035348916182353597,0.0014390197519903102,-0.0007814734473891584,0.0,0.0,0.0
1623490957552767754,213,1623490957552767754,-0.001538934286163679,-0.0014612630439503741,0.0005785626619189597,5.0230698273129705e-05,9.843837324780482e-07,0.0002971126988608292,0.9999999545999455,-0.0013595369219629042,-0.0011118128411390887,0.00016893585568654348,0.0,0.0,0.0
1623490957652594090,214,1623490957652594090,-0.0014101123391000885,-0.0011405965582243797,0.000547596967779298,4.1966758953992654e-05,-1.6215970421553411e-06,0.0004437127037007285,0.9999999006775645,-0.00034869779693564576,0.001166847311489555,-0.0002730402515572193,0.0,0.0,0.0
1623490957752565384,215,1623490957752565384,-8.262800157985022e-05,-0.0006290710803845129,0.0005699673291160766,3.993602394328881e-05,5.177738069917066e-06,0.00030425292134866677,0.9999999529042014,0.005118040967878597,0.0019758643322378205,0.000474511557028269,0.0,0.0,0.0
