%time,field.header.seq,field.header.stamp,field.pose.pose.position.x,field.pose.pose.position.y,field.pose.pose.position.z,field.pose.pose.orientation.x,field.pose.pose.orientation.y,field.pose.pose.orientation.z,field.pose.pose.orientation.w,field.twist.twist.linear.x,field.twist.twist.linear.y,field.twist.twist.linear.z,field.twist.twist.angular.x,field.twist.twist.angular.y,field.twist.twist.angular.z
1624182042516937017,0,1624182042516937017,-0.004746341956097505,0.0066082422969190105,0.0005705072354852602,2.1272099647153358e-05,1.3208738483446269e-05,-0.00011793136122900365,0.9999999927326106,-7.321150746987916e-05,0.0021126669159952463,-0.0004649975209313162,0.0,0.0,0.0
1624182042615928650,1,1624182042615928650,-0.0073468025668641706,0.003814597171186056,0.0004087793669112295,1.2473925679058087e-05,-5.630931043194917e-06,4.354663549568917e-05,0.9999999989581915,-0.02567566694577825,-0.026614536295196032,-0.0014739932861666393,0.0,0.0,0.0
1624182042716901541,2,1624182042716901541,-0.006603277965657843,0.004647616313550264,0.00042808505369971555,1.3503144853909801e-05,2.0801516921745557e-05,0.00013358996111258802,0.9999999907693411,-0.0036965042006364413,-0.0030585549115553293,-3.851433444908682e-06,0.0,0.0,0.0
1624182042815965176,3,1624182042815965176,-0.006426044371791127,0.005043845038398114,0.0003992354972168483,1.570805901580145e-05,1.1758626616516584e-05,0.00015629283151822235,0.9999999875937698,-0.0002137635852005747,0.0016303605789340808,-0.00048477855963983187,0.0,0.0,0.0
1624182042916923523,4,1624182042916923523,-0.007946852802105447,0.006574547079785244,0.001047868453377882,3.139004925200502e-05,2.8519429547044475e-05,0.00015776683361190568,0.9999999866554649,-0.007059133563104472,0.009466018704711667,0.004532134433757463,0.0,0.0,0.0
1624182043016965151,5,1624182043016965151,-0.006779062481414701,0.00864733698668718,0.0007991841391392675,1.0126831263165638e-05,2.4909109466516026e-05,0.00018426521529480306,0.9999999826616552,0.0032141982774988066,0.01652914345588319,-0.0010181844465371151,0.0,0.0,0.0
1624182043115953207,6,1624182043115953207,-0.005134774218351618,0.011053880367996191,0.00037419231671347746,2.555600503583292e-06,7.797558424772904e-06,0.00010467436958862283,0.9999999944879698,0.011324541724870907,0.02371752203234269,-0.0033220409678622245,0.0,0.0,0.0
1624182043215869904,7,1624182043215869904,-0.005250060181820704,0.013398338610606865,0.0005891352813429691,1.0080503009571085e-05,3.0062966442557287e-05,0.00011718848527409617,0.9999999926307288,0.007229128660077793,0.02695702066894526,0.0010944193035269264,0.0,0.0,0.0
1624182043316042423,8,1624182043316042423,-0.0035273100723285,0.013624242601701282,0.0004581928194938741,4.9003619147081604e-06,2.980455274901066e-05,0.00017320148440839932,0.999999984544458,0.013712544058146347,0.018592753608729817,-0.0001744111586637943,0.0,0.0,0.0
1624182043415843487,9,1624182043415843487,-0.005057782866071741,0.010803503133275685,0.0006764871302333094,1.4418168133227182e-05,2.898580539662352e-05,3.1754725975512725e-05,0.9999999989717863,0.0013566306082834004,-0.0005762263724938543,0.0020114250492181017,0.0,0.0,0.0
1624182043516128302,10,1624182043516128302,-0.007926508164319241,0.012295259377529375,0.0006486792808341483,1.3864299245761572e-05,2.0595684496623528e-05,6.055049131755378e-05,0.9999999978586154,-0.012879674766633702,0.006687646251919567,-1.7720757729835623e-05,0.0,0.0,0.0
1624182043616155624,11,1624182043616155624,-0.009548558732790449,0.013707217164953026,0.0006652345467551979,5.068009010682601e-06,1.8361515674356395e-05,-3.609555631084089e-05,0.9999999991671371,-0.014856124178375774,0.0099083430330831,0.000223509397984979,0.0,0.0,0.0
1624182043716149092,12,1624182043716149092,-0.010231027537482508,0.013109248827800013,0.0006177017055441565,1.6320814564997144e-06,5.442412583496597e-06,3.588926727644918e-05,0.9999999993398347,-0.011861181980579734,0.0032315145582307876,-0.00044634357555822123,0.0,0.0,0.0
1624182043816107035,13,1624182043816107035,-0.010711701327644093,0.015098047915952461,0.0008648376456109634,1.9422894152750507e-05,1.2231934919953975e-05,-7.115763227322963e-05,0.9999999972048573,-0.009036870534859243,0.011143913303265352,0.0011829168298805467,0.0,0.0,0.0
1624182043915935755,14,1624182043915935755,-0.012814180620427646,0.016709079451455545,0.0006699776884718157,9.532547029998283e-06,-3.615071265291378e-07,5.6949500703299704e-05,0.9999999983328731,-0.0142760110541739,0.014012982493602284,-0.0005176810937503485,0.0,0.0,0.0
1624182044015924454,15,1624182044015924454,-0.012663771811070946,0.017570818476241208,0.000692300260214382,9.76160898205593e-06,1.0293470696467659e-05,0.000129254628660969,0.9999999915459942,-0.0077344163666718,0.012803674172847168,-0.0001820082673818158,0.0,0.0,0.0
1624182044116114140,16,1624182044116114140,-0.01299082037462473,0.020119246320914556,0.0005240869542421629,-7.45224667826376e-06,-5.480364648681749e-06,-9.220395741229578e-05,0.9999999957064257,-0.006083726821284498,0.01895276517206411,-0.0012612671373023947,0.0,0.0,0.0
1624182044215893269,17,1624182044215893269,-0.012371792419785116,0.02182024937422588,0.0006338468188526196,-1.6102108041086725e-06,-9.880467830015046e-07,-1.3845586947325985e-05,0.9999999999023604,-0.000507681851731545,0.01855953558375472,0.000998724140960098,0.0,0.0,0.0
1624182044315836430,18,1624182044315836430,-0.013513346551320473,0.022182248363361246,0.0003753362038113347,-1.0573564963607737e-05,-1.4862747861621412e-05,5.158372078089191e-05,0.9999999985032042,-0.004894749485972846,0.013429679932372025,-0.0014913299655333898,0.0,0.0,0.0
1624182044415861845,19,1624182044415861845,-0.010805406005774149,0.02357672581126511,0.0004659266847132464,-4.410203371937484e-06,1.3420255912553832e-05,5.53089083494829e-05,0.9999999983706801,0.008817109086744495,0.014935926938099803,0.0007044803019441977,0.0,0.0,0.0
1624182044515932560,20,1624182044515932560,-0.00842649684058809,0.019493088215911475,0.0005320340727372396,3.6094547075056266e-06,1.3486006409007955e-05,1.6221056124339676e-05,0.9999999997709828,0.016020198994810265,-0.006154934809810952,0.0010645390955420476,0.0,0.0,0.0
1624182044615964651,21,1624182044615964651,-0.0074887339670818825,0.014539073309505346,0.00022256327320858927,-2.4686402883944734e-06,-5.001990595424739e-06,0.0001202306276711869,0.9999999927567348,0.01381562695402595,-0.02311954668019922,-0.0015404201240437527,0.0,0.0,0.0
1624182044715981483,22,1624182044715981483,-0.007027131316749665,0.012163346292769535,0.00031024097439285756,1.0239725159231962e-05,1.3976699316385122e-05,1.1798350898443307e-05,0.9999999997802931,0.010937970841662665,-0.024530427745067404,0.00010159507572387629,0.0,0.0,0.0
1624182044815921307,23,1624182044815921307,-0.005596531375086243,0.006904091482381118,0.0006626190897040028,1.9034279839234492e-05,2.168166313570771e-05,0.00013478259847694884,0.99999999050062,0.0132727795820617,-0.036158019765990354,0.0028391571172729545,0.0,0.0,0.0
1624182044916124105,24,1624182044916124105,-0.004827740694300413,0.005347088934315761,0.0007851113037190636,2.7499435296082405e-05,2.1306072473103005e-05,0.0001433285100927356,0.9999999891233784,0.012001155165545986,-0.02882795730642705,0.0017189557895608183,0.0,0.0,0.0
1624182045015859365,25,1624182045015859365,-0.005874773871891396,0.0062470289864866345,0.0005252971472530447,1.601093721198226e-05,1.197252064098765e-05,6.587518788589845e-05,0.9999999976303775,0.002792389274129255,-0.014699903509505887,-0.001215485607455553,0.0,0.0,0.0
1624182045115984917,26,1624182045115984917,-0.004616431879927444,0.009917068986317341,0.000534726228005119,1.3828606308042249e-05,1.503021320425786e-05,0.00010119719435448169,0.9999999946709878,0.007084714810189895,0.0057143506285608665,0.00011098601997556513,0.0,0.0,0.0
1624182045215984344,27,1624182045215984344,-0.005640795566785841,0.011620289906245572,0.0006725015578247601,1.5331502236110728e-05,2.017788973991065e-05,4.9783325344450844e-05,0.9999999984397019,0.0005543610248786935,0.010708819163518141,0.0012387832917445472,0.0,0.0,0.0
1624182045315968990,28,1624182045315968990,-0.006144561431314727,0.018515811387516026,0.000623305056808398,8.468703764618495e-06,1.3849539929171857e-05,2.7252175428823255e-05,0.9999999994968877,-0.0015799969674018242,0.033224395642510465,0.00033109731218942517,0.0,0.0,0.0
1624182045415776014,29,1624182045415776014,-0.007331403928382466,0.018988080493517457,0.0006368497920401024,3.373655043240347e-06,1.0081024713343985e-05,0.00010917925116531147,0.9999999939834334,-0.005834611514667006,0.023763518502490213,0.0004636213277650341,0.0,0.0,0.0
1624182045516069889,30,1624182045516069889,-0.008653227488748604,0.017911488440151724,0.0006162348353400635,2.1561333630392907e-07,-2.0104649999438254e-06,0.00013451588278903212,0.9999999909506866,-0.008689074238148584,0.011816205145695188,-3.5833899493593064e-06,0.0,0.0,0.0
1624182045616057873,31,1624182045616057873,-0.008966401845343138,0.01649327367529839,0.00041271377100556694,3.6333842597462424e-06,4.213041600389736e-06,0.00011194814638553936,0.999999993718323,-0.006260796695256835,0.0024605220199496406,-0.0006884914001088012,0.0,0.0,0.0
1624182045716061831,32,1624182045716061831,-0.008857939070965224,0.01671798004699237,0.000512449229413827,1.4912456531643264e-06,1.7809916126406624e-05,0.00010035737074295668,0.9999999948044829,-0.003033913584736731,0.0029317364592961067,0.0005046922418024322,0.0,0.0,0.0
1624182045815951347,33,1624182045815951347,-0.0076678908348456224,0.01604456520248398,0.0005782562837436061,1.1137114405141924e-05,2.139903768909567e-05,1.9108840561446772e-05,0.999999999526441,0.0030387395129426323,-0.0015083736583527503,-4.79458562968716e-05,0.0,0.0,0.0
1624182045915985584,34,1624182045915985584,-0.007409819817923936,0.015309376336299947,0.0006351461830554245,6.45345414108643e-06,5.413760040870357e-06,0.00010715950366918277,0.9999999942229345,0.003317645704428304,-0.0037807303487063975,0.0006875670064412897,0.0,0.0,0.0
1624182046016552687,35,1624182046016552687,-0.008834469425886829,0.013312998912288578,0.0001971199619242684,-1.6931539257463823e-06,2.7652827702529376e-06,0.00016138209910107723,0.9999999869726438,-0.0036002449969586457,-0.009922331373384167,-0.0026792147675691056,0.0,0.0,0.0
1624182046115960598,36,1624182046115960598,-0.007432189622986808,0.012329331558661746,0.0003076517387720728,1.3376093295724079e-05,7.0301040241574075e-06,8.31255497921596e-06,0.9999999998512709,0.0033278143844477533,-0.010069103170124704,-0.0001784163849587253,0.0,0.0,0.0
1624182046215915203,37,1624182046215915203,-0.006989304885494713,0.01358346090166137,0.0003604094809340286,7.893089824657168e-06,1.1294562310858669e-05,8.3975729034499e-05,0.9999999963790961,0.004236726350410562,-0.0011189173867711157,0.0008022613652347152,0.0,0.0,0.0
1624182046315749884,38,1624182046315749884,-0.006815192544373989,0.013195500942124686,0.0004242045329643649,5.560609876924127e-06,1.49386972618245e-05,6.492515556688859e-05,0.9999999977653109,0.0035786467155997813,-0.0011925837680253249,0.0013594148519632397,0.0,0.0,0.0
1624182046415657997,39,1624182046415657997,-0.007807744621243084,0.011519003360625966,0.000703601100396919,1.3207865127292586e-05,8.983850971267683e-06,2.336547411194887e-05,0.9999999995994397,-0.0016484204956760317,-0.007570710895879819,0.0026293000715540615,0.0,0.0,0.0
1624182046515613794,40,1624182046515613794,-0.007491496539204871,0.012173950819680293,0.00040697314239258664,5.815277941611102e-06,7.142212310980667e-06,9.069844175238586e-05,0.9999999958444733,0.0003809593910806229,-0.0019176856923849859,-0.001769525232485769,0.0,0.0,0.0
1624182046615637779,41,1624182046615637779,-0.008326104150352271,0.01291439686981944,0.000331217644627738,5.731212409430047e-06,3.219302868201763e-06,7.674475210670108e-05,0.9999999970335075,-0.0025701665820802755,0.0025123094758570273,-0.0012212231723973343,0.0,0.0,0.0
1624182046715749025,42,1624182046715749025,-0.008425331675267121,0.011612868845925686,0.0004051724585355733,1.178522169830547e-05,3.973567656979519e-06,0.00011412028080057726,0.9999999934109315,-0.001593075262559199,-0.0028565214588020024,-0.0004921054874915906,0.0,0.0,0.0
1624182046816050529,43,1624182046816050529,-0.008725958017886863,0.013395137504791842,0.0004127258325561432,7.602392961168195e-06,5.756439380057243e-06,9.608196584438054e-05,0.9999999953386525,-0.001961015894980411,0.005454228527337981,1.93774729283652e-05,0.0,0.0,0.0
1624182046916124105,44,1624182046916124105,-0.0068383210306900925,0.011283524734000683,0.00011224747067231246,1.1937019905035775e-06,7.907657036886663e-06,9.809262102175791e-05,0.9999999951569319,0.006941184248039832,-0.0039080111287749355,-0.0022626481117725633,0.0,0.0,0.0
1624182047015922070,45,1624182047015922070,-0.0065589369818919545,0.010140229704697004,0.00028048662748632894,1.2497162570608367e-05,4.711914973053708e-06,0.0001495683650241148,0.9999999887254526,0.005288115934805868,-0.006919828479032696,0.0004973059807454315,0.0,0.0,0.0
1624182047116165638,46,1624182047116165638,-0.007345077264637395,0.00960616488944087,0.00036885588815970227,1.2387135188615006e-05,1.8172843418375066e-05,0.00017079198048964084,0.9999999851731934,0.00035891591268005004,-0.006344509001260772,0.0009536324589451914,0.0,0.0,0.0
1624182047215918779,47,1624182047215918779,-0.007316467857122498,0.010050790814234293,0.0002914448270483257,-3.422460653079751e-07,3.7486319867854115e-06,8.352140047117669e-05,0.9999999965049945,0.0004158452301405237,-0.0018067407781643986,0.0002693554216524551,0.0,0.0,0.0
1624182047315916061,48,1624182047315916061,-0.007834742115942565,0.010890079854753789,0.000598588111047622,1.7967376793681294e-05,1.054763111080046e-05,0.00016273894913477685,0.9999999865409688,-0.001841842897516031,0.002347711942567126,0.0015397922395354823,0.0,0.0,0.0
1624182047416029692,49,1624182047416029692,-0.006762123217351672,0.010763565487339416,0.0004909752185868488,1.2847429414673396e-05,5.460658233603383e-06,9.861085612139199e-05,0.9999999950405026,0.0038340831913353975,0.0015255959170177137,-0.00034327579658476027,0.0,0.0,0.0
1624182047516387224,50,1624182047516387224,-0.006567333283723229,0.010985038509326302,0.00038786023143396635,1.0354020400129138e-05,2.5037141213001515e-05,0.00011518431441168312,0.9999999929992456,0.0035490367112453545,0.0017103842206771813,-0.0009855830115915937,0.0,0.0,0.0
1624182047615953922,51,1624182047615953922,-0.006017190012894232,0.01121506108084612,0.00047643875414770645,7.17929936485459e-06,1.4794695010496084e-05,0.000145163170749323,0.9999999893286053,0.00423967309094417,0.002731495151672701,0.000778938264179324,0.0,0.0,0.0
1624182047715952873,52,1624182047715952873,-0.007222312125736394,0.010848640711922104,0.00041648091071755643,6.147772828955787e-06,1.0755810705551122e-05,4.551679567990873e-05,0.9999999988873607,-0.0022146948568173537,0.00030798300184699864,-0.00011674464398393172,0.0,0.0,0.0
1624182047815695047,53,1624182047815695047,-0.009290810789604724,0.013984239112982326,0.00031820170535145915,1.0590396691821612e-05,8.186735559112127e-06,0.00012326430384764498,0.9999999923133575,-0.009726267715821245,0.012570832749165659,-0.0004471568704825164,0.0,0.0,0.0
1624182047915681362,54,1624182047915681362,-0.00822297909845803,0.014319352534883433,0.00047326592729186325,7.162086532207891e-06,1.762600446729774e-06,0.00011489269298821093,0.9999999933726246,-0.0015650569034048809,0.009573720303006728,0.0012043113888930792,0.0,0.0,0.0
1624182048015934706,55,1624182048015934706,-0.007521092898928519,0.01465219780054094,0.0004296221801880098,-2.0211481551568056e-06,3.0009728874519384e-06,9.294187818540675e-05,0.9999999956743489,0.0016994253470739257,0.008114424476828745,0.00044603118545526036,0.0,0.0,0.0
1624182048115757704,56,1624182048115757704,-0.007834844432698596,0.015007374940451656,0.0003766261938616766,-3.751797039984616e-06,3.7429809662875696e-06,0.00010208530453767388,0.9999999947752426,4.126143232999809e-05,0.0070312322549802644,-0.00033036858243147766,0.0,0.0,0.0
1624182048215796232,57,1624182048215796232,-0.006298347624174915,0.015820328012751295,0.0005568910133647333,1.21288720412957e-05,2.32433673817988e-05,0.00011913754822714159,0.9999999925594303,0.006393339444571698,0.0077610233837282555,0.0012893242796941985,0.0,0.0,0.0
1624182048315800190,58,1624182048315800190,-0.006511543374271216,0.015148737323181045,0.000269695675290306,6.599718012626434e-06,6.207166752156432e-06,9.27801454202009e-05,0.9999999956548691,0.0032750480197004414,0.002182576879034441,-0.001804910136429149,0.0,0.0,0.0
1624182048415824175,59,1624182048415824175,-0.006224775281812545,0.015073900673622126,0.00029538437829722145,-5.527691089626222e-07,4.260879705874079e-06,0.00014206751061437883,0.9999999898991702,0.003186320846571802,0.0014905345194056487,-0.0003047694403149224,0.0,0.0,0.0
1624182048516845703,60,1624182048516845703,-0.0067740866018482695,0.014732050119585728,0.0001590090211524131,-6.1656949304292426e-06,-9.151836179508033e-06,8.315302674728296e-05,0.9999999964818904,-0.000277116618629667,-0.00027824226275612214,-0.0004994901363402054,0.0,0.0,0.0
1624182048615905046,61,1624182048615905046,-0.005776037337860354,0.016933643159132414,0.00021681643565217497,-6.449512085229731e-06,-4.146582803622241e-07,9.78403261939092e-05,0.9999999951927397,0.0038667100583779685,0.00883800239593943,0.0006067669904880913,0.0,0.0,0.0
1624182048716064692,62,1624182048716064692,-0.004566621209498473,0.016848830682445123,0.00039118675253032247,-1.709023768940234e-06,8.584453508389163e-06,7.48949690417505e-05,0.9999999971570532,0.007125414336732076,0.005510326147750693,0.0017548694737645,0.0,0.0,0.0
1624182048815759897,63,1624182048815759897,-0.006864619607344608,0.015683235067373947,0.00042493305731873505,4.252768315152157e-06,6.984043824887877e-06,9.586976385382137e-05,0.9999999953710506,-0.0049049161594554745,-0.0005404673273321269,0.0013242040699040837,0.0,0.0,0.0
1624182048915957212,64,1624182048915957212,-0.00726160609229633,0.016488071084947195,0.0003677840297433611,-6.87603655811582e-06,-4.774704670262072e-06,4.126793232798839e-05,0.9999999991134271,-0.004365718168304497,0.0028445410517580374,8.111624108266468e-05,0.0,0.0,0.0
1624182049016692638,65,1624182049016692638,-0.0064594408173303695,0.01602867743853277,0.0004606866374321801,2.72444471040052e-06,4.66114222469074e-06,7.576601685997076e-05,0.9999999971151685,0.00044576069301536896,0.00020756676566544398,8.065993521667446e-05,0.0,0.0,0.0
1624182049115746737,66,1624182049115746737,-0.006247898275225414,0.016459116970722748,0.0006692953723893109,6.02833321659965e-06,1.0781206191065494e-05,0.00010809372459621317,0.9999999940815737,0.0011761502993813356,0.0027625391315268845,0.001738461205554791,0.0,0.0,0.0
1624182049215775728,67,1624182049215775728,-0.006969480472952122,0.015724008320169916,0.00041571284813488865,4.3016978494712265e-07,5.283419678233901e-06,6.334708277725489e-05,0.9999999979795123,-0.002126013430346697,-0.0008346525861922583,-0.0009443645670495567,0.0,0.0,0.0
1624182049316013098,68,1624182049316013098,-0.006575316932732615,0.015309991252820405,0.00019490339205205175,-2.174653963835434e-06,1.7121609477937422e-05,9.455259772209695e-05,0.9999999953809517,8.609244075792524e-05,-0.001566666742705714,-0.0019282697901387726,0.0,0.0,0.0
1624182049415769815,69,1624182049415769815,-0.008480306231595399,0.01340811847578715,0.000348849549551029,8.487432922403172e-06,6.380467409680485e-06,5.74899829941945e-05,0.9999999982910657,-0.007873992956156706,-0.00812433403914614,0.0012087807824844939,0.0,0.0,0.0
1624182049515763998,70,1624182049515763998,-0.009397266366829549,0.013306477241568922,0.00036230988878486445,4.324630330131475e-06,-5.192796263826235e-06,0.00012267568258439467,0.9999999924524926,-0.007874248685152841,-0.005282286418255358,0.001260016250236131,0.0,0.0,0.0
1624182049615808487,71,1624182049615808487,-0.009860405787308289,0.013249549408782141,0.00047409561894104545,3.3717915577847813e-06,8.425430049151332e-06,5.7409140398464676e-05,0.9999999983109042,-0.006206230324756366,-0.003450260937128308,0.0010680298947224273,0.0,0.0,0.0
1624182049715761423,72,1624182049715761423,-0.008857229732768361,0.010854016272088752,0.0004561028206959134,7.692731835094782e-06,-2.6649999616655147e-06,6.166421036778192e-05,0.9999999980656104,0.0003584330487157424,-0.01088002298662603,0.0007785639420988021,0.0,0.0,0.0
1624182049815711021,73,1624182049815711021,-0.008114268387019875,0.01008558749154446,0.0004418147521799842,8.463690260649688e-06,2.9248249902360856e-06,0.00011570861194734628,0.9999999932656525,0.003186107074745549,-0.009571829663978536,-0.00013934325697379863,0.0,0.0,0.0
1624182049915719271,74,1624182049915719271,-0.0077540500960722285,0.01057254283825994,0.0005203685342179338,1.240549914948079e-05,1.224749931723154e-05,0.00011718865376296429,0.9999999929814488,0.003957300909872105,-0.0033060341643816092,0.0004791990108223292,0.0,0.0,0.0
1624182050015702486,75,1624182050015702486,-0.007353694255224019,0.011110257818674522,0.00046706480051871485,1.1551486761027093e-05,1.6949672601309836e-05,0.00012041255103625151,0.9999999925400327,0.003533386392213217,0.0006873637185917524,-0.00048512228376206815,0.0,0.0,0.0
1624182050115683794,76,1624182050115683794,-0.006376570668722468,0.012441753867965415,0.0003393049116010663,6.449929442672892e-06,1.4301954884686608e-05,0.0001302995610091588,0.9999999913879271,0.006229868598015005,0.005822551665793516,-0.0009967005318317252,0.0,0.0,0.0
1624182050215701342,77,1624182050215701342,-0.007282683903797273,0.013202634200711187,0.0002917004065664302,3.4159241728905766e-06,7.133982202420784e-06,0.00010331196148258833,0.9999999946320267,0.0008696429439629802,0.0063212394650472995,-0.0006657396859981918,0.0,0.0,0.0
1624182050315744638,78,1624182050315744638,-0.007099136771791947,0.014830962015403428,-3.7863477541488313e-05,-2.2487886694626658e-06,2.190902475231896e-07,0.00011363047053542751,0.9999999935414942,0.0014385679681905024,0.01095906401775002,-0.002700298701726633,0.0,0.0,0.0
1624182050415694237,79,1624182050415694237,-0.006956191094639998,0.014512219597063596,0.00032461769940011565,1.8220066296056134e-05,2.006225909001789e-05,7.66894834312215e-05,0.999999996692118,0.0017127416588848005,0.005701523706495122,0.0015224676024290524,0.0,0.0,0.0
1624182050515717506,80,1624182050515717506,-0.004952997388112826,0.01440653436340339,0.00047995695284060717,4.960251422985016e-06,1.550940335373213e-05,0.00026054903753804884,0.999999965924515,0.008980401388744667,0.0036639279253796128,0.0023363871888865914,0.0,0.0,0.0
1624182050615665436,81,1624182050615665436,-0.005424976922117397,0.014015534506390741,0.0002696023900442457,-3.79857799561991e-07,1.309747532866162e-07,0.00014615160808882318,0.9999999893197615,0.0034634613195491538,0.002093892155310739,-0.0002765473845025247,0.0,0.0,0.0
1624182050715708494,82,1624182050715708494,-0.006996015918133876,0.011738394195729232,0.00015368948399979016,5.519709883042237e-07,-7.045717920142335e-06,8.50829999722266e-05,0.9999999963554569,-0.003731837577396171,-0.007233589252883352,-0.00021321804347913448,0.0,0.0,0.0
1624182050815693378,83,1624182050815693378,-0.007353360677471506,0.009419978143093897,0.0004182051704997108,1.324747641527535e-05,2.7197812608379074e-06,2.2309021839295556e-05,0.9999999996596961,-0.0034030926492698626,-0.013489050549427409,0.002002117595731319,0.0,0.0,0.0
1624182050915756226,84,1624182050915756226,-0.007096705594607291,0.00818058704253762,0.0004690178426413006,9.014201479870597e-06,1.355759022136631e-05,0.00011883736458866415,0.9999999928062968,-0.0009949532065220519,-0.013504579097463526,0.000931135977056463,0.0,0.0,0.0
1624182051015774965,85,1624182051015774965,-0.007329907151544517,0.005119324570664156,0.0005301689874381419,1.941682069849935e-05,1.8989786718400163e-05,7.255469239274872e-05,0.9999999969990839,-0.0011394953402596648,-0.01988935092588104,0.0010297682030580846,0.0,0.0,0.0
1624182051115811348,86,1624182051115811348,-0.004033294848381524,0.00475330588864321,0.0005053418824253949,1.838636700899658e-05,2.0382646274558086e-05,5.731514309500749e-05,0.9999999979807206,0.012401830735562155,-0.014061631429109463,-0.00012085218486571731,0.0,0.0,0.0
1624182051215775490,87,1624182051215775490,-0.00492988646362413,0.0029211116961209986,0.0003065671377080869,1.3961667943077793e-05,1.494511026496336e-05,0.00011283343017349007,0.999999993425155,0.004096392702220812,-0.015259669128874578,-0.0012732017220996898,0.0,0.0,0.0
1624182051315741301,88,1624182051315741301,-0.005058406113060602,0.005250573259200816,0.0002608036519046194,1.2726903375453995e-05,3.848619342096828e-06,0.0001229055591349726,0.9999999923587075,0.0025220782068021115,-0.0011067292614890742,-0.0002767315338032938,0.0,0.0,0.0
1624182051415780783,89,1624182051415780783,-0.005155939708211498,0.008344191672249137,0.0002447854591699182,7.172962536433902e-06,1.5417171953924981e-06,7.490482649913711e-05,0.9999999971677078,0.0008609603355981238,0.01153758506631834,-0.0003037245769399063,0.0,0.0,0.0
1624182051515730858,90,1624182051515730858,-0.005742712732184453,0.009099640821077483,0.00012897826780701755,5.817415395328288e-06,9.250589698258816e-06,9.77751931715333e-05,0.999999995160287,-0.0015034076928436921,0.01032359664597023,-0.0005485452481575301,0.0,0.0,0.0
1624182051615926504,91,1624182051615926504,-0.0066165165865707835,0.00824523088281806,0.00044716285433086026,1.264598671096969e-05,8.300660975505549e-06,6.888855304561544e-05,0.9999999975127619,-0.004336967732106627,0.003493808755500775,0.001792273184252739,0.0,0.0,0.0
1624182051715944767,92,1624182051715944767,-0.008003807872947995,0.008802217897950508,0.000346866290107649,1.006822978890983e-05,-1.008607882807389e-06,3.801930919783499e-05,0.9999999992260618,-0.0077483458120585005,0.005160098416589952,0.0002392885771303169,0.0,0.0,0.0
1624182051815628529,93,1624182051815628529,-0.006556530991730752,0.009888552100974743,0.0001993271190495926,4.921490016945214e-06,2.1706131731919087e-06,5.578366953261137e-05,0.9999999984296142,0.001040060770037498,0.007009257760580709,-0.001129031989522672,0.0,0.0,0.0
1624182051915850163,94,1624182051915850163,-0.006828758747455065,0.010299956601772589,0.00023227414224324713,6.595834655095154e-06,2.7439648932383626e-06,6.575791061115529e-05,0.9999999978124209,-3.1018535751790866e-05,0.006080754363908121,-0.0002981988509610902,0.0,0.0,0.0
1624182052015841246,95,1624182052015841246,-0.005753062148942595,0.009748460703203142,0.0004725181171175384,1.0559169296568687e-05,1.2695444511576808e-05,0.00014102583636833326,0.9999999899195106,0.004707522189858333,0.002231716026778776,0.0018813311232243916,0.0,0.0,0.0
1624182052115891695,96,1624182052115891695,-0.0047348566010838285,0.00819084038708175,0.00030454939344492783,6.5431707592132564e-06,1.0252797727486716e-05,0.0001371824045378797,0.999999990516516,0.006480669642135678,-0.0034876319850749692,-0.0004262623785457147,0.0,0.0,0.0
1624182052215846539,97,1624182052215846539,-0.004941656621482458,0.008052214334306189,0.00034796913116799167,6.25486122811201e-06,1.7868865866547663e-05,0.00016773427146895954,0.9999999857533858,0.003203006404981387,-0.002685153153555349,0.00023723372311856394,0.0,0.0,0.0
1624182052315672874,98,1624182052315672874,-0.004357016056903158,0.007728218538412641,0.00045344990349833266,2.5159706045641737e-06,1.2160460047037598e-05,5.798851387965984e-05,0.9999999982415516,0.0041619453514849,-0.0027108570505849318,0.0005269403312446042,0.0,0.0,0.0
1624182052415647030,99,1624182052415647030,-0.0057418819140029635,0.00833291117461759,0.0001967070164670742,9.06802127362217e-06,7.577332733562982e-06,0.0001370192537462577,0.9999999905430278,-0.002860912562122107,0.0010824401848131835,-0.001152462848321113,0.0,0.0,0.0
1624182052515697956,100,1624182052515697956,-0.006830792690555762,0.007519449161276703,0.000210167799957088,9.46368071754791e-06,9.450911544300556e-06,9.354083918026701e-05,0.9999999955356038,-0.005705838856548439,-0.0017560726379265744,1.1251707080689888e-05,0.0,0.0,0.0
1624182052615734816,101,1624182052615734816,-0.006212603037631576,0.009024929234207878,0.0004305652947636756,1.560574903942149e-05,8.905313126494374e-06,0.00011641672294826614,0.99999999306214,-0.0011819967343987652,0.004369430076837554,0.001644662091918104,0.0,0.0,0.0
1624182052715708017,102,1624182052715708017,-0.005341968050328283,0.010550811051286066,0.0003916156759711181,1.7237086688595427e-05,1.5770973777710505e-05,4.6686581717625215e-05,0.99999999863725,0.0029306359127633276,0.008681134363029254,0.00019994466533502608,0.0,0.0,0.0
1624182052815727472,103,1624182052815727472,-0.005407766064185858,0.010374538578080548,0.0003710597563097269,4.237796871540229e-06,6.037772279285927e-06,0.00011411938167268536,0.9999999934611652,0.002232204277030132,0.005696258161357744,0.00020365043665135233,0.0,0.0,0.0
1624182052915740967,104,1624182052915740967,-0.005158469787187277,0.010515447071455623,0.00038048119968653625,1.3091806923035003e-05,1.3256495894220811e-05,0.00018285870198453635,0.9999999831077707,0.002380306513971515,0.004066517843274246,0.000891491042273624,0.0,0.0,0.0
1624182053015735865,105,1624182053015735865,-0.006443985399933464,0.00931348274020588,0.00013936096024401957,3.612924580609677e-06,5.308996952567734e-06,8.902030369760973e-05,0.9999999960170618,-0.0033752992513153605,-0.0016340659723171344,-0.0014344337174909206,0.0,0.0,0.0
1624182053115687370,106,1624182053115687370,-0.007804557847248295,0.009678337052715971,0.0002359533617114409,7.262191142537859e-06,-3.3519462935088908e-06,0.000204485536018091,0.9999999790608333,-0.00784750689417086,0.0010982241271727303,0.00011741916993065604,0.0,0.0,0.0
1624182053215591431,107,1624182053215591431,-0.008335420656642193,0.011461119934037135,0.00032673994227288693,1.3184940537900173e-05,-1.688276465051064e-06,0.00018374916167998906,0.9999999830297642,-0.0066382859061980505,0.007189327036946486,0.0005540814922831746,0.0,0.0,0.0
1624182053315601349,108,1624182053315601349,-0.009481430668926543,0.012327231172390618,0.0004139431368465615,6.840510760694166e-06,-2.8401234247441968e-06,0.00010054469066000542,0.9999999949179406,-0.008314526343925696,0.008897954857702232,0.0020507029477428926,0.0,0.0,0.0
1624182053415554762,109,1624182053415554762,-0.009997420909935778,0.013685358162115595,0.0006427663971156414,5.093560189826977e-06,9.184293475898602e-07,0.00011546176960506686,0.9999999933208839,-0.0071688892285533545,0.011326861076213971,0.002559184472252184,0.0,0.0,0.0
1624182053515583754,110,1624182053515583754,-0.010698738273779356,0.017899036786997332,0.0006295736031437322,1.7431373288341002e-06,3.3762011694887387e-06,0.0001281341014231868,0.9999999917835952,-0.00693380802704569,0.02352198356900275,0.0008402588515654967,0.0,0.0,0.0
1624182053615767956,111,1624182053615767956,-0.01101348898940981,0.018694895557554804,0.00046307215754269517,-5.717191226279031e-07,1.213106484308216e-05,0.00010611882768329682,0.9999999942956395,-0.004968484066405934,0.018201669960629115,-0.0010462067258871829,0.0,0.0,0.0
1624182053715821028,112,1624182053715821028,-0.011820320082830786,0.018455076072871154,0.00025004476988089216,-6.019020296223446e-06,-1.8692814140310058e-06,0.0001554950293453499,0.9999999878907729,-0.006006342182363959,0.011303079235672751,-0.0015811145112352648,0.0,0.0,0.0
1624182053815658092,113,1624182053815658092,-0.013705009738716922,0.019517880144131253,0.0003390293503954117,-8.363885183258606e-07,2.7971547745827525e-06,0.00022506699632369496,0.9999999746681476,-0.011179080463709084,0.011062812882757756,0.00046489131258392884,0.0,0.0,0.0
1624182053915907860,114,1624182053915907860,-0.014493409821149324,0.01856563982417934,0.00040320844821611164,3.919206250473292e-06,-1.1896691405318585e-05,0.00017786835041060174,0.9999999841029643,-0.00934384353892335,0.0036596986122934203,0.0009443969515620925,0.0,0.0,0.0
1624182054015682220,115,1624182054015682220,-0.013372265872870518,0.01724888525196741,0.0005181709936529843,4.250153321432855e-06,-2.5784078013685377e-06,0.00011504614792650181,0.9999999933698207,-0.0013556908873831389,-0.0027004787397173938,0.001804315485242334,0.0,0.0,0.0
1624182054115714073,116,1624182054115714073,-0.01259012484397397,0.015048236384284774,0.00029686378013194295,-4.5992069892929017e-07,-1.6964647448706104e-05,0.00013281539682859897,0.9999999910360144,0.002582845060935513,-0.00946333882579178,-0.0006391081479056367,0.0,0.0,0.0
1624182054215820551,117,1624182054215820551,-0.012079875545975994,0.014770294330610981,0.00045856538856282035,5.654813896439672e-06,5.913247463448119e-06,9.342560866683207e-05,0.9999999956023402,0.0035372428683792066,-0.0070452310504247155,0.0013841409541667084,0.0,0.0,0.0
1624182054315625191,118,1624182054315625191,-0.011889794172101058,0.015311218161501869,0.0007094435607850675,9.312068983668522e-06,1.2058127559721702e-05,0.00010660112997782334,0.9999999942020263,0.0035040665284795103,-0.0031607100482813734,0.0024232484341491093,0.0,0.0,0.0
1624182054415574789,119,1624182054415574789,-0.012112048378848777,0.01324485166524843,0.000599654966551379,1.2441074572234775e-05,4.2977021207895326e-06,0.00011406253200898001,0.9999999934082276,0.0014737890190971653,-0.008844562906892528,6.077541309437414e-05,0.0,0.0,0.0
1624182054515573263,120,1624182054515573263,-0.011352992493106066,0.01223870823435661,0.0003188494862631428,2.8416151570526167e-06,-3.561377821099544e-06,0.00012732593477148574,0.9999999918836573,0.004052881937867556,-0.008773601085574383,-0.001620959945297869,0.0,0.0,0.0
1624182054615738869,121,1624182054615738869,-0.010234761649573505,0.013050113112152633,0.00046708134801589984,8.461670107487727e-06,-5.433100059066271e-07,9.635304584078958e-05,0.9999999953220806,0.007003109416617919,-0.002865349937604628,0.0010803921642908569,0.0,0.0,0.0
1624182054715604067,122,1624182054715604067,-0.008944189206926727,0.015190867794478183,0.0005913527953251905,3.997050125527274e-06,3.2346253791467236e-06,8.670406856537616e-05,0.9999999962279653,0.009670091309644326,0.006862075626045952,0.0013284310919381881,0.0,0.0,0.0
1624182054815615654,123,1624182054815615654,-0.008105252217010526,0.014661963435702405,0.000527371302024484,7.486439080152038e-06,8.560663123225706e-06,0.00019773901412064633,0.9999999803849575,0.009288370691823106,0.002813078253825943,0.0006332512753401765,0.0,0.0,0.0
1624182054915625334,124,1624182054915625334,-0.008860805864933851,0.015397915022367254,0.00017128798842570153,-2.227516622983371e-06,5.382899409508797e-06,0.00010688213037694807,0.9999999942711191,0.0035605953326117946,0.004790607647441905,-0.001968927486566504,0.0,0.0,0.0
1624182055015604973,125,1624182055015604973,-0.009576141201406638,0.015971465171926248,0.00021101342260678786,2.70464405841029e-06,4.236721463935059e-06,0.00010701763583615452,0.9999999942609638,-0.00017655188107094846,0.005386092208195938,-0.0003397080417719008,0.0,0.0,0.0
1624182055115561247,126,1624182055115561247,-0.010099836120796344,0.01468007905500876,0.00020129279569158347,6.615581791722818e-06,7.582870906446175e-07,0.00010163679139527272,0.9999999948127936,-0.002192380198126888,-0.001724575295500022,-0.0007227690123977252,0.0,0.0,0.0
1624182055215814590,127,1624182055215814590,-0.012198176268076769,0.012682343607226589,0.00012691689150678883,2.1412436120733617e-06,-5.210861994166159e-06,0.00014978363993827063,0.9999999887665446,-0.009242646147038793,-0.007805697019443856,-0.00046454087157939524,0.0,0.0,0.0
1624182055315640688,128,1624182055315640688,-0.01337936899637033,0.01229524383662457,0.0002468863861604345,6.564882969858002e-06,-4.849713801168283e-06,9.878398863778243e-05,0.9999999950875358,-0.010448416286510689,-0.005795718833647004,0.0008169048740823988,0.0,0.0,0.0
1624182055415764809,129,1624182055415764809,-0.012642460281045733,0.014529810043437856,0.00018231368248104753,1.8934000817342928e-06,-8.694226240237131e-06,0.0001167058616926588,0.9999999931502658,-0.0029414722021127125,0.004188179976524879,1.7578432017539662e-05,0.0,0.0,0.0
1624182055516093493,130,1624182055516093493,-0.014328958463921276,0.01511860337719259,0.00022443954795946578,1.1350455850760934e-06,-2.6977642475987543e-06,0.0002561352547926381,0.999999967193064,-0.008291831545275668,0.00422745094910535,0.0006090484292169897,0.0,0.0,0.0
1624182055615634918,131,1624182055615634918,-0.0144283973158679,0.015012153148253006,0.0004949509040885744,7.674131411356737e-07,-1.444176480977664e-05,9.409837550771647e-05,0.999999995468153,-0.005056767102751277,0.0027483669361689127,0.002427404243517482,0.0,0.0,0.0
1624182055715601921,132,1624182055715601921,-0.014336097799301815,0.015077558470390306,0.00039452301011072945,1.493881230957369e-06,-1.7976825868036653e-05,0.0001044428220413439,0.9999999943831314,-0.0022516085940399084,0.0016519294257201,0.00037017033423306957,0.0,0.0,0.0
1624182055815593958,133,1624182055815593958,-0.012805517646415776,0.013663283948180166,0.0005073858601922836,1.4228635191190298e-06,-8.284892903433897e-06,4.7404759603995395e-05,0.9999999988410444,0.005048147717922559,-0.0035236611337604506,0.0012990417652118734,0.0,0.0,0.0
1624182055915566683,134,1624182055915566683,-0.011070047878654229,0.013124052462420776,0.00029880313200374793,6.951585331560419e-07,-4.050011633683491e-06,0.00012564282816335522,0.9999999920984785,0.009804592401400143,-0.003812836320250868,-0.0008576792411658593,0.0,0.0,0.0
1624182056015520811,135,1624182056015520811,-0.009445015585064952,0.012238672965714133,0.00016953360452653612,2.5776998451411577e-06,3.0018037964315585e-07,0.00012281281556950993,0.9999999924551205,0.012199285650982078,-0.0057539695942514695,-0.0013689719787234268,0.0,0.0,0.0
1624182056116072893,136,1624182056116072893,-0.008281638831229917,0.010184075785248457,0.00011812015435179445,4.646816395939699e-06,4.379671630157333e-06,0.0001453858599708845,0.9999999894110704,0.012005791228983416,-0.011417302234754526,-0.0007377282235450916,0.0,0.0,0.0
1624182056215500832,137,1624182056215500832,-0.008769855945543883,0.010261442513098403,0.00044642961176074013,1.2076104418653163e-05,-2.280451980994402e-06,9.65222518055305e-05,0.9999999952661927,0.005717917403303572,-0.006929123799778692,0.0026156897691849154,0.0,0.0,0.0
1624182056315485716,138,1624182056315485716,-0.006869227700230443,0.010073751433456794,0.00029152399257375053,3.710012130871224e-06,-5.473796801367076e-06,9.825287944562903e-05,0.9999999951513043,0.011022863153122918,-0.005335783573280281,-0.00046391836754640196,0.0,0.0,0.0
1624182056416126490,139,1624182056416126490,-0.006566633655738824,0.010808366067043879,0.00044598299448599,1.0733149501192254e-05,1.4036080362235882e-05,0.00011475546343811787,0.9999999932594675,0.007737837555663708,-0.0003248644766491171,0.0007218557076564126,0.0,0.0,0.0
1624182056515575409,140,1624182056515575409,-0.008268543695168724,0.010182963110715449,0.0002356434544854192,7.981635151566846e-06,8.130861200165392e-06,5.032188023163371e-05,0.9999999986689271,-0.0017223874077386412,-0.0021955562512703244,-0.0014664156888566427,0.0,0.0,0.0
1624182056615591526,141,1624182056615591526,-0.008540645416593183,0.00880724799980867,0.0003344224481872956,1.4824483170551538e-05,7.931365812872355e-06,9.192695060084958e-05,0.9999999956333631,-0.002092491211330261,-0.006451125192855053,0.0005414933428395351,0.0,0.0,0.0
1624182056715819836,142,1624182056715819836,-0.007529584663936074,0.007440536444256144,0.00024992189618764456,7.572022828797836e-06,6.463519793301064e-06,0.00012096405053755255,0.9999999926342735,0.002590866062548316,-0.008827546003738246,-0.00044290945331184966,0.0,0.0,0.0
1624182056815628767,143,1624182056815628767,-0.007908669098633716,0.006915115295845023,0.0003187700806631458,1.0833003893149642e-05,2.614918282555977e-06,9.405355166697636e-05,0.9999999955148499,0.00012163149438184631,-0.006977872178982485,0.00022308313532815917,0.0,0.0,0.0
1624182056915839195,144,1624182056915839195,-0.006723922300366336,0.008689697482723675,0.000393137633137428,1.1823952070452525e-05,1.8877418054688916e-07,0.00010594779273630666,0.9999999943175926,0.004673653730446022,0.0022467980930066384,0.001475101771988571,0.0,0.0,0.0
1624182057015770435,145,1624182057015770435,-0.005480238857595322,0.0075503021681993365,0.0003425473669569587,5.888520452678723e-06,1.124959300305901e-05,0.00011948562248962824,0.9999999927809596,0.007748774209880705,-0.0015673471447418632,-0.0006545389444433763,0.0,0.0,0.0
1624182057115688801,146,1624182057115688801,-0.004777555288307479,0.005590128033322417,0.00020131087227061406,1.0775794791293117e-05,4.8239556530052125e-06,0.0001554902460784188,0.9999999878416781,0.007648174276158345,-0.007882000910909733,-0.0010288849063052065,0.0,0.0,0.0
1624182057215660334,147,1624182057215660334,-0.005231924973499126,0.003847514797422258,2.4027052746178213e-05,1.2011574366848834e-05,1.2509691302656643e-06,0.0005019405028361997,0.9999998739549172,0.0033870955569945587,-0.010810586976702886,-0.0014670054315635158,0.0,0.0,0.0
1624182057315509558,148,1624182057315509558,-0.0035512632757165544,0.001993627583009825,0.00011420585211768924,2.0851060169324693e-05,1.1934952658590057e-06,0.00017056373181491229,0.9999999852358915,0.008629790196755437,-0.013487125999827262,0.00041224689198896425,0.0,0.0,0.0
1624182057415684700,149,1624182057415684700,-0.002924491621636249,0.0009436719464769668,0.00018787595229206896,1.4192850002711955e-05,1.1454706564659964e-05,0.0002010789756268218,0.9999999796172786,0.007746366743580525,-0.01209065370448642,0.001210970502627286,0.0,0.0,0.0
1624182057515726328,150,1624182057515726328,-0.0014149980350439803,0.0010610418678237766,0.0001164332818337279,9.871618464497728e-06,1.077815500650811e-05,0.0002166132243898104,0.9999999764325259,0.010656873690242607,-0.00774173140640999,0.00013950087164662215,0.0,0.0,0.0
1624182057615697861,151,1624182057615697861,-0.0007770736815987371,-0.00024099576189649493,0.00020901218292102345,1.747952676060852e-05,1.2086754519132245e-05,0.00025666322015778525,0.9999999668361624,0.0090521298437155,-0.009748280226851976,0.001114522871437353,0.0,0.0,0.0
1624182057715781450,152,1624182057715781450,-0.0020105381808505555,0.0018463817068532266,0.0003316709633683355,1.389780501070211e-05,1.0777695115356507e-05,0.00020762318427879116,0.9999999782916319,0.0010066115803468601,0.002541746243847773,0.0013061254298104585,0.0,0.0,0.0
1624182057815793753,153,1624182057815793753,-0.002371683036259862,0.0015743073151487448,0.0002738911487559491,1.3361245104702013e-05,1.0739173066471466e-05,0.0002008723337820182,0.9999999796782058,-0.0007747030578817492,0.001441923823758869,0.00026615841791284415,0.0,0.0,0.0
1624182057915610552,154,1624182057915610552,-0.0025983141887098143,-6.787050055467465e-05,0.0003041934901312528,1.9099147439556672e-05,1.1625677601000905e-05,0.00017220756919844645,0.9999999849222894,-0.0015650880517245336,-0.0044165564519626326,0.0007362124262990728,0.0,0.0,0.0
1624182058015794992,155,1624182058015794992,-0.002905745366699253,-0.0004200890411677116,0.00036843517203120023,2.249585286398688e-05,1.7364047825446875e-05,0.00023376711389559487,0.9999999722726606,-0.0021877438586383,-0.0035148638218196696,0.0002898016281148077,0.0,0.0,0.0
1624182058115822077,156,1624182058115822077,-0.0022914542224228038,-0.0012671778632510021,0.00015710504722510476,1.716736462700435e-05,8.18009672152825e-06,0.00021857902117873948,0.9999999759307698,0.0008869469499008702,-0.004695187447838858,-0.001628770315415307,0.0,0.0,0.0
1624182058215767384,157,1624182058215767384,-0.0014827229628617716,0.0001779814061378169,7.465286646349128e-05,1.3782181400439318e-05,7.460411294527336e-06,0.0001989945510777728,0.9999999800777613,0.0037138595818692888,0.002041242046663321,-0.0006804849615536454,0.0,0.0,0.0
1624182058315697670,158,1624182058315697670,-0.004816812296436311,0.002993030853067069,0.00031900304355245683,2.7112850455726927e-05,1.4525725181020708e-05,0.00018462260059879675,0.9999999824841758,-0.010654178953897432,0.012377131778399738,0.001639695087103847,0.0,0.0,0.0
1624182058415489197,159,1624182058415489197,-0.005532718252946824,0.007946201631999711,0.0004918901387084985,1.4309043969155231e-05,1.0154546538454269e-05,0.00019435915596227192,0.9999999809583064,-0.009073746855418103,0.02649713373261643,0.0021341043223560663,0.0,0.0,0.0
1624182058515449762,160,1624182058515449762,-0.00738752393859292,0.00933272847742001,0.00030919552144045013,9.152829419650696e-06,-6.155979157795056e-07,0.0001457390428764842,0.9999999893379682,-0.01267083156718502,0.022322278564540735,-0.0006755237912800134,0.0,0.0,0.0
1624182058615640402,161,1624182058615640402,-0.00894533564630305,0.012799974801041327,0.00041042330243512337,8.65719308384583e-06,-3.1628998378859816e-06,0.00017150898405442794,0.9999999852498376,-0.013818915156336936,0.027317492743784956,0.0007900328383504202,0.0,0.0,0.0
1624182058715695143,162,1624182058715695143,-0.009754101963349979,0.011122913626484595,0.00014383804958581693,3.9666810098014937e-07,-7.2502309238919385e-06,0.00020776868843520977,0.9999999783897039,-0.0112544790939251,0.011519218838417743,-0.0015208080786048527,0.0,0.0,0.0
1624182058815514088,163,1624182058815514088,-0.008589362198354818,0.009634593108132848,0.00040957983702936973,1.9250087344083636e-05,9.049380548296645e-06,0.00020804955550532075,0.9999999781314409,-0.002053226452914038,0.002658110521732527,0.0012659832495683916,0.0,0.0,0.0
1624182058915573835,164,1624182058915573835,-0.007615082418333321,0.007602071001459536,0.00032611171008331606,9.350947891024707e-06,2.840927288386211e-06,0.00021905002985016112,0.9999999759607648,0.0024140255900683126,-0.005720353954885568,-9.539803037599578e-05,0.0,0.0,0.0
1624182059015696049,165,1624182059015696049,-0.007138294119657651,0.00482429399255502,0.00017130588921156304,1.0909289348111751e-05,4.840635236804777e-06,0.00024609400581830263,0.9999999696476253,0.0035824613159562853,-0.013557488215519442,-0.000987417134138599,0.0,0.0,0.0
1624182059115530968,166,1624182059115530968,-0.00777598800579162,0.0038500949024925517,0.00012527409522680537,1.956035204755024e-05,8.42837454941956e-06,0.00017534521792939814,0.9999999844001818,-4.443881911314618e-05,-0.011717201592356946,-0.0005103911995518871,0.0,0.0,0.0
1624182059215522528,167,1624182059215522528,-0.0069805845643326385,0.0018812271064206731,0.00036193477690353934,2.3828699736882745e-05,6.700451814601728e-06,0.00018173209095415866,0.9999999831803489,0.003428029705794307,-0.014492024129155097,0.0017840067016353781,0.0,0.0,0.0
1624182059315490961,168,1624182059315490961,-0.007396871008808529,0.0017942630744896553,0.0003162350959601729,1.827849272420617e-05,-1.0724265979811794e-06,0.00022588956407764362,0.9999999743193025,0.00024242735834040458,-0.008769483166853807,0.0004377709217568398,0.0,0.0,0.0
1624182059415413857,169,1624182059415413857,-0.006425452332252009,0.005399189837535013,0.00010042710857114337,1.0009601692328108e-05,-1.2938144053391787e-06,0.00023874864338596186,0.9999999714485852,0.004156053908405987,0.007519394883388691,-0.0011470783407141517,0.0,0.0,0.0
1624182059515463591,170,1624182059515463591,-0.008131470200037226,0.005613718874222875,0.00038653477293584836,2.351232682980317e-05,1.0559729422953909e-05,0.00014385194270969987,0.9999999893211169,-0.0038326199967356435,0.005795760204574681,0.0014683184279974226,0.0,0.0,0.0
1624182059615443945,171,1624182059615443945,-0.009006329117126559,0.007033240913505372,0.0003197292377434621,1.7890911911528938e-05,4.700670601946768e-06,0.00020145650854531432,0.9999999795365226,-0.005428801364778442,0.009230304352518537,0.0002422080117863662,0.0,0.0,0.0
1624182059715496302,172,1624182059715496302,-0.009146982266588236,0.008450599330767599,0.0004266862449600988,1.838475459323533e-05,-7.410696419309107e-06,0.00012898583544756592,0.9999999914848438,-0.0038817082995916963,0.0113631894540039,0.0011704146379872336,0.0,0.0,0.0
1624182059815511942,173,1624182059815511942,-0.007952113291579684,0.009147900855357055,0.00026672563508671975,7.648706188185068e-06,-6.519232404687736e-06,0.00019359159645703384,0.99999998121062,0.0022802532389717507,0.010290404320766465,-0.0005773765755867448,0.0,0.0,0.0
1624182059915606022,174,1624182059915606022,-0.008995797105761294,0.006768419376933841,0.0005447042642959974,2.1436954399324863e-05,4.2917475174996065e-06,0.0001343708663365198,0.9999999907332286,-0.0023675896014040444,-0.002038764403042275,0.00195403914018519,0.0,0.0,0.0
1624182060015732288,175,1624182060015732288,-0.008638673790818617,0.002284249164912983,0.0004862277774875309,1.9542019235785714e-05,4.802738255618532e-07,0.00018235326799927252,0.9999999831825568,0.0003800242947994705,-0.017280923879163204,5.8105306239525194e-05,0.0,0.0,0.0
1624182060115450382,176,1624182060115450382,-0.007212315407837726,-0.0038639787405565468,0.00017552933152314827,2.085600668128222e-05,-3.2990108401527044e-06,0.0001644797638635079,0.9999999862502505,0.006038041220412387,-0.03274941066303253,-0.001794138877752239,0.0,0.0,0.0
1624182060215438128,177,1624182060215438128,-0.008279812607005176,-0.003247947516057892,0.00037450776834783864,2.794536503238814e-05,2.642776514606716e-06,0.00018219592944772247,0.9999999830083327,-0.00015895322331521342,-0.018514918325486764,0.0005356359731539433,0.0,0.0,0.0
1624182060315451145,178,1624182060315451145,-0.0076014310929284025,0.0004496448092765011,9.472743353573244e-05,7.092378232270779e-06,-6.355871319236945e-06,0.00018417657529730863,0.9999999829941206,0.0029583360917920963,0.001245385389936609,-0.0020167779591018205,0.0,0.0,0.0
1624182060415396690,179,1624182060415396690,-0.009247819316433733,0.007161263750441467,0.0001394468227956414,1.2082932365647645e-05,-1.0384845876359407e-05,0.00022525524611578267,0.9999999745030913,-0.004379590664635121,0.024682495236693858,-0.0008013985769077302,0.0,0.0,0.0
1624182060515346289,180,1624182060515346289,-0.009480141219566984,0.009058289236595098,0.00011719623003278558,3.3199062417756216e-06,-4.865421516819951e-06,0.00017763021941693703,0.9999999842063809,-0.0034633444111227766,0.0233238091434536,-0.0004336392434343524,0.0,0.0,0.0
1624182060615607738,181,1624182060615607738,-0.00923590811203559,0.01206898020991434,0.00034057745112921385,2.209059200236712e-06,-7.864958999284724e-06,0.0001495817189675641,0.9999999887792612,-0.0007548333780992927,0.02626509766028624,0.0015338564651843642,0.0,0.0,0.0
1624182060715480328,182,1624182060715480328,-0.010577807224895106,0.016114350336323607,0.0006164424883069788,1.0430334335810109e-05,-5.296771504568684e-06,0.0001909308964994439,0.9999999817042479,-0.00538580772236348,0.03160375314386708,0.0030525120151040173,0.0,0.0,0.0
1624182060815502167,183,1624182060815502167,-0.011365822216693714,0.020248061578310828,0.0005370682985985421,-9.614358819349114e-06,-1.0985116487034725e-05,-1.1698037538673076e-05,0.999999999824999,-0.006576728121338819,0.03625109366610704,0.0010785588272642778,0.0,0.0,0.0
1624182060915501833,184,1624182060915501833,-0.010707573891945906,0.022135265175239685,0.0007091845676826178,5.824308409298777e-06,2.0010627450942934e-08,0.00017077245695452004,0.999999985401398,-0.0011971409171243202,0.0307400700779937,0.002070799296381619,0.0,0.0,0.0
1624182061015550375,185,1624182061015550375,-0.011152469546685228,0.019300996460501246,0.0006793735532602334,4.0301392908555335e-06,8.618715243889681e-07,0.00017523445005925665,0.9999999846379268,-0.0024944843040116058,0.009991737030477395,0.0007040649599270895,0.0,0.0,0.0
1624182061115544319,186,1624182061115544319,-0.011142561677283232,0.01459285392474278,0.0003802845293354586,-2.3880247485525436e-06,-1.1320436044731e-05,0.0002124851840370293,0.9999999773580714,-0.0017646684540166776,-0.009755582896271136,-0.001285984392731384,0.0,0.0,0.0
1624182061215698957,187,1624182061215698957,-0.01118960108897881,0.014914457451657976,0.0005069907679477368,1.1984873682897017e-05,-4.586608663808798e-06,0.00014942027912196154,0.9999999887544283,-0.0013495723193350248,-0.004695456312357706,9.423476288535223e-05,0.0,0.0,0.0
1624182061315374374,188,1624182061315374374,-0.010546324194291128,0.011754162652181451,0.00028815286075830276,5.56482658051769e-06,-5.779784815104475e-06,0.0001888914648635605,0.9999999821277956,0.00195422238700429,-0.013941093132806304,-0.0007737636259260508,0.0,0.0,0.0
1624182061415369987,189,1624182061415369987,-0.010203656111995935,0.0135630648994294,0.0003805487819469589,4.927353369980653e-06,-4.40144451831565e-06,0.00014632587378348355,0.9999999892725189,0.0027886430840801772,-0.002174495681008538,0.00042412368694260696,0.0,0.0,0.0
1624182061515388012,190,1624182061515388012,-0.009417178121547989,0.020152780425009443,0.0005897434954384086,1.4632200712893726e-06,3.0442675952913235e-06,8.751026974499005e-05,0.9999999961652475,0.0051550722383739735,0.022997324630662775,0.0015648023298240165,0.0,0.0,0.0
1624182061615449905,191,1624182061615449905,-0.010616508667604323,0.02543103766695086,0.00034240838867582204,-1.557111592538909e-05,-9.289716213117658e-06,0.00015492706764314322,0.9999999878343976,-0.0012395393400146488,0.0345672174788753,-0.0012321489940363055,0.0,0.0,0.0
1624182061715443611,192,1624182061715443611,-0.010979277103330898,0.02774745578383237,0.00031117639785709637,-1.345809461443839e-05,-2.671743865027806e-06,0.00019644616723347357,0.9999999806102972,-0.0021003789944807243,0.030818277362583763,-0.00020777766212153265,0.0,0.0,0.0
1624182061815655470,193,1624182061815655470,-0.010337208625225964,0.03097515010807943,0.00030315804156924424,-1.7951406536376535e-05,-3.4814440142539265e-06,0.00010789338628498113,0.9999999940122963,0.0012414361319832003,0.03169130939125797,-0.00021768488145814768,0.0,0.0,0.0
1624182061915625334,194,1624182061915625334,-0.00703741749656271,0.03589321100116422,0.0006550080398185977,-1.2417814491863266e-05,6.8637706409451164e-06,7.808791092742395e-05,0.999999996850457,0.013365222952263818,0.03891307471463017,0.0024163259163564607,0.0,0.0,0.0
1624182062015813589,195,1624182062015813589,-0.005802847694963216,0.038005100917864576,0.0005262782151516394,-2.3540707675447727e-05,4.527321056876173e-06,0.00012619445881102774,0.9999999917501236,0.013034985825713918,0.03238100617214343,-0.00027237661999365403,0.0,0.0,0.0
1624182062115765572,196,1624182062115765572,-0.006154654898839006,0.03688580686966823,0.00037799205972142015,-2.488596902699644e-05,1.352663082391673e-06,0.0001252665413606177,0.9999999918435518,0.00669193162097784,0.016554825134223822,-0.001042083125295587,0.0,0.0,0.0
1624182062215720654,197,1624182062215720654,-0.0050231995927459494,0.03334388722958715,0.00040667780274005383,-2.2770643597332882e-05,-5.109399334250586e-07,0.00018630887890063182,0.9999999823850958,0.008385759834598733,-0.0013588757280553199,0.0006095024269149159,0.0,0.0,0.0
1624182062315786600,198,1624182062315786600,-0.0027875992282453896,0.033875444678093815,0.0005761177738524202,-8.451919646299794e-06,8.753940141425312e-06,0.0003435801714997876,0.9999999409022744,0.013862180600040958,0.0012974501854055146,0.0009507840755032219,0.0,0.0,0.0
1624182062415793657,199,1624182062415793657,-4.4994469583460525e-05,0.03143031230276114,0.0004515338693253874,-2.3672691633942717e-05,1.207359087893153e-05,0.00015034309202490416,0.9999999883453693,0.019046761566145837,-0.00747701738738161,2.3305399846176942e-05,0.0,0.0,0.0
1624182062515873194,200,1624182062515873194,-0.001678373927648781,0.034420925471256615,0.000547682970185866,-2.213850972253216e-05,4.243114563045054e-06,0.00015515760990375422,0.9999999877089751,0.005477624389517438,0.005883533469146411,0.0011446944841647347,0.0,0.0,0.0
1624182062615886450,201,1624182062615886450,-0.004191273092937662,0.03435757091632149,0.0007773123732368212,-1.8732300412583027e-05,7.973533786262861e-06,0.0001515979101161602,0.9999999883017742,-0.006194380444890524,0.00415081518790201,0.002035383413950828,0.0,0.0,0.0
1624182062715873957,202,1624182062715873957,-0.0067674611539040655,0.03218581615209686,0.0005799030055346444,-1.985400686472236e-05,-2.5936755366211365e-06,0.00016288740666289936,0.9999999865333679,-0.013378310752689852,-0.005081102532988324,-0.0006303334395752727,0.0,0.0,0.0
1624182062822808027,203,1624182062822808027,-0.005397837806361679,0.03131670638318139,0.0004421264842344259,-4.0751594183313686e-05,-1.8301918004842504e-06,0.0001785946647396472,0.9999999832199274,-0.0024318934628228227,-0.007235875597627404,-0.0010636597769405351,0.0,0.0,0.0
1624182062915721178,204,1624182062915721178,-0.004247252589147673,0.03058597524859317,0.0006321809730604207,-1.6831056067867903e-05,5.462570715915679e-06,0.0002301904092504624,0.9999999733496014,0.0027832511415668303,-0.006003510633425848,0.0012459417748535056,0.0,0.0,0.0
1624182063015711308,205,1624182063015711308,-0.004078476595694857,0.027811312101020124,0.0006269803392319163,-1.099037745926767e-05,-3.434300843757732e-07,0.00017426281643662144,0.9999999847557578,0.0021038781298769117,-0.013958123841876993,0.0004096237480746981,0.0,0.0,0.0
1624182063116747379,206,1624182063116747379,-0.003059087057463875,0.027248210580393683,0.0004131547247960939,-1.6818925605275556e-05,3.2898964100671006e-06,0.00017858140905216148,0.999999983907466,0.004943769070149633,-0.010801155602764784,-0.0016861570310639099,0.0,0.0,0.0
1624182063216979027,207,1624182063216979027,-0.0029083415305317917,0.0257396275949561,0.0006129811176536999,-1.551339131513772e-05,-6.722082677943351e-07,0.00021140423208497033,0.9999999775335424,0.00378244196308063,-0.012573205476259718,0.0010043462405889825,0.0,0.0,0.0
1624182063317147970,208,1624182063317147970,-0.003967747341351849,0.024241904044717752,0.0005230889678777965,-1.2108644912530429e-05,5.3651812815464405e-06,0.00019459131812756732,0.9999999809793831,-0.0018059633273821915,-0.013049270122637376,-0.00031909514617864333,0.0,0.0,0.0
1624182063417379856,209,1624182063417379856,-0.005065865557543811,0.02575375693376304,0.00015073297462392518,-3.133627903088771e-05,-1.700048419798865e-05,0.00025962919691300564,0.9999999656608263,-0.0050197829523605155,-0.0026978917759410553,-0.0027499611349897043,0.0,0.0,0.0
1624182063517447710,210,1624182063517447710,-0.003801033314431668,0.023468153845857233,0.0004954079235813267,-1.303525987377652e-05,1.9832937823195115e-05,0.00015989226703896147,0.9999999869355758,0.0019622814647042236,-0.00981658479327889,0.0016672121589102547,0.0,0.0,0.0
1624182063617518425,211,1624182063617518425,-0.002139253017572873,0.022969994880016116,0.000446068579278144,-1.4574633869762144e-05,1.2597558425294409e-05,0.0001930530660793685,0.9999999811796735,0.008539023609160852,-0.00749531443868078,0.00038506504910718314,0.0,0.0,0.0
1624182063717442036,212,1624182063717442036,-0.0014408150271734523,0.023348702307950376,0.0005876934200613454,-1.1656373519772654e-05,1.847445293441321e-05,0.0001868236327718936,0.9999999823098529,0.007616330265552083,-0.0031880112797074015,0.001232233486469116,0.0,0.0,0.0
1624182063817152500,213,1624182063817152500,-0.002368876353776265,0.022810248788815234,0.0006596443114427227,-1.0453630561320452e-05,6.883902913476025e-06,0.00021021011709966529,0.9999999778274964,0.0012364367070496415,-0.0031780095560048414,0.0008048793195651659,0.0,0.0,0.0
1624182063917113781,214,1624182063917113781,-0.0010093559712915415,0.025749106800089926,0.0006367948844507517,-1.4709650426987561e-05,2.3750205715855583e-05,0.000139326453568622,0.9999999899038234,0.006354845764615384,0.0080577126927041,0.00026819703128821407,0.0,0.0,0.0
1624182064016888857,215,1624182064016888857,-0.0007549686260215608,0.027726763887477357,0.0005818436769002455,-1.7812943440088898e-05,1.0474308322228605e-05,0.0001345373668513896,0.9999999907363188,0.005032588546222954,0.012522687218420848,-4.852514020879748e-05,0.0,0.0,0.0
1624182064116825819,216,1624182064116825819,-5.2539339451039746e-05,0.02774499812491393,0.0006248980032914625,-1.8798551545630265e-05,2.1430872834456878e-05,0.00023333436020403286,0.9999999723711802,0.005591758646536806,0.008299538136394384,-0.00017105841891472764,0.0,0.0,0.0
1624182064216917515,217,1624182064216917515,-0.0007152553564531926,0.02493456279816642,0.0005578160397696706,-2.094585269060311e-05,7.727711643307587e-06,0.000233577236933851,0.9999999724715903,0.000765985670155009,-0.004474843236804919,-0.0006506703289290943,0.0,0.0,0.0
