%time,field.header.seq,field.header.stamp,field.pose.pose.position.x,field.pose.pose.position.y,field.pose.pose.position.z,field.pose.pose.orientation.x,field.pose.pose.orientation.y,field.pose.pose.orientation.z,field.pose.pose.orientation.w,field.twist.twist.linear.x,field.twist.twist.linear.y,field.twist.twist.linear.z,field.twist.twist.angular.x,field.twist.twist.angular.y,field.twist.twist.angular.z
1609059013559454441,0,1609059013559454441,-0.004106457629148922,0.00139200832600005,-0.00035831038010061074,4.096749869090024e-05,-0.0002893695984438358,-3.205212579512671e-05,0.9999999567797787,-0.00029778969434861676,0.00036268767968167714,-0.0015205657043124645,0.0,0.0,0.0
1609059013659492731,1,1609059013659492731,-0.0028878829285045346,0.003944123888221792,-0.0006241107699047441,-7.530775759826951e-06,-5.552411118223835e-05,-9.055748179918316e-05,0.9999999943298501,0.01294884735853066,0.027516622429082635,-0.002857166263259159,0.0,0.0,0.0
1609059013759610891,2,1609059013759610891,-0.0007228295414810613,0.007708857615559342,-0.0012427854986607574,-2.9355454368742606e-06,-0.00015167370912489228,-0.00015853842436048794,0.9999999759260171,0.018987403437823673,0.03489087281934433,-0.005086402074835955,0.0,0.0,0.0
1609059013860078573,3,1609059013860078573,-0.002427499217084055,0.006134628492892034,-0.0008020581206721071,-1.0325823456951122e-05,-0.00012440508519530617,-6.448312731536296e-05,0.9999999901293386,-0.0008592872571823555,0.00936861786295591,0.000629362412529073,0.0,0.0,0.0
1609059013960159540,4,1609059013960159540,-0.0005044851175662344,0.007026054452369918,-0.00032831289292421876,-1.790066608203058e-05,-0.00012027367578974436,-6.300134924195612e-05,0.9999999906223186,0.009472946896890582,0.009097465698087111,0.00375850249212695,0.0,0.0,0.0
1609059014059735060,5,1609059014059735060,2.609127198777487e-05,0.007409695647019861,-1.9431537802274954e-05,-5.602531872600823e-06,-0.00015964747017764786,-9.316704329889882e-05,0.9999999829005987,0.007802759398503556,0.006663071337504109,0.0032565623447618048,0.0,0.0,0.0
1609059014159688950,6,1609059014159688950,-0.0013995998307690521,0.006935481152396806,-0.00023120996556187103,1.160272063746281e-05,-0.0001378462406561962,-7.685705618838747e-05,0.9999999874783908,-0.004730704821527393,0.0006611702227307245,2.7533118023949713e-06,0.0,0.0,0.0
1609059014259645462,7,1609059014259645462,-0.0022217099369328296,0.008894257174375845,-0.0005797406612961196,6.356067429434257e-07,-0.00015536466432770495,-0.00015887732679425925,0.9999999753097044,-0.00761766377943714,0.009193701406110059,-0.0024755296353417633,0.0,0.0,0.0
1609059014359585285,8,1609059014359585285,-0.0027648270396230913,0.004872904517501648,-0.0007282626350489203,-1.8504300485290153e-06,-0.0001207519743042408,-3.492171202797117e-05,0.9999999920980034,-0.00786105436103766,-0.01442736625137354,-0.0029427351423096525,0.0,0.0,0.0
1609059014459566593,9,1609059014459566593,-0.0030219790985998754,0.0036168396689541843,-0.001125254971382246,5.896241897418138e-06,-0.00013634766328542454,1.1241682948375667e-07,0.999999990687266,-0.006472044710606287,-0.015064291793843205,-0.0034384165457069576,0.0,0.0,0.0
1609059014570430756,10,1609059014570430756,-0.0036148085312217755,0.0030962874065032066,-0.0007254870249065611,2.4234716402980516e-05,-0.00013711367674360103,2.1110335573173307e-05,0.9999999900834334,-0.006711047887346079,-0.01234090917683675,0.0010872263378772862,0.0,0.0,0.0
1609059014659460306,11,1609059014659460306,-0.0034415094460883574,0.0008087251996573094,-0.0008125144675971339,3.117722672209484e-05,-0.00013625709537828468,-7.779121547810906e-05,0.9999999872052526,-0.0032304095863893564,-0.017792534877492487,-0.0004476553347938547,0.0,0.0,0.0
1609059014759497404,12,1609059014759497404,-0.0025099584044789704,0.0031548562635812815,-0.0004597961455675111,1.3431461469193288e-05,-0.00012051070213956109,-4.6810694114027954e-05,0.9999999915527594,0.00271373512261872,0.0003181095914492893,0.0022886420853171306,0.0,0.0,0.0
1609059014859547853,13,1609059014859547853,-0.0026055049092533113,-0.0002120953847790226,-0.0005812951870611283,3.543701259685418e-05,-0.00015859577419946136,-7.437940306849579e-05,0.9999999840296478,0.001176411422460079,-0.015277258232449248,-0.00030803036055599233,0.0,0.0,0.0
1609059014959667921,14,1609059014959667921,-0.0018323286591604914,0.0014853381488290456,-0.0006301628687427992,5.852779173105576e-06,-0.00012989670545130006,-9.00011697800535e-05,0.9999999874961863,0.003930149218283951,-0.0016842641192634927,-0.0005340856586446621,0.0,0.0,0.0
1609059015059612036,15,1609059015059612036,-0.0031715329187839013,0.003733201756096261,-0.0010315954263421824,3.078090517084459e-05,-0.00013757037022849657,-4.412564605472781e-05,0.9999999890899243,-0.0048312810615959555,0.00891931506054546,-0.002933035332815029,0.0,0.0,0.0
1609059015159996510,16,1609059015159996510,-0.0026098722218233974,0.004267254162049354,-0.0008588469778969947,4.09180204242808e-05,-0.0001280993336551234,-7.651224851276762e-05,0.9999999880310716,-0.00029839311198214067,0.007534406067225631,-0.00029193306756616867,0.0,0.0,0.0
1609059015259661198,17,1609059015259661198,-0.0012470699848829083,0.00478733942892142,-0.0006694764386655483,2.0119742900972884e-05,-0.00015265635578358048,-5.0719856645599054e-05,0.9999999868593593,0.00623363313391486,0.00661798406650253,0.0014231859362913491,0.0,0.0,0.0
1609059015359655619,18,1609059015359655619,-0.002123993708326477,0.0037442510955108094,-0.000710225702634246,6.137445763791171e-06,-0.00013919314214248533,-7.243067151176314e-05,0.999999987670693,-0.00098546342668592,-7.74883518029337e-05,0.0005310887846176728,0.0,0.0,0.0
1609059015459619999,19,1609059015459619999,-0.0018361287497853636,0.0026499340021694626,-0.0007249042064577023,1.9930301757872403e-05,-0.00013442121035879038,-4.2256546597596615e-05,0.9999999898740459,0.0006214288777539893,-0.004905712676305533,0.00027972461355967146,0.0,0.0,0.0
1609059015560008049,20,1609059015560008049,-0.0025076752006256164,0.003137381049868196,-0.0007075715004294643,2.2960693092416654e-05,-0.00011090073855896844,-6.452326223494344e-05,0.9999999915052833,-0.0027513224488670287,-0.0002677572078054087,0.00020902063470073677,0.0,0.0,0.0
1609059015659498453,21,1609059015659498453,-0.001983666282805764,0.002721013556367354,-0.0008407319118017731,2.6729772211977452e-05,-0.00012667759534707533,-6.472397763453727e-05,0.9999999895245492,0.0012155233987200744,-0.0017254930236238618,-0.0006916285294241891,0.0,0.0,0.0
1609059015759997606,22,1609059015759997606,-0.002879651421619071,0.003186138433207673,-0.0007680541721016221,1.464819950009681e-05,-0.00013088437012660108,-6.705768849365093e-05,0.9999999890789815,-0.004222780722143175,0.001162192019053568,-0.00039545617399472876,0.0,0.0,0.0
1609059015859715700,23,1609059015859715700,-0.003771655902651937,0.00468139528087423,-0.0003661220755273694,2.464704301048591e-05,-0.00013058948480605052,-7.580712642971545e-05,0.9999999882960864,-0.0069282944723192625,0.00694408581353566,0.002316432912837743,0.0,0.0,0.0
1609059015959678650,24,1609059015959678650,-0.002601818428642287,0.003512816275606187,-0.00031622890416746404,4.32929731044945e-05,-0.00013761256208537066,-4.3676101004723126e-05,0.9999999886404413,0.0010779641008552623,-0.0012670428464139514,0.000661023476624693,0.0,0.0,0.0
1609059016059758902,25,1609059016059758902,-0.0024993432852677103,0.004092326906469213,-0.0005918336963813888,3.877510817210772e-05,-0.00012274671241950787,-6.54049489524831e-05,0.9999999895759557,0.00041606865255677003,0.0016409577227446417,-0.0013449123749089478,0.0,0.0,0.0
1609059016159708977,26,1609059016159708977,-0.0019704982116471818,0.003991387158837947,-0.0006962096925943907,1.8687436353320846e-05,-0.00012290340177173142,-2.1116908914617536e-05,0.9999999920497961,0.0029746010175971047,0.000997357811039871,-0.0007978598844868815,0.0,0.0,0.0
1609059016259462833,27,1609059016259462833,-0.0020076169806577944,0.004369865967584047,-0.0007688163315962467,2.3124297543718875e-05,-0.00012009907448316564,-7.781274091936351e-05,0.9999999894933189,0.0014903881789362229,0.0021780423924778916,-0.0009434629611442744,0.0,0.0,0.0
1609059016359350204,28,1609059016359350204,-0.0005463204292316262,0.0017210554994389424,-0.0006422919530825547,2.0455511605737182e-05,-0.00014106944774919293,-4.867023462911123e-05,0.9999999886560861,0.007771932831880419,-0.0093152419903922,0.0011459668217513343,0.0,0.0,0.0
1609059016459372044,29,1609059016459372044,-0.0005131005873633139,0.0019289043665559555,-0.0006970519603670104,2.3617347506596186e-05,-0.00013464568782236286,-5.014497781115866e-05,0.99999998939911,0.003955662640691608,-0.004329986159382709,-3.577161990268472e-06,0.0,0.0,0.0
1609059016570486307,30,1609059016570486307,-0.0017324080711346368,0.0025108291613283,-0.000852487137655602,2.044708437165726e-05,-0.00012699375226604608,-2.482064408051303e-05,0.9999999914192089,-0.002987813774042839,-0.0007229084597634066,-0.001303131421308105,0.0,0.0,0.0
1609059016660078287,31,1609059016660078287,-0.003215044423945897,0.0046509616168328004,-0.0009402835059174811,8.097852372393649e-06,-0.0001321571887754108,-4.8798599461217566e-05,0.9999999900437879,-0.008752358664543372,0.010237121365925556,-0.0012435786458035733,0.0,0.0,0.0
1609059016770645857,32,1609059016770645857,-0.003831472753419014,0.0032339857104805103,-0.0009551806513055183,3.094981950770466e-05,-0.00015883154774035758,-5.25520736761618e-05,0.9999999855264522,-0.007284668762355922,-0.0006483310404127671,-0.0008874044465852406,0.0,0.0,0.0
1609059016859773636,33,1609059016859773636,-0.003433277441649343,0.0033854632186694,-0.0010065180034654184,5.887457660878387e-06,-0.00015559518366044286,-4.997892583358762e-05,0.9999999866287799,-0.0027132004210766664,0.0013468218081815443,-0.0005718764875029358,0.0,0.0,0.0
1609059016959826946,34,1609059016959826946,-0.002289057190186909,0.004382695699827609,-0.0005058780316070513,2.4859151802274215e-05,-0.000126082332163091,-4.8305392920414005e-05,0.9999999905759166,0.0033763302784154325,0.005285312115456982,0.002807422997412235,0.0,0.0,0.0
1609059017059880972,35,1609059017059880972,-0.0014681948970335843,0.003345177858730978,-0.0006880246362104252,1.5510405676577833e-05,-9.764756356788903e-05,-4.240781930825148e-05,0.9999999942129664,0.005121138656957383,-0.00044520877197861894,0.00010679989508740641,0.0,0.0,0.0
1609059017159798861,36,1609059017159798861,-0.0024607986884595313,0.003769700390253051,-0.0007856593363537313,1.2231471122178476e-05,-0.00012240607683580042,-4.173377417245872e-05,0.9999999915627045,-0.0013197572109830144,0.0026662697870910787,-0.00048770731543013957,0.0,0.0,0.0
1609059017259695053,37,1609059017259695053,-0.0018856171078797071,0.006305749536896202,-0.0009182941540632727,-2.979474559098431e-07,-0.00014959777356207929,-6.740532758959051e-05,0.9999999865384556,0.002164094467215195,0.012976541555585842,-0.0008412957740972732,0.0,0.0,0.0
1609059017359662294,38,1609059017359662294,-0.0031467607376451795,0.006036593672321022,-0.0005037595005640753,4.934550516730599e-06,-0.0001245069864557716,-6.391587499441364e-05,0.9999999901941969,-0.0046636692682920046,0.006950464066258281,0.0027847304347935293,0.0,0.0,0.0
1609059017459659100,39,1609059017459659100,-0.00035726181081916907,0.0051669622373019045,-0.0008098297560108518,3.617296907070113e-06,-0.0001408037219212457,-4.6564193210258715e-05,0.999999988996487,0.010419018840922716,0.0014785149512347258,-0.0007300135845118658,0.0,0.0,0.0
1609059017559578419,40,1609059017559578419,-0.0008232893569451599,0.003972483409692352,-0.0008757716389867174,6.675299562268229e-06,-0.0001241606714132973,-4.5935672013408956e-05,0.9999999912147267,0.0035867139698303714,-0.0033569881666959344,-7.208042449351971e-05,0.0,0.0,0.0
1609059017659623623,41,1609059017659623623,-0.0008790128447075621,0.0046369304853220265,-0.0008626024301971433,1.4976704856284522e-05,-0.00012553630221219774,-7.334506113327633e-05,0.9999999893184042,0.0020797014636095524,0.0009632059743606312,0.0007637750444973731,0.0,0.0,0.0
1609059017760084391,42,1609059017760084391,-0.0031585594715287865,0.004345427130877006,-0.001138404101488415,1.4910709326590858e-05,-0.0001441707579007648,-4.246832164406298e-05,0.9999999885944381,-0.008839071330558734,5.844052711014068e-05,-0.0010923590486337969,0.0,0.0,0.0
1609059017859736204,43,1609059017859736204,-0.0016483789045026985,0.0037104012501003817,-0.000951819970821838,9.538959613414619e-06,-0.000158788678982347,-6.196454720656765e-05,0.9999999854277646,0.0023430034710599616,-0.0018534491991900228,0.0015189253221778692,0.0,0.0,0.0
1609059017959775209,44,1609059017959775209,-0.001593461435627949,0.0037237758228121937,-0.0009429014614398684,2.1544702905582286e-05,-0.00012600892231503423,-5.216699923980804e-05,0.9999999904680758,0.0015087790402170686,-0.0009349869926664773,1.739427860174541e-07,0.0,0.0,0.0
1609059018059743404,45,1609059018059743404,-0.002257924126926429,0.0018677887793969877,-0.000680182858171732,1.0184456182282466e-05,-0.0001320048946718267,-5.0712580576367985e-05,0.9999999899495946,-0.00245562685460301,-0.0073625701480965,0.0013128671772956065,0.0,0.0,0.0
1609059018159648418,46,1609059018159648418,-0.0026774465501845026,0.00224100805800338,-0.0008586502421174335,4.952052959209399e-06,-0.00012926474091973938,-6.796152471912143e-05,0.9999999893236524,-0.0027109216402824033,-0.0024816678738462583,4.3257273979834584e-05,0.0,0.0,0.0
1609059018259972811,47,1609059018259972811,-0.0024881477251685203,0.004645265093055599,-0.000607977213550151,1.9908987104056886e-05,-0.00014382120076668402,-7.339572426207854e-05,0.9999999867660662,-0.00011983925391217693,0.008417651642640566,0.0014429482323228002,0.0,0.0,0.0
1609059018359730959,48,1609059018359730959,-0.002217068445949572,0.008171031357772708,-0.00046238348086893893,1.2794362734374082e-05,-0.00013338312554063357,-0.00010166529212786017,0.9999999858546916,0.0012307557352516313,0.020328427993967044,0.0015966712282876718,0.0,0.0,0.0
1609059018459769011,49,1609059018459769011,-0.00018422418831652725,0.00805776011961412,-0.0005460276549969414,8.06843531105274e-07,-0.00012564243873844786,-6.296784152426769e-05,0.9999999901241726,0.010021726650069998,0.012608078919766171,-6.15351727981453e-05,0.0,0.0,0.0
1609059018559740543,50,1609059018559740543,-0.0015214832618787107,0.007963411071146021,-0.000638946019161013,2.9087738945356047e-06,-0.00012342080385473547,-6.094754674700238e-05,0.9999999905221034,-0.00014925078278374415,0.007752206574256177,-0.00034692623503883275,0.0,0.0,0.0
1609059018660072565,51,1609059018660072565,-0.0018446936262233621,0.006809419650953395,-0.0003722069096903215,3.479360620270334e-05,-0.00013555662643821765,-6.291847604017083e-05,0.9999999882275188,-0.0012868067878085566,0.0002595567677292441,0.0021829953509329937,0.0,0.0,0.0
1609059018760069370,52,1609059018760069370,-0.0031651339503469965,0.006124323371888632,-0.0004820777919982684,2.40207850132857e-05,-0.00014909288720122262,-6.101175890050473e-05,0.9999999867359222,-0.006750290052670188,-0.0027726875282434336,0.000928848848022191,0.0,0.0,0.0
1609059018860025883,53,1609059018860025883,-0.003261588096354391,0.006450424661567565,-0.0005950428471161047,8.978270184667231e-06,-0.0001439800365226089,-7.832319692394594e-05,0.9999999865272915,-0.004697252057670747,0.0007557200947771168,-0.000307721278643653,0.0,0.0,0.0
1609059018959681273,54,1609059018959681273,-0.003899651743211061,0.004200851288300988,-0.001010343319840494,1.0457132368988161e-05,-0.0001381412357845943,-3.6180350409566966e-05,0.9999999897492977,-0.005054651206377762,-0.008014343600770857,-0.002900794534705601,0.0,0.0,0.0
1609059019059728384,55,1609059019059728384,-0.004438346127560645,0.005191316888897712,-0.000940788611338935,-2.6808343808645764e-07,-0.00014349594271690762,-5.549664843070152e-05,0.9999999881644651,-0.00508130404187093,-0.0008390326255279679,-0.00044717003465394355,0.0,0.0,0.0
1609059019159683466,56,1609059019159683466,-0.0040210355590216285,0.005579465687840686,-0.0007645086399185949,3.122137343716421e-05,-0.00014380986815288284,-7.440503238480746e-05,0.9999999864039019,-0.0005534850888348651,0.001855954746468338,0.000554701993676466,0.0,0.0,0.0
1609059019259641409,57,1609059019259641409,-0.0031048470961553914,0.005073453920775522,-0.0008012483886388015,-1.2375030894130595e-06,-0.00014227573585992858,-4.3351520856840364e-05,0.9999999889383466,0.004219044223274236,-0.00015443565595676598,-0.00026429534613987073,0.0,0.0,0.0
1609059019359702826,58,1609059019359702826,-0.002844954063722449,0.005501380290639091,-0.0009923203239468915,1.1798404115325192e-05,-0.000140323721555277,-6.242980092868352e-05,0.9999999881362673,0.0037881712705536063,0.002738957112276173,-0.001496864049085559,0.0,0.0,0.0
1609059019460153580,59,1609059019460153580,-0.0013617215906995943,0.00552313083081243,-0.0006860281692377298,5.628892256124599e-06,-0.00012192781701471181,-6.963370298174072e-05,0.9999999901265169,0.009315511599951063,0.0025398143130595653,0.0013121298947446128,0.0,0.0,0.0
1609059019559783459,60,1609059019559783459,-0.0012528377260185512,0.007249886469301434,-0.0007227279863639347,-8.730190227064777e-07,-0.00013167475983045254,-5.549560024390994e-05,0.9999999897905985,0.005685207547073532,0.009518459720506491,0.0007995022262690865,0.0,0.0,0.0
1609059019659829617,61,1609059019659829617,-0.001488135727647335,0.006126610989215538,-0.0005181032599034039,1.0364705413621819e-05,-0.00015249403037811808,-4.6366505315077247e-05,0.9999999872441268,0.0026619492688269757,0.0014178083014146923,0.0018523744507877521,0.0,0.0,0.0
1609059019759766340,62,1609059019759766340,-0.0021364447763949704,0.0043336073835952,-0.00027540692162230756,2.0432557347084185e-05,-0.00013385299349574282,-4.196678603345551e-05,0.9999999899523186,-0.0014017554255979646,-0.0057138009391544805,0.0024631260419988687,0.0,0.0,0.0
1609059019859744310,63,1609059019859744310,-0.002788656009768071,0.004659640941564197,-0.00042920222339362755,1.945564829630883e-05,-0.00012876014781653083,-5.655005081649645e-05,0.9999999899221769,-0.00366123415652867,-0.0017763829891073897,-1.1802240661598715e-05,0.0,0.0,0.0
1609059019959738970,64,1609059019959738970,-0.0025483225527179873,0.004421203687042754,-0.0004906782630183996,6.636092904508308e-06,-0.0001276039356461284,-7.634225522524266e-05,0.9999999889225085,-0.0006378676758443998,-0.0016221979253017943,-0.0003211639669004252,0.0,0.0,0.0
1609059020059743643,65,1609059020059743643,-0.002508196376743404,0.004360249791643435,-0.0006637988700296841,1.4522850800080267e-05,-0.00012367898069507756,-5.085390933493418e-05,0.9999999909532171,0.0006896308910471063,-0.00028000413464822544,-0.0010299026359658582,0.0,0.0,0.0
1609059020159727097,66,1609059020159727097,-0.0034678384952140182,0.006276011798300321,-0.0009604084718467061,7.990339472360434e-06,-0.00014638608788722544,-7.75618215483486e-05,0.9999999862456944,-0.003698492525496643,0.00854692262367949,-0.0017577889896169812,0.0,0.0,0.0
1609059020260266066,67,1609059020260266066,-0.0030759785664064535,0.007431667542155361,-0.0009710168046439291,-2.596054241161088e-06,-0.00013155163242017698,-6.725397358404483e-05,0.9999999890821429,-0.00011242359030306766,0.010468509215553107,-0.0007853053072345221,0.0,0.0,0.0
1609059020359934807,68,1609059020359934807,-0.002134518551763174,0.007241372392311637,-0.0010193359559860357,5.332189734251465e-06,-0.00012178529142058513,-5.460552603788606e-05,0.9999999910790502,0.004252371090699585,0.0067514888128005724,-0.0008488992368384522,0.0,0.0,0.0
1609059020460170746,69,1609059020460170746,-0.0025779887254834904,0.006073300938031122,-0.0008542491108096376,7.412508418753666e-06,-0.0001440488772930178,-4.71359194333387e-05,0.9999999884865673,0.0006933084168153645,0.0001860721154666239,0.0010510493919988848,0.0,0.0,0.0
1609059020560098171,70,1609059020560098171,-0.0034572645145922957,0.005465879686720075,-0.0005431014606423339,2.1116937456230782e-05,-0.00012815173790736324,-6.591653332657493e-05,0.9999999893930852,-0.003335154607042162,-0.0015345200595148554,0.0024447283814544142,0.0,0.0,0.0
1609059020660069942,71,1609059020660069942,-0.002510282675088284,0.0029646408068711495,-0.000546232229223507,2.105498731244863e-05,-0.00013313558512698624,-2.6272429845039105e-05,0.9999999905706578,0.0028239279575536487,-0.010440477806301317,0.0010748192856298723,0.0,0.0,0.0
1609059020759752750,72,1609059020759752750,-0.003477634715854415,0.0032454719765633543,-0.0008920933181392448,-3.397341644873484e-07,-0.00014010727819475008,-4.886127429659513e-05,0.9999999889911817,-0.0025467857404480165,-0.004679769444950196,-0.0011962583400119452,0.0,0.0,0.0
1609059020860103130,73,1609059020860103130,-0.00265799509974381,0.0012585807002786957,-0.0007389974135088471,1.988392513148676e-05,-0.00013416112138608322,-3.447946508901883e-05,0.9999999902082701,0.0023146705969327346,-0.010734591174172334,0.0002482276472819322,0.0,0.0,0.0
1609059020959712029,74,1609059020959712029,-0.0026137429399140503,0.0017497452471860382,-0.0009361041202844157,5.049652911377549e-06,-0.00012861268581430068,-5.266416628185071e-05,0.999999990329857,0.0018137454631195363,-0.0036314645773808055,-0.0006426402292821051,0.0,0.0,0.0
1609059021059665680,75,1609059021059665680,-0.0020746719575186396,0.0027102490705389437,-0.0007767699118291044,3.761837652065706e-06,-0.00014706514113660752,-3.5175815186103524e-05,0.999999988560152,0.0037617719782092737,0.002343646352721903,0.0013066996458573333,0.0,0.0,0.0
1609059021159625769,76,1609059021159625769,-0.002042142173433774,0.002939219595767561,-0.0007307400083878593,2.93502037844811e-06,-0.0001291752504923923,-4.787100819241917e-05,0.9999999905067277,0.0031490365574190554,0.003051101434900499,0.000700122714391417,0.0,0.0,0.0
1609059021259718418,77,1609059021259718418,-0.003189918445331256,0.005143094878711883,-0.0009298563163325169,1.594020420773875e-06,-0.0001489193689512279,-4.857899129695315e-05,0.9999999877302548,-0.0026206132089252434,0.01186173209039759,-0.0010186206499152148,0.0,0.0,0.0
1609059021359736681,78,1609059021359736681,-0.002579329108050249,0.005832136958633015,-0.0012827719844139324,1.2010974764929044e-05,-0.0001388644678342195,-4.2652775168850134e-05,0.9999999893765416,0.001438560756898786,0.01061351432770961,-0.0030987437228923607,0.0,0.0,0.0
1609059021459781408,79,1609059021459781408,-0.0021972593204584783,0.00638165700023359,-0.0011029215134285006,1.725658203504402e-05,-0.00012767217395430713,-6.034413333274862e-05,0.9999999898802787,0.0026590951303544228,0.008878412468679247,0.00028391075609598493,0.0,0.0,0.0
1609059021560189486,80,1609059021560189486,-0.002442473046415308,0.005410140707680754,-0.000934484420952754,1.3375663297577142e-06,-0.0001302682456481151,-3.274116798319998e-05,0.9999999909781775,0.001222641560016923,0.002287724750324271,0.0014910093571789463,0.0,0.0,0.0
1609059021660172939,81,1609059021660172939,-0.002771631673870895,0.0052330952561796176,-0.0009632871601312558,2.51056610822826e-07,-0.00015545528230163387,-4.035380007151292e-05,0.9999999871025523,-0.00014225884725270347,0.0014152086144543089,0.0009664930555762228,0.0,0.0,0.0
1609059021759750843,82,1609059021759750843,-0.002347813248061532,0.0038664962290145483,-0.001076261668568857,-1.2746082879857785e-05,-0.0001674846153932535,-4.833818127063584e-05,0.9999999847249009,0.0019445494254793035,-0.00419531216429955,-0.00013181130314931437,0.0,0.0,0.0
1609059021860146999,83,1609059021860146999,-0.001978005708451635,0.0031025401268202036,-0.000820888306639649,3.0135989658381845e-05,-0.00014555330228218586,-4.551881206803785e-05,0.9999999879170179,0.0029927447306846693,-0.004679674144739262,0.0017388601650388479,0.0,0.0,0.0
1609059021959932804,84,1609059021959932804,-0.0033881494451968946,0.003352670112688088,-0.0005639696264486258,3.457955594242408e-05,-0.00013688702905782446,-2.7633736828064777e-05,0.9999999896512556,-0.005367059147052671,-0.002231281058581944,0.001773285629297487,0.0,0.0,0.0
1609059022060001135,85,1609059022060001135,-0.0034920361835777064,0.0037485725352759914,-0.0006746447109324503,2.115224863611786e-05,-0.00013890165367526355,-5.285894964804319e-05,0.9999999887323905,-0.002882560905185193,0.0009215957093132734,0.0005111948685100275,0.0,0.0,0.0
1609059022159954786,86,1609059022159954786,-0.002793368515959715,0.0034131210853196314,-0.0007240026460103586,3.303770810894136e-05,-0.00014149645871381014,-4.990446632732696e-05,0.9999999881983714,0.0016309802470831688,-0.0006061609672155632,-0.00021408988712718474,0.0,0.0,0.0
1609059022259804964,87,1609059022259804964,-0.0012376544031532438,0.003958713506224366,-0.0009915629792220553,1.3267033651986713e-05,-0.00014541994692622386,-4.581520896102612e-05,0.9999999882889627,0.007776843787690152,0.002021533626589941,-0.0022853251622183463,0.0,0.0,0.0
1609059022359766245,88,1609059022359766245,-0.0028680954572061373,0.005468000021254636,-0.0008550448937555219,1.661592222038656e-05,-0.00014497193398237379,-8.419469602772241e-05,0.9999999858091178,-0.00256318533620992,0.008337288214863368,-1.9587884944956887e-05,0.0,0.0,0.0
1609059022460130692,89,1609059022460130692,-0.003219597128469727,0.004577409799230428,-0.0007100481967431462,1.918314586786199e-05,-0.00012266884403396242,-4.8289457722771006e-05,0.9999999911262114,-0.0031749695084996124,0.002404285496348374,0.0009646314961299331,0.0,0.0,0.0
1609059022559778690,90,1609059022559778690,-0.004212700439256405,0.0053802758577922265,-0.000761974462901154,8.328252997352152e-06,-0.00015351199933051342,-5.006828983980265e-05,0.9999999869289025,-0.0056434971177998705,0.005247916540609415,0.00011441880677002289,0.0,0.0,0.0
1609059022659757853,91,1609059022659757853,-0.0038009748312030447,0.0033288906228180364,-0.0007358478290232306,2.3495709467869694e-05,-0.00015752350582715104,-2.45185171425372e-05,0.9999999870165356,-0.0007958364162177637,-0.004658348274265714,0.0002925012604453092,0.0,0.0,0.0
1609059022759788036,92,1609059022759788036,-0.003640570540945627,0.0038874835592533296,-0.0008099830294023812,1.4860794297427922e-05,-0.00013431728802239986,-5.915759571943123e-05,0.9999999891191664,0.0007895641135216907,0.000355306092813798,-0.00019687454415319764,0.0,0.0,0.0
1609059022859768152,93,1609059022859768152,-0.0033461146790879285,0.0035608604925540404,-0.0006698437321901663,2.0747454118026782e-05,-0.0001317865887294453,-5.925249456711091e-05,0.9999999893454555,0.0016561497749100383,-0.0005368958816722918,0.0012990246962489066,0.0,0.0,0.0
1609059022960195780,94,1609059022960195780,-0.0033764553289935165,0.0027646152986561916,-0.0006638135592444706,1.5737643493854375e-05,-0.00013490314273437677,-5.063655518803157e-05,0.9999999894946694,0.0010823724484515136,-0.0023544400350913566,0.00112887760097402,0.0,0.0,0.0
1609059023060243130,95,1609059023060243130,-0.003596411675447678,0.002266973185354252,-0.0006097818226414178,1.8102156056151387e-05,-0.00012948120732470732,-4.744545621945828e-05,0.9999999903278938,2.2856127072903984e-05,-0.0027292896694295072,0.0009683731967075685,0.0,0.0,0.0
1609059023159880638,96,1609059023159880638,-0.0035297566980844568,0.004117609943921268,-0.0006688448070945025,1.561471415420379e-05,-0.00015293132430568154,-6.908432711834537e-05,0.9999999857977379,0.00014785100822476414,0.0060007403974788225,0.0003965497133343488,0.0,0.0,0.0
1609059023259907246,97,1609059023259907246,-0.004391777330833321,0.0034857648508406633,-0.0008798661691101019,-1.7285802261106112e-06,-0.0001279262832554214,-7.033361998458608e-05,0.9999999893424945,-0.0038012824004775535,0.0018782132901859045,-0.0016300687165440358,0.0,0.0,0.0
1609059023359917879,98,1609059023359917879,-0.004404166295350171,0.003997066393007134,-0.0011402415583386318,1.85411763862396e-06,-0.00014850219036174802,-3.965937882923928e-05,0.9999999881853616,-0.001581273784657228,0.004222120404691729,-0.0019859041443299466,0.0,0.0,0.0
1609059023459969044,99,1609059023459969044,-0.0030074745266129815,0.0042544640918528685,-0.0008834220776264973,1.4427819484904093e-05,-0.00014734522995744553,-4.419354212983373e-05,0.9999999880640398,0.0055766344266695266,0.004200426504014756,0.001442405497113275,0.0,0.0,0.0
1609059023560227156,100,1609059023560227156,-0.002901507084670315,0.004132731201995234,-0.0008197696744116803,9.560425285293274e-06,-0.0001453166671724366,-5.6659988811420386e-05,0.9999999877906184,0.003837290184597006,0.0030629586714091325,0.0010037996274056985,0.0,0.0,0.0
1609059023659766674,101,1609059023659766674,-0.0030612028424236094,0.00556429609544723,-0.0006340854466444869,1.9591307270140517e-05,-0.00015174608520510802,-3.972333552289249e-05,0.999999987505644,0.0010572304700676668,0.008210184773306758,0.0014308623497563458,0.0,0.0,0.0
1609059023759796858,102,1609059023759796858,-0.0015531645951059726,0.0043500800052947075,-0.0005306311233828431,1.2367852656621385e-05,-0.0001407480362063453,-4.624003600679143e-05,0.9999999889494049,0.007770302053413535,0.0006005291908940938,0.0006090389973820568,0.0,0.0,0.0
1609059023859817505,103,1609059023859817505,-0.001000254406073605,0.004042839652186356,-0.0008824028918116183,9.025299025089755e-06,-0.00013507416492906384,-5.922394207339504e-05,0.999999989082981,0.006915328416227679,2.2053201020212588e-05,-0.0025479119137726955,0.0,0.0,0.0
1609059023959811926,104,1609059023959811926,-0.0009795620831196904,0.0030761135418448508,-0.0009473665193672379,1.1664106157968472e-05,-0.00013554454264961963,-4.079159872556012e-05,0.9999999899137977,0.004201219145686188,-0.002916765377293609,-0.001604501885926076,0.0,0.0,0.0
1609059024060166121,105,1609059024060166121,-0.0014851312904190976,0.004188014901129198,-0.000600151632851279,8.254816259158224e-06,-0.0001301187099025688,-1.0993144451358001e-05,0.9999999914400274,0.0005466170576722369,0.0031350275341613513,0.0015426335732230546,0.0,0.0,0.0
1609059024160218239,106,1609059024160218239,-0.0017968416267115594,0.0038950351803817692,-0.0007017482046698094,1.3237513522527587e-05,-0.00015199122002592093,-3.2745595159757895e-05,0.999999987825543,-0.000680324403803565,0.0018631480099210826,-0.00013134290377674182,0.0,0.0,0.0
1609059024259765625,107,1609059024259765625,-0.001439407349234373,0.0029607621200158194,-0.0006099238640617659,2.8452107688958914e-05,-0.0001269303282728033,-3.526152992364928e-05,0.9999999909178576,0.0010382022530076003,-0.0017828038910028847,0.0003125524697149951,0.0,0.0,0.0
1609059024359891415,108,1609059024359891415,-0.0022118802525509813,0.0029942880455443984,-0.0007425376512925159,1.729132648020685e-05,-0.00011987564370770769,-3.086812778552654e-05,0.9999999921889595,-0.003360676756503848,-0.0007432093624520329,-0.0006217223276330114,0.0,0.0,0.0
1609059024459949255,109,1609059024459949255,-0.0025122591665311003,0.002112887175277391,-0.0007054397817625778,2.8415948385360687e-05,-0.00013038706625839426,-3.382241425864249e-05,0.9999999905238556,-0.0028830320070430456,-0.0033062082989397308,0.0004998220021291969,0.0,0.0,0.0
1609059024559928179,110,1609059024559928179,-0.0026890413489043434,0.0021822009866041023,-0.000772143652923235,2.744312946743493e-05,-0.00016307303800953965,-3.3180007391180594e-05,0.9999999857765326,-0.0019895364163988382,-0.0009155662129752625,0.00037980128907607355,0.0,0.0,0.0
1609059024659891844,111,1609059024659891844,-0.003204539907874642,0.0011336822498253542,-0.0007616012317058661,1.5256374143545485e-05,-0.00015488115510159695,-3.193967313242904e-05,0.9999999873794233,-0.0035233071561601853,-0.0035537670486078927,0.00023815127181358995,0.0,0.0,0.0
1609059024759756565,112,1609059024759756565,-0.004977357754771579,0.00192516389060388,-0.000665397524012518,2.7697069359252177e-05,-0.00012529756317555411,-2.9894438851074003e-05,0.9999999913198171,-0.010117193492415601,0.0018396273777396997,0.0007577960151265268,0.0,0.0,0.0
1609059024859807968,113,1609059024859807968,-0.004841739838396841,0.0007439935040984444,-0.000924972439694029,-2.1633302851354128e-07,-0.00013611683076025116,-1.8167542428408933e-05,0.9999999905710103,-0.0046663731292571195,-0.00254985207505012,-0.0011853720629813578,0.0,0.0,0.0
1609059024959861517,114,1609059024959861517,-0.004658300493688504,0.0018028890893123472,-0.001102532922126461,1.0534679758704142e-05,-0.00013898729514730233,-1.4023178510876006e-05,0.9999999901874098,-0.0011973087476169126,0.003530990522494083,-0.0010620550438722376,0.0,0.0,0.0
1609059025059915304,115,1609059025059915304,-0.004063613364468233,0.0032142788085985164,-0.001188637705240764,9.087056820193107e-06,-0.00015235884768180936,-3.29464177089004e-05,0.9999999878093279,0.002006039644097304,0.008399289252337464,-0.0006853927093206043,0.0,0.0,0.0
1609059025159881353,116,1609059025159881353,-0.004899884542786142,0.0030719918959120646,-0.00109868324904316,6.9523170395172025e-06,-0.00015191277850828123,-2.564981223940421e-05,0.999999988108087,-0.0022222522563436656,0.005703453381292167,0.0002957335256348213,0.0,0.0,0.0
1609059025259823561,117,1609059025259823561,-0.004885074716708844,0.0019351843587124017,-0.0008577221048374086,1.5164395040677827e-05,-0.0001464427050604441,-2.373709523740864e-05,0.9999999888805192,-0.0006435705394509134,0.0001816468480753874,0.001582806934384602,0.0,0.0,0.0
1609059025359908819,118,1609059025359908819,-0.004622093382603309,0.00016657149267378845,-0.0009178932936707452,1.5199430340418672e-05,-0.00013283786378348125,-2.0829351591333694e-05,0.9999999908445647,0.0011027616752956103,-0.0053669607141313596,0.00034110496636600616,0.0,0.0,0.0
1609059025459950686,119,1609059025459950686,-0.004260557562699505,0.0010757512707332102,-0.0008485850919152426,1.9663868953943056e-05,-0.00015661772277735263,-3.0006703127678277e-05,0.9999999870918649,0.0030785428588782013,0.0009515978260133335,0.001054172372067304,0.0,0.0,0.0
1609059025559992075,120,1609059025559992075,-0.004177106607628254,0.0007740671207259438,-0.0007144149172636175,2.873321800317846e-05,-0.00015344823945015937,-5.251568627993811e-05,0.9999999864350261,0.002136454232615979,-0.0004580141938848367,0.0009323095568423869,0.0,0.0,0.0
1609059025659875870,121,1609059025659875870,-0.004559193922410675,0.0016943163638175093,-0.001020927716473714,6.789438829873784e-06,-0.0001558810410086047,-3.5617547559823656e-05,0.999999987193152,-0.00046719798196767897,0.004070692015683241,-0.0014385867456296643,0.0,0.0,0.0
1609059025759917736,122,1609059025759917736,-0.0052586256603961564,0.001612034010833962,-0.000942806132264618,1.8725371616627523e-05,-0.0001478883447717238,-2.3563091357755163e-06,0.9999999888863773,-0.00327519789087133,0.00266998744004973,-0.00028765149980086464,0.0,0.0,0.0
1609059025860312939,123,1609059025860312939,-0.005428166068928053,0.0018573646948123715,-0.0007973467272710044,2.871355328196694e-05,-0.00013028172967098595,-2.9918894101684292e-05,0.9999999906534858,-0.002410000146800308,0.0037659574106818014,0.0009006696053637552,0.0,0.0,0.0
1609059025959869146,124,1609059025959869146,-0.006437003757613496,0.0017336929566591427,-0.00073594827563813,1.7878544215134187e-05,-0.0001457496381075117,-2.8368700692690102e-05,0.9999999888162621,-0.005416230333961635,0.0031798080452524117,0.0005470916527318626,0.0,0.0,0.0
1609059026060179949,125,1609059026060179949,-0.005738608538942094,0.0011100695858350003,-0.0009999742379677035,1.5824155980413274e-05,-0.00016407164226739406,-1.476521949487149e-05,0.9999999863059934,0.00035591280702732854,0.000270738016337509,-0.001554009857283265,0.0,0.0,0.0
1609059026160116911,126,1609059026160116911,-0.004677540904338887,0.0004550443427864846,-0.0013792591501893899,4.5476072780961524e-06,-0.00015363029034226553,-1.7995457718193242e-05,0.9999999880265612,0.00487367522339863,-0.0017969024161786588,-0.0038008240146514298,0.0,0.0,0.0
1609059026259835958,127,1609059026259835958,-0.0041117459617755325,0.003339065640932799,-0.0011454041269840193,1.1305324868575056e-05,-0.00013321636732032752,-2.4260260509828622e-05,0.999999990768467,0.004995055911557947,0.010936566546356207,-0.0006238738776523488,0.0,0.0,0.0
1609059026359911203,128,1609059026359911203,-0.004023241085127326,0.003438422662350968,-0.0010077682510771198,1.6768729439986955e-05,-0.00013921257957521719,-3.403552681274086e-05,0.9999999895900777,0.0035883078942870236,0.007486839931051063,0.0007931123642499423,0.0,0.0,0.0
1609059026460375547,129,1609059026460375547,-0.00435279445358738,0.0032037855069038646,-0.0008666621382880587,2.2856852865678e-05,-0.00013713177578720612,-5.831804265465928e-05,0.9999999886356753,0.0011843546641198874,0.0038432891066946338,0.000947859971383584,0.0,0.0,0.0
1609059026560050011,130,1609059026560050011,-0.004256148607106483,0.0025258622887794693,-0.00078627960695817,2.743742171891625e-05,-0.00015878544387858408,-4.080584306595368e-05,0.9999999861845787,0.0011792495999222146,-0.0003514970451452453,0.0007849161469468185,0.0,0.0,0.0
1609059026660398006,131,1609059026660398006,-0.004356826686816984,0.001122439081296312,-0.0011179087694898162,1.3765649695836086e-06,-0.00015543039153951904,-1.6442548295965972e-05,0.9999999877845221,0.00048786894150868127,-0.005056881778646366,-0.001634171720510069,0.0,0.0,0.0
1609059026760385513,132,1609059026760385513,-0.003621440450078175,0.0009284895937698161,-0.0013665417469385462,1.0532964093528437e-05,-0.0001401969362011479,-3.491370351695128e-05,0.9999999895074059,0.0036493387109982896,-0.002879162332187186,-0.0024673094800038166,0.0,0.0,0.0
1609059026860018969,133,1609059026860018969,-0.00487026011434888,0.0019179343084169687,-0.0012029474450877917,1.905108717988835e-05,-0.0001322368519142852,-2.7411819583526807e-05,0.999999990699483,-0.0033955857334013345,0.003097034358931566,-0.00024090105831125553,0.0,0.0,0.0
1609059026960067272,134,1609059026960067272,-0.005606690024726019,0.0017141877399623616,-0.0012100109302174112,2.6831374703524748e-08,-0.00013902896850675464,-2.1376511412817954e-05,0.9999999901069467,-0.004985167904858452,0.0018636249924872973,0.00026246189395132233,0.0,0.0,0.0
1609059027060317755,135,1609059027060317755,-0.005454685314708324,0.0009052728481127171,-0.0009670258435922726,2.8339925223277463e-05,-0.00016785392980101668,-3.736941687043687e-05,0.9999999848126679,-0.0017275605112192392,-0.0017193966402946285,0.001692900627270786,0.0,0.0,0.0
1609059027159902096,136,1609059027159902096,-0.004496518511384928,0.0008043339352700612,-0.0005802387859101594,2.830460385175587e-05,-0.00015778738660436725,-4.4754923198971336e-05,0.9999999861494441,0.003063931838455372,-0.0012043381655043519,0.0032899297835325874,0.0,0.0,0.0
1609059027259924889,137,1609059027259924889,-0.004055224242624528,0.0019420249437047048,-0.0006931616464011161,1.490834060411706e-05,-0.00013410156667841691,-2.5485038237991028e-05,0.9999999905724622,0.003427263763223074,0.004294424246364316,5.865527216419647e-05,0.0,0.0,0.0
1609059027359847784,138,1609059027359847784,-0.003686430483585509,0.0025170483128608098,-0.0007885896963688286,2.2749825597366864e-05,-0.0001250137175502317,-2.5405732623794745e-05,0.9999999916042327,0.0037169978376714033,0.005115281648068505,-0.0004891036396137486,0.0,0.0,0.0
1609059027459856033,139,1609059027459856033,-0.0038195558649787836,0.001048220641483611,-0.0007449312729191185,2.1924888150922587e-05,-0.00013645387793463257,-4.8239801332015314e-05,0.9999999892862298,0.001942894529799761,-0.002141306727459536,0.0003503172690053986,0.0,0.0,0.0
1609059027560261011,140,1609059027560261011,-0.004953894606338234,0.0015382236216161078,-0.0009786359328632461,1.2610812143512104e-05,-0.00015716177783968612,-2.924729319752175e-05,0.999999987142819,-0.0034507680676442516,0.000915044136577248,-0.0013456230262952175,0.0,0.0,0.0
1609059027659880161,141,1609059027659880161,-0.00522586039658894,0.002344912837435779,-0.0011231223370914605,2.7561811683893576e-05,-0.0001447853504850393,-4.5809118269559586e-05,0.999999988089486,-0.003201228487939293,0.004104030183953972,-0.0022210219525908748,0.0,0.0,0.0
1609059027759964228,142,1609059027759964228,-0.006102829447346688,0.0022576432713277837,-0.0011479366050560825,6.479148083196644e-06,-0.00011901550446894006,-2.2996795917162602e-05,0.9999999926321872,-0.005853334062506767,0.0028518085169385527,-0.0007235684254992734,0.0,0.0,0.0
1609059027860043287,143,1609059027860043287,-0.0056710170786631745,0.003091245542480621,-0.0009238921299754516,8.843331359188724e-06,-0.00012663540191465027,-4.29564442634953e-05,0.9999999910199552,-0.0007639238433342363,0.00591753882420051,0.00108291545624535,0.0,0.0,0.0
1609059027960080624,144,1609059027960080624,-0.0053941138428361,0.0025042292603689106,-0.0008023110897761133,2.0726123210473167e-05,-0.00013975884787828847,-4.090924467036523e-05,0.9999999891821103,0.0012908417142260436,0.0020125639595488204,0.001762447865903942,0.0,0.0,0.0
1609059028060029030,145,1609059028060029030,-0.0049329327817079485,0.0021840482685918255,-0.0008995076426320399,6.961457641602168e-06,-0.00016834579288210223,-3.9919969694288234e-05,0.999999985008761,0.00312113922645162,0.00048133889974098093,6.504439765005199e-05,0.0,0.0,0.0
1609059028159999132,146,1609059028159999132,-0.005079175729392745,0.0018807266335938602,-0.0009079771243307217,1.818123791716294e-05,-0.000145486071285617,-4.066912285406084e-05,0.9999999884245802,0.001259046609016525,-0.00041597601716784226,0.00011542772891927005,0.0,0.0,0.0
1609059028259883404,147,1609059028259883404,-0.005509242945040671,0.0029288981889736944,-0.0007946583961205896,2.1986476648136287e-05,-0.00012182624220337177,-3.104215921889357e-05,0.9999999918556186,-0.0014769002562214579,0.0044465451741478885,0.0006639535670737853,0.0,0.0,0.0
1609059028359866142,148,1609059028359866142,-0.005310670042053423,0.0036894957864328807,-0.0008445977929202069,1.2322535625449013e-05,-0.0001377955087548152,-3.1845760206515445e-05,0.9999999899231456,0.00011853200562567871,0.006551520138082444,0.0004067964137457081,0.0,0.0,0.0
1609059028459935427,149,1609059028459935427,-0.004197643116042669,0.0026052324189186193,-0.0007032256267495546,1.8180242255893987e-05,-0.00015271767198715323,-4.9744910566908255e-05,0.9999999869360625,0.004603803913397988,0.0006278523774382126,0.0008087649975077034,0.0,0.0,0.0
1609059028559920549,150,1609059028559920549,-0.0032092481023225402,0.0014171165864581697,-0.0009496411868775108,1.8680423843807972e-05,-0.00015214988340319456,-5.859184663779603e-05,0.9999999865341701,0.006803982892621989,-0.0035019056176830926,-0.0011904129271074748,0.0,0.0,0.0
1609059028659937859,151,1609059028659937859,-0.003732336411047851,0.0012374572662603419,-0.0009573347445643961,2.205618232509896e-05,-0.00014589360690930238,-4.631367594433724e-05,0.9999999880417562,0.001375976985657991,-0.0028561056594665923,-0.0006367496026772734,0.0,0.0,0.0
1609059028759936094,152,1609059028759936094,-0.005115896665661655,0.001316499204077377,-0.0010451680827789091,1.3659021562199077e-05,-0.00013544326207233073,-3.54360102389269e-05,0.999999990106366,-0.005272303840927956,-0.000480996465209365,-0.0003711004987571498,0.0,0.0,0.0
1609059028859870911,153,1609059028859870911,-0.005922157366923645,0.0024942185376967867,-0.0010054872291835962,1.2887249145054033e-05,-0.0001242375104812326,-5.538193442536786e-05,0.9999999906658449,-0.006266353836767763,0.004825724781080993,-0.00015571511509603422,0.0,0.0,0.0
1609059028959957361,154,1609059028959957361,-0.006044920742354669,0.003915525469384855,-0.0012877863901195662,-3.0363362677637086e-07,-0.00016901905292888907,-5.51561030643985e-05,0.9999999841950802,-0.0034923742026320213,0.009518540633166263,-0.0012184394919983032,0.0,0.0,0.0
1609059029059992552,155,1609059029059992552,-0.005638102740866727,0.004244421032137382,-0.0013237763644864374,6.148116359355015e-06,-0.00015508016871858854,-2.5835579719476934e-05,0.9999999876223761,0.00014104274510003036,0.008262621235290594,-0.00013459494946112602,0.0,0.0,0.0
1609059029159980536,156,1609059029159980536,-0.005492847319816161,0.003549619285284598,-0.0013694332472694467,-5.248235021856332e-06,-0.00015333802457412454,-6.0835854132938676e-05,0.9999999863793956,0.0010875236474078842,0.003377082023474905,-0.001192344281454432,0.0,0.0,0.0
1609059029260038853,157,1609059029260038853,-0.005464817301112763,0.003004575329209176,-0.0010556983350486116,2.2252854910517473e-05,-0.0001373389540783722,-3.330601490339686e-05,0.9999999897667086,0.0005105711523245406,0.0002668005559230413,0.000584932730772857,0.0,0.0,0.0
1609059029359980822,158,1609059029359980822,-0.00574312215635187,0.002249235938178726,-0.0010872578996113235,1.4412936742462868e-05,-0.00013529773701934227,-4.9091233268439986e-05,0.9999999895383623,-0.0004970223702674882,-0.002690948295517632,0.0004126391645362283,0.0,0.0,0.0
1609059029460448265,159,1609059029460448265,-0.005125172130203427,0.002496782530280561,-0.000958768744556447,1.851241503193324e-05,-0.00015635639520805077,-4.0913956174510235e-05,0.9999999867679494,0.0025566096040251472,-0.00012955672682340774,0.0005565428561582738,0.0,0.0,0.0
1609059029560438871,160,1609059029560438871,-0.004522272522897221,0.0022107269619855464,-0.0008572941006343732,3.0583572995039134e-05,-0.0001725230758782844,-4.589387384304017e-05,0.9999999835970336,0.003809081302340784,-0.0008702288677615929,0.0010410596540745766,0.0,0.0,0.0
1609059029660099983,161,1609059029660099983,-0.0049204233919147465,0.0023467298788601362,-0.0009945649211547905,1.6771259216549043e-05,-0.00014657520471723684,-4.3865830296201396e-05,0.9999999881550519,0.0006347008844302046,0.00046484206460125363,-0.0006226168240274539,0.0,0.0,0.0
1609059029760098934,162,1609059029760098934,-0.005450241002445964,0.0037062018645666684,-0.0010936070235346403,1.270854821792898e-05,-0.00012684509007050576,-6.189489472516767e-05,0.9999999899588586,-0.0021455741745018053,0.006383125475514341,-0.0011304760278818106,0.0,0.0,0.0
1609059029860083818,163,1609059029860083818,-0.005499814515262257,0.003919253175189558,-0.001009058523130654,1.869408719696659e-05,-0.0001451019816421609,-4.164203855464242e-05,0.9999999884308823,-0.001107938756029944,0.005236844186677208,0.0006803629309677091,0.0,0.0,0.0
1609059029960053921,164,1609059029960053921,-0.0065464953852689255,0.0030209292049917093,-0.0010379717042237058,-3.6756777295383756e-06,-0.00015306101985113348,-3.795437539715696e-05,0.9999999875590783,-0.004404981425323012,0.00034099417532667056,0.0005072907224756354,0.0,0.0,0.0
1609059030060014725,165,1609059030060014725,-0.006473968691106842,0.003168945152567781,-0.0005814547086176308,3.7467544787283596e-05,-0.00016497695726550677,-6.840123458385422e-05,0.9999999833499679,-0.001958421215366599,0.0014566580002874129,0.003131063843439527,0.0,0.0,0.0
1609059030160022974,166,1609059030160022974,-0.005766274017746452,0.0025765760460247783,-0.000982898940039415,4.555336461007429e-06,-0.0001490334367658294,-3.942281441958609e-05,0.9999999881070006,0.0020080722953616267,-0.0011476664236209568,-0.001445353239216237,0.0,0.0,0.0
1609059030260085344,167,1609059030260085344,-0.004757980080094526,0.002511867244262804,-0.0011470553839476292,-4.012697515267491e-06,-0.00013462727211742382,-5.037980079419956e-05,0.9999999896605739,0.005173189126244926,-6.745794152016905e-05,-0.0018426506831536959,0.0,0.0,0.0
1609059030359972954,168,1609059030359972954,-0.00464014947819344,0.003076603071669228,-0.0011643548329327608,1.6309215133122802e-05,-0.0001443997137907801,-4.921512511576034e-05,0.9999999882302395,0.0037308706092866813,0.0028753182247140017,-2.4196370316053846e-05,0.0,0.0,0.0
1609059030459974766,169,1609059030459974766,-0.004227153074239063,0.0037810697828234217,-0.000978913599903079,5.366597113094867e-06,-0.00015387430712419012,-4.869999975640811e-05,0.9999999869610419,0.004490335996755823,0.0052335364486804856,0.0011837277016953243,0.0,0.0,0.0
1609059030559991598,170,1609059030559991598,-0.003415345194334899,0.00345473467258108,-0.0007356268989641898,3.0394511161593004e-05,-0.00016406550713479203,-5.617177873347464e-05,0.9999999845016453,0.006095998950343499,0.002533786259323038,0.002512929397081985,0.0,0.0,0.0
1609059030659989357,171,1609059030659989357,-0.0033220333705698663,0.0013020019556991885,-0.0007957918380625167,1.3825294490085984e-05,-0.00015111268345967494,-2.1953381561761192e-05,0.9999999882458722,0.0036519864685254713,-0.006262818589197538,0.000541914228297274,0.0,0.0,0.0
1609059030760021448,172,1609059030760021448,-0.0035783974005947823,0.0021449037901362664,-0.0008294672641766493,1.7632224761422778e-05,-0.0001194792322198048,-3.5547445801136454e-05,0.9999999920750365,0.0009896936441687585,0.0006709071811771211,9.787763972020748e-05,0.0,0.0,0.0
1609059030860100746,173,1609059030860100746,-0.0033258730977147786,0.003438026659851563,-0.000999611838604176,1.0064010084588704e-05,-0.00013002217060005574,-3.129491488945859e-05,0.9999999910067281,0.0019268042096948041,0.006219123287549487,-0.0007190773010210392,0.0,0.0,0.0
1609059030960038424,174,1609059030960038424,-0.00399681657894162,0.004017858201903455,-0.0009714042986150768,8.00579565621745e-06,-0.00015632757137520984,-3.7017112535278684e-05,0.9999999870636038,-0.0012929595926089539,0.006581048837154844,-0.00015344001405771476,0.0,0.0,0.0
1609059031060032606,175,1609059031060032606,-0.0060328354049694775,0.004356207801348142,-0.0010861523755460519,1.235207985844545e-05,-0.00016388568745521093,-4.629018180013768e-05,0.9999999854230011,-0.009631983139289063,0.005897820111614914,-0.0007590875361130992,0.0,0.0,0.0
1609059031159980536,176,1609059031159980536,-0.006751389150999609,0.003411923066963926,-0.00141178237808221,-7.279132910638893e-06,-0.000149566453240996,-4.2230999455007336e-05,0.9999999878966538,-0.008996834155177621,0.0008666614981260668,-0.003533248938561277,0.0,0.0,0.0
1609059031260017395,177,1609059031260017395,-0.005130490125011949,0.0030081614306022605,-0.0011172046831541852,8.320279972111431e-06,-0.00013595698848927425,-4.9245447805655804e-05,0.9999999895106154,0.0017000314716584652,-0.000512468932552443,0.00010637345836135743,0.0,0.0,0.0
1609059031360078096,178,1609059031360078096,-0.0052270037795098655,-0.0003491003335150218,-0.0011757933777407738,4.614523944545384e-06,-0.0001263978124403252,-1.3818729957833037e-05,0.9999999919056081,0.0008058415513450684,-0.012694296859277882,0.0003215411730518201,0.0,0.0,0.0
1609059031460077286,179,1609059031460077286,-0.004938776522796416,-0.0004994714943674302,-0.0010862322755049913,1.5386318629357133e-05,-0.00014184954123962039,-2.1498693363965594e-05,0.9999999895898244,0.002520802266528838,-0.007866278938666017,0.000933649881278781,0.0,0.0,0.0
1609059031560060740,180,1609059031560060740,-0.003825687951679024,0.0014098937588693146,-0.0008825745081654258,1.605312355643539e-06,-0.00017540404968974477,-4.839227138471248e-05,0.9999999834444514,0.006437466763258513,0.0028862627118021907,0.001474440029748834,0.0,0.0,0.0
1609059031659956694,181,1609059031659956694,-0.0038506713967276156,0.0016654695693550177,-0.0012101466546900507,-1.4637339828236312e-06,-0.00014059210323543673,-6.186467743723863e-05,0.999999988202176,0.002892213972345225,0.0033418364369215293,-0.0015379261763151931,0.0,0.0,0.0
1609059031760401726,182,1609059031760401726,-0.004045343342143814,0.004345339136790297,-0.001336573122692109,-2.501527831930967e-06,-0.00010486386584049717,-3.102495843966261e-05,0.9999999940173179,0.0007911686916035237,0.013384524499127443,-0.0013995913823548999,0.0,0.0,0.0
1609059031860094786,183,1609059031860094786,-0.004528225318811485,0.004780553155262989,-0.0012130673963629088,1.4184213302950267e-05,-0.00013802534299027982,-4.659063000340265e-05,0.9999999892884983,-0.0008073605980091921,0.010463967728413808,0.0011393111335749908,0.0,0.0,0.0
1609059031960104465,184,1609059031960104465,-0.004013270867879293,0.006016906447500848,-0.0014036011909927992,-1.4703251903059641e-05,-0.00017734149382636578,-7.629459509166416e-05,0.9999999812564072,0.001866804402014851,0.011380617384664305,-0.00014876446681537413,0.0,0.0,0.0
1609059032060135603,185,1609059032060135603,-0.004758192802969561,0.006446824708935087,-0.0011836077933850588,-2.241583540937377e-06,-0.00015560584336282458,-7.651936129438025e-05,0.9999999849632274,-0.001949090402913739,0.009807476975961937,0.0008077479670988267,0.0,0.0,0.0
1609059032160058022,186,1609059032160058022,-0.00558903628931021,0.005873930090281366,-0.0012446468475795867,3.2836986594799347e-06,-0.00013911041867966994,-3.9160853370075984e-05,0.9999999895519027,-0.004978570283220254,0.004515058710655454,-0.0007403413471165693,0.0,0.0,0.0
1609059032260075808,187,1609059032260075808,-0.005976402773402878,0.004477986667630605,-0.001067842790707387,6.225369957643127e-06,-0.00010628182798569122,-7.99547158029687e-05,0.9999999911362655,-0.004487765938526504,-0.0023792120109397954,0.0009216927223888344,0.0,0.0,0.0
1609059032360087872,188,1609059032360087872,-0.005767663984966946,0.003858956071842755,-0.00109707064889346,1.2850244085022138e-05,-0.0001371654629676557,-5.780562193300526e-05,0.9999999888394437,-0.0006867669488243495,-0.002892223419755773,0.0002281797047580745,0.0,0.0,0.0
1609059032460100889,189,1609059032460100889,-0.005610859380728488,0.0029165020253316245,-0.0011616039338377768,1.6616436562332823e-06,-0.00016538452279058106,-6.122341117116522e-05,0.9999999844483813,0.001079481592019429,-0.0052259138875839755,0.00047738463040995196,0.0,0.0,0.0
1609059032560112238,190,1609059032560112238,-0.005876166821447966,0.0026022894806079873,-0.0009992179249214937,3.0998053889067793e-06,-0.00016399357681048978,-4.6916300663468314e-05,0.9999999854476144,-0.00022470356256732056,-0.0033986644291287733,0.0009126483929288145,0.0,0.0,0.0
1609059032660118103,191,1609059032660118103,-0.004589779365167411,0.002880473352067789,-0.0012033089750271273,1.0285683737301735e-05,-0.00013571735543722492,-4.993073426260124e-05,0.9999999894908974,0.0051997375118694395,-0.0002568135574365642,-0.0017431045548227532,0.0,0.0,0.0
1609059032760130167,192,1609059032760130167,-0.004939599836395702,0.002047827661809426,-0.0016712341328840548,-8.883159240913168e-06,-0.00011706570631081072,-4.120203057030579e-05,0.9999999922594853,0.0015683260489418802,-0.0028724138098452936,-0.0038192850629156956,0.0,0.0,0.0
1609059032860112906,193,1609059032860112906,-0.006124969723783585,0.0021716433306763513,-0.001153226450468514,2.7382250995441058e-05,-0.0001370450228045461,-3.492595629847837e-05,0.9999999896244599,-0.004106143339309135,-0.0011983552540908013,0.0028697153334479963,0.0,0.0,0.0
1609059032960073948,194,1609059032960073948,-0.006377187107333384,0.0027701518181776825,-0.0010884027772475975,7.561810938636787e-06,-0.00015947145724937465,-4.4769988283947576e-05,0.9999999862535944,-0.0026501462503794575,0.0018379385864210084,0.0011744173504233393,0.0,0.0,0.0
1609059033060062647,195,1609059033060062647,-0.005561656448294184,0.002663908937558463,-0.0011908349922848788,-1.0251321051601497e-05,-0.0001708638030562773,-5.390368396707076e-05,0.9999999838973652,0.0019582638491840994,0.0016328884557954278,-0.0004755497010062017,0.0,0.0,0.0
1609059033160051346,196,1609059033160051346,-0.004694246323963591,0.0030970586016718276,-0.000947608297436366,2.955992681616919e-05,-0.0001290343512552003,-6.946293844156946e-05,0.999999988825556,0.004581389123407557,0.0031347698596606603,0.0012278199247053388,0.0,0.0,0.0
1609059033259971619,197,1609059033259971619,-0.005582965013137005,0.0025779636573280947,-0.0011953367483564686,-3.664158439701631e-06,-0.00012203861715554307,-1.969325564194156e-05,0.9999999923525947,-0.001455677696095978,0.00034626390962650506,-0.0013159323362584691,0.0,0.0,0.0
1609059033360051155,198,1609059033360051155,-0.005166710581730748,0.002728391625522945,-0.001157279940715479,6.382693466430084e-06,-0.0001364761996905781,-5.31337921989333e-05,0.9999999892550856,0.001744030518864766,0.0014135354827056992,-0.0005649069446558022,0.0,0.0,0.0
1609059033460071325,199,1609059033460071325,-0.00411505609554108,0.00409304981866916,-0.001017675328694921,1.3447470867058244e-05,-0.00016815994066164802,-7.039846292686283e-05,0.9999999832926596,0.005689572670085123,0.006578708987818898,0.0016720351460994902,0.0,0.0,0.0
1609059033560185671,200,1609059033560185671,-0.004042122533574907,0.0018784150227582836,-0.0005419247768131292,-2.1945280686820636e-06,-0.0001177111413432294,7.86049734420311e-07,0.9999999930692584,0.0038039368216292234,-0.004130419889536223,0.003284865136692683,0.0,0.0,0.0
1609059033660138130,201,1609059033660138130,-0.004142907464072166,0.0032174125101554637,-0.0008153728577656441,1.1529539676296649e-05,-0.00011298756153393322,-5.789049334085969e-05,0.9999999918747171,0.0011676588910727846,0.0029457256651261162,-0.0009086334064923947,0.0,0.0,0.0
1609059033760122061,202,1609059033760122061,-0.004522502059692346,0.0029121124087983057,-0.0011452851648099118,4.168296566583726e-06,-0.00010770874828401455,-5.919819978805316e-05,0.9999999924384431,-0.001048954997767809,0.001633570064194825,-0.0025112420119278228,0.0,0.0,0.0
1609059033860093117,203,1609059033860093117,-0.004842718410301336,0.0030575575525541854,-0.001421256648674716,8.617471818506469e-06,-0.00013390616055989653,-4.777487887068554e-05,0.9999999898561511,-0.0014805113946667302,0.0022867861972461594,-0.002775790695905465,0.0,0.0,0.0
1609059033960053682,204,1609059033960053682,-0.0053960884872139,0.004150246217973366,-0.0017591908407417188,-4.944316381659396e-06,-0.0001749173810007827,-6.446421671416109e-05,0.9999999826118446,-0.002770221745432745,0.006241085762521116,-0.003134281720535422,0.0,0.0,0.0
1609059034060122728,205,1609059034060122728,-0.005588588437627219,0.0036775288397576083,-0.0013346835954282858,5.7698716962009444e-06,-0.00014784557430882943,-4.234904482345755e-05,0.999999988157407,-0.002294274479516803,0.0035214108034511433,0.001419232411279018,0.0,0.0,0.0
1609059034160197496,206,1609059034160197496,-0.0055946843190989685,0.0035671223867611117,-0.001115847738758785,1.3033813962504217e-05,-0.00011691453370223231,-2.9572715378912257e-05,0.9999999926432126,-0.001810620245734011,0.0025197858442091202,0.0009902350578611906,0.0,0.0,0.0
1609059034260239601,207,1609059034260239601,-0.004633337370120539,0.003480713148391355,-0.001117742630404849,1.1466106874904666e-05,-0.0001175315671647411,-5.609766847505617e-05,0.9999999914538845,0.0034498490845797933,0.0013665702983891794,0.0004792707314731241,0.0,0.0,0.0
1609059034360236883,208,1609059034360236883,-0.004077275231690162,0.0036220700334742327,-0.0011044698044026932,-7.185197027854376e-07,-0.00015251597262460644,-5.0562370829412446e-05,0.999999987090833,0.005138255813185908,0.0023791372716677464,0.0007018839262840093,0.0,0.0,0.0
1609059034460213184,209,1609059034460213184,-0.0042026921975620805,0.00305188498573027,-0.0012951467471458207,4.3436861771088e-06,-0.00016472578866455386,-4.96231644793027e-05,0.9999999851919716,0.003138401560839418,-9.881418126369244e-06,-0.0011799891417760401,0.0,0.0,0.0
1609059034560144663,210,1609059034560144663,-0.003914633341055798,0.003323934917855958,-0.0010557017636275564,2.2492799181226693e-05,-0.000153034145393305,-6.856207610005745e-05,0.9999999856868604,0.002764938230921836,0.0011708344461353719,0.001117918841008262,0.0,0.0,0.0
1609059034660472631,211,1609059034660472631,-0.0029949636441161695,3.385030518177216e-05,-0.001038016907942324,2.495047281112013e-05,-0.00013387231711955845,-2.1451934416947865e-05,0.9999999904976727,0.005712904441688399,-0.010568708327127613,0.0009460443084572913,0.0,0.0,0.0
1609059034760012865,212,1609059034760012865,-0.004262834630723141,-6.849850939356727e-05,-0.001043426653483751,7.155304807429088e-07,-0.00012365941569798,-2.1326046187549342e-05,0.9999999921264451,-0.0014448178776856778,-0.006419416648345359,0.0007772385149113802,0.0,0.0,0.0
1609059034860028267,213,1609059034860028267,-0.005764339893318826,0.00020810977319871097,-0.000964920798161048,1.420575544457839e-05,-0.0001384314211375804,-5.6670569158469925e-05,0.9999999887116191,-0.006061102032967905,-0.0021238111427089226,0.0017592674682924225,0.0,0.0,0.0
1609059034960084915,214,1609059034960084915,-0.005929745095751475,0.0008430340222039367,-0.0010675850334423461,1.9337867261143415e-05,-0.00016864551095212337,-3.979764853105079e-05,0.9999999848003691,-0.003683286008826798,0.001907079602295544,0.0003341447864141766,0.0,0.0,0.0
