%time,field.header.seq,field.header.stamp,field.pose.pose.position.x,field.pose.pose.position.y,field.pose.pose.position.z,field.pose.pose.orientation.x,field.pose.pose.orientation.y,field.pose.pose.orientation.z,field.pose.pose.orientation.w,field.twist.twist.linear.x,field.twist.twist.linear.y,field.twist.twist.linear.z,field.twist.twist.angular.x,field.twist.twist.angular.y,field.twist.twist.angular.z
1623492960365200520,0,1623492960365200520,-0.0005674066002564739,-0.002275925104012809,0.0006120107915567688,1.9906930220641992e-05,5.046040780597701e-05,-3.6784599761047174e-05,0.9999999978521784,-0.0006664642918670063,-0.0010907019288351897,0.000247893505568722,0.0,0.0,0.0
1623492960465220928,1,1623492960465220928,0.001796105394108494,-0.001184480189986279,0.00015549773681620586,-4.055715435758291e-06,2.7246786257220694e-05,-3.1781776547757114e-05,0.9999999991155424,0.023907103535946012,0.010851291991476431,-0.004726388992997931,0.0,0.0,0.0
1623492960565455198,2,1623492960565455198,0.0022276476831146704,0.0008237735323401518,5.303213270825678e-05,-1.2159708567963989e-05,3.2211898370167984e-05,-8.923511744279256e-05,0.9999999954258149,0.012072601002354775,0.016972031980596332,-0.002065792874190648,0.0,0.0,0.0
1623492960665254354,3,1623492960665254354,0.0024010518723129267,0.0007624298031388277,0.00018327575391076384,-8.771684285164813e-06,3.9729561007545674e-05,-6.577714446215027e-05,0.999999997008994,0.00656350684470012,0.005953648704232184,6.562715469412075e-05,0.0,0.0,0.0
1623492960765379429,4,1623492960765379429,0.0012621371718864328,-0.0009715644598454652,0.00017260808608845343,-1.3311557830871942e-05,3.9561744075008716e-05,-2.9226501908059606e-05,0.9999999987017417,-0.0032877260284080428,-0.009830733892654141,-0.00035732028161079474,0.0,0.0,0.0
1623492960865137577,5,1623492960865137577,0.0006258700904601548,-0.0006006174366431638,0.00019870370493517943,-1.5015471145534537e-05,2.250348842009088e-05,-4.20165834766782e-05,0.9999999987513682,-0.006723756527835006,-0.004120442981981531,0.0007250621542352874,0.0,0.0,0.0
1623492960965369701,6,1623492960965369701,0.0006237168166666335,0.0005130146358993496,0.00021989669045642378,-1.7413475388680225e-05,2.1696785897267494e-05,8.302413844089863e-06,0.9999999995785456,-0.00462674740196837,0.003642361983915352,0.00024946739687612416,0.0,0.0,0.0
1623492961065162420,7,1623492961065162420,0.0007103842041219706,0.0006217226983236844,0.00039275110220244745,3.6781259196969574e-06,4.333743293101202e-05,-0.00018483353299940348,0.9999999819724518,-0.00254806560815339,0.0018460935199760826,0.0013169999867442537,0.0,0.0,0.0
1623492961165381432,8,1623492961165381432,0.00020043547800662704,0.00138322014654556,0.0005359334914472593,-1.4740162597222984e-05,3.306043487011354e-05,1.68032705603017e-05,0.9999999992036932,-0.004477010425101202,0.004423381443347861,0.0018176843528518631,0.0,0.0,0.0
1623492961265194416,9,1623492961265194416,-0.0001882194118367478,0.0013670714848210124,0.00021617558730143186,-2.6392708793925534e-05,3.443967238412126e-05,-0.00011967034064076963,0.9999999918981722,-0.004715705556192739,0.0017720989257514488,-0.0019000777360998298,0.0,0.0,0.0
1623492961365433693,10,1623492961365433693,0.0012173067112027855,-0.0009887595360987503,5.60704658795182e-06,-1.9582499620383988e-05,3.2132144932732546e-05,3.458938142080919e-05,0.9999999986938135,0.0039976040483826044,-0.013139927292489471,-0.0021052655681674196,0.0,0.0,0.0
1623492961465166807,11,1623492961465166807,0.002799080271955422,-0.0011442964542399444,6.081098142365622e-05,-1.5374638099384667e-05,3.769704252647758e-05,-0.00012481198539439288,0.999999991382262,0.009901589096233714,-0.008577240166885956,2.5127189319750854e-05,0.0,0.0,0.0
1623492961565187931,12,1623492961565187931,0.0018006584998907582,-0.0012517685660467315,0.00029421958419948775,-9.818135831101973e-06,3.2019056176132396e-05,9.752415957181418e-06,0.9999999993916382,0.0004998117330444942,-0.005382886498096293,0.0019560082845620323,0.0,0.0,0.0
1623492961665205717,13,1623492961665205717,0.003641601991329015,-0.0010781322166484764,0.00027089686497235895,-9.807477370632427e-06,3.924677209366188e-05,-5.4082128954873304e-05,0.9999999977193159,0.00828791277349975,-0.002506602019926401,0.00048761747330030507,0.0,0.0,0.0
1623492961764989853,14,1623492961764989853,0.003599027649296085,-0.0015755109930272668,0.0004606699786026822,-1.7401355293377384e-06,4.279386245210775e-05,-2.582515409214021e-05,0.999999998749361,0.004464239366115413,-0.00437824981209989,0.0007411169293546683,0.0,0.0,0.0
1623492961868363857,15,1623492961868363857,0.0051858795580115745,-0.0023963726620255922,0.0004824660853241206,6.7540829608200925e-06,4.914997614264179e-05,-8.787272981422921e-05,0.9999999949085249,0.009848963916217472,-0.007581607736911051,0.0003831947241789923,0.0,0.0,0.0
1623492961965350389,16,1623492961965350389,0.006238546866986363,-0.0012519046454167,0.0005406696662097066,5.918953967663151e-06,6.136907836675766e-05,-0.0001502409926586864,0.9999999868132259,0.010332697273177602,0.001688306398877286,0.0005589294508530126,0.0,0.0,0.0
1623492962065163136,17,1623492962065163136,0.008064994725966078,-0.001247147540071488,0.0004268653597501791,-2.0119586605960502e-06,5.5248580206989824e-05,-1.3662998335113631e-05,0.9999999983784372,0.014363903111761826,0.0008029117540348529,-0.0010653363531358503,0.0,0.0,0.0
1623492962165158987,18,1623492962165158987,0.007235999244837254,-0.00264539134507124,0.000374627769575952,-3.812448107131523e-06,4.4241896978334645e-05,2.7642887100595073e-05,0.9999999986319974,0.005199602643420457,-0.006614650515573876,-0.0005249768675638973,0.0,0.0,0.0
1623492962265159130,19,1623492962265159130,0.0055704181867897145,-9.171435412044348e-06,0.00038183061606456714,-6.122515262385943e-06,5.488392625380517e-05,-0.00015716205691642394,0.9999999861251802,-0.004478773492078383,0.010106961622609626,-0.00042166744628957336,0.0,0.0,0.0
1623492962364956379,20,1623492962364956379,0.005052498017256887,-0.00015968438661119604,0.0004005477792876863,-8.50829718086327e-06,5.623845214386126e-05,-0.00021939291331100132,0.9999999743157986,-0.004611406938388191,0.004467517674621281,-0.00040398412742688743,0.0,0.0,0.0
1623492962465183735,21,1623492962465183735,0.0036344105162003943,-0.0031940910583666566,0.00039821078973520743,-3.540877144578284e-06,5.397117331694446e-05,-4.988905719349455e-05,0.9999999972928294,-0.00832224883507922,-0.012775175300662592,0.00012485474033426268,0.0,0.0,0.0
1623492962565119743,22,1623492962565119743,0.003816433282970138,-0.003407296777567728,0.00043389598218343474,2.0530352616684686e-06,4.604163396457427e-05,-0.00011732031062090021,0.9999999920559498,-0.004700529915164066,-0.008567872698623243,0.0006609938228839473,0.0,0.0,0.0
1623492962665104866,23,1623492962665104866,0.003650395729826246,-0.00319631094424798,0.000369666762584815,-2.275876687400735e-06,4.7283049628926986e-05,-0.0001055581599209149,0.9999999933083059,-0.0036018883024392014,-0.004006900117542628,-0.0002185101854198212,0.0,0.0,0.0
1623492962765152216,24,1623492962765152216,0.003691075536923336,-0.005159822853781075,0.00043605192105127015,4.535186499790287e-06,4.8531032231659236e-05,3.390143974194186e-05,0.9999999982374331,-0.002186760310755694,-0.012363761824409729,0.0004076746156838967,0.0,0.0,0.0
1623492962865220308,25,1623492962865220308,0.0037319345134604414,-0.005331000496782071,0.00038788695800089204,1.8493087334142584e-06,4.688864545033004e-05,-5.821755078643811e-05,0.9999999972043776,-0.0014481621686135582,-0.007824927028756246,-0.0005848863674664871,0.0,0.0,0.0
1623492962965282440,26,1623492962965282440,0.003155220931622726,-0.0033974836659228253,0.0002373370236235969,-1.1448063071501897e-05,3.9104942284830604e-05,8.441482364305348e-05,0.9999999956069435,-0.003220523794664401,0.00496033128327125,-0.0009899743971429203,0.0,0.0,0.0
1623492963065309048,27,1623492963065309048,0.0039186084759317225,-0.004130411739177766,0.00023506073681243213,-1.4518684156182185e-06,5.12552858939531e-05,-4.1352325602221735e-06,0.9999999986768459,0.0012908466749215657,-0.0010755371454041363,-5.9217914481951616e-06,0.0,0.0,0.0
1623492963165271521,28,1623492963165271521,0.003935873568878547,-0.0024267482723634454,0.0004413936618812646,-1.218340338366212e-06,4.0623503273346575e-05,-0.00013867302139088032,0.9999999895590219,0.0003177019272263616,0.007290185793548667,0.001278752926589042,0.0,0.0,0.0
1623492963265282631,29,1623492963265282631,0.0025838728696850246,-0.0031161985864528634,0.000742029548855235,8.95453831912402e-06,4.311659659899238e-05,-1.8718465101070727e-05,0.9999999988551995,-0.00546215688162025,0.00048755031439627703,0.0023883026308756643,0.0,0.0,0.0
1623492963365469933,30,1623492963365469933,0.0047409600500617375,-0.002701400824095216,0.0007296109258738738,1.3430958843132288e-05,5.475027044872259e-05,-0.00013905077911598052,0.9999999887434514,0.005863036022585275,0.0017992196946569079,0.00018634419501358467,0.0,0.0,0.0
1623492963465210438,31,1623492963465210438,0.007707261029296051,-0.002527914661577761,0.0003715998557953347,5.570778721329428e-07,4.524628949235622e-05,0.00020611335865817115,0.9999999777348754,0.016086733879946205,0.0011052544127217582,-0.002888515022922448,0.0,0.0,0.0
1623492963565112352,32,1623492963565112352,0.009065307119174092,-0.002423154713427877,0.00028096044129424346,-1.48833034107182e-06,5.863070196892693e-05,-1.6810289933154735e-05,0.9999999981388225,0.015500141209044383,0.001193861995616056,-0.0013095949749514209,0.0,0.0,0.0
1623492963664925098,33,1623492963664925098,0.008888230945236863,-0.0024744480093096717,0.0002860140656963157,-4.187858596053568e-06,5.6091044096623314e-05,1.18139718673053e-05,0.9999999983483456,0.008810977800590418,-5.559227888741222e-06,-0.0005793821464942285,0.0,0.0,0.0
1623492963765132427,34,1623492963765132427,0.00759726902547373,-0.002746759666231043,0.0004965042132863758,-7.54732362002885e-07,5.67332953925694e-05,-8.85193383006571e-06,0.9999999983512057,9.150362878172259e-05,-0.0006600447881176827,0.0011062335661164676,0.0,0.0,0.0
1623492963865335226,35,1623492963865335226,0.005552348195574982,-0.002885643159514084,0.0005853443181819984,-2.635558507148911e-06,5.5297108052574764e-05,-0.0001160435006819218,0.9999999917345971,-0.008922998856216257,-0.0011064958184114006,0.0013584629261729746,0.0,0.0,0.0
1623492963965391874,36,1623492963965391874,0.004384684375903245,-0.003114055046095562,0.0006315696992466326,7.209612184457779e-06,4.8293861081390165e-05,8.554795434801091e-05,0.9999999951486385,-0.01056956668095453,-0.0016430000698421272,0.0005398218298652214,0.0,0.0,0.0
1623492964065052748,37,1623492964065052748,0.005717184796764928,-0.002987559544280006,0.0005382417272569805,1.1213708885017483e-05,6.78078773029886e-05,-1.649604600475138e-05,0.9999999975021143,-0.0010426363142346518,-0.0006576777609894255,-0.0011188849874403301,0.0,0.0,0.0
1623492964165194988,38,1623492964165194988,0.005892056201477918,-0.002824053296341496,0.0005466389261904403,4.522644858308834e-06,6.57410473974459e-05,4.2202350763308305e-05,0.9999999969383133,0.000680063631716166,-8.344757811305477e-05,0.0001002304304951625,0.0,0.0,0.0
1623492964264965534,39,1623492964264965534,0.0070660963206703575,-0.004078764515922037,0.0004948549958262266,2.502517846208391e-06,4.693573795374676e-05,-6.873730980433582e-05,0.9999999965329807,0.004992349844698043,-0.005881279505524441,-0.0007799851704820307,0.0,0.0,0.0
1623492964364959478,40,1623492964364959478,0.008021488490213308,-0.003066818778679115,0.0005098902764899163,5.3416996346380735e-06,5.725037753373426e-05,-1.609455061985243e-05,0.999999998217416,0.007401409517911283,0.000625938819261233,-0.00024855196213756587,0.0,0.0,0.0
1623492964465258360,41,1623492964465258360,0.006798353862472237,-0.002676477258092507,0.00047426571628177025,3.183804688486036e-06,5.7620097258675615e-05,-1.763739843193793e-05,0.9999999981793583,-0.0007269115837642325,0.001865097294188184,-0.0008053847158765606,0.0,0.0,0.0
1623492964565267324,42,1623492964565267324,0.0070364789097719545,-0.002163195734657059,0.00032704119835985266,-3.296311193524654e-06,5.648307175942132e-05,6.280942499340967e-05,0.9999999964268895,0.0008020862514360452,0.0029603469605664744,-0.0018297570661052294,0.0,0.0,0.0
1623492964665319204,43,1623492964665319204,0.006152042386536619,-0.0019278517202857813,0.00034631622355263587,-5.722407254145142e-06,5.4303000933291217e-05,-6.588213652706747e-05,0.9999999963389948,-0.0036270372336755052,0.002564113479072879,-0.0008142974037404615,0.0,0.0,0.0
1623492964765128374,44,1623492964765128374,0.007760977397780449,-0.0026335594331335505,0.0004176552936997972,1.1794530871623943e-06,5.70088989380492e-05,-5.71060284844507e-05,0.9999999967437505,0.004568994218374927,-0.002226091384341137,0.00039088337732864724,0.0,0.0,0.0
1623492964865138769,45,1623492964865138769,0.006783803103939417,-0.0024229482893092405,0.0005031261240185844,7.462633705356222e-07,6.718251621016157e-05,-5.628282366062484e-05,0.9999999961591005,-0.00152284529376325,-0.00035654062972398067,0.0009912509913466347,0.0,0.0,0.0
1623492964964595079,46,1623492964964595079,0.007002334284118341,-0.0012010157772380252,0.0005398066861785301,-5.8874142760953745e-06,6.022364302762685e-05,-8.191357535461534e-05,0.999999994814311,-0.0003838924030922196,0.005026795229450497,6.527804860420177e-05,0.0,0.0,0.0
1623492965064990759,47,1623492965064990759,0.006843303626484459,-0.003022203000807208,0.0004542666778677491,-4.817511214175837e-06,5.015581360565758e-05,2.835162421728837e-05,0.9999999983286876,-0.0006369654767844203,-0.005533591225101932,-0.0005775460956384178,0.0,0.0,0.0
1623492965165143490,48,1623492965165143490,0.008881085246509988,-0.0022847228173113058,0.0005316977555712909,6.279385568155167e-06,5.766651932062801e-05,-4.057308154337854e-05,0.9999999974944853,0.007592876447900696,0.00020518885964490498,0.00031979556473128674,0.0,0.0,0.0
1623492965265144110,49,1623492965265144110,0.007509037881199879,-0.0024926468853557248,0.00030300397717198985,-2.49272629742392e-06,5.33591650151068e-05,3.6476670362337363e-06,0.9999999985666413,-0.0009127646760053124,-0.0006215274332837534,-0.0016169990663900977,0.0,0.0,0.0
1623492965365053892,50,1623492965365053892,0.005826306805774678,-0.0025805585088076524,0.0003781351599777486,-1.8897265723860136e-06,6.252881166625597e-05,-0.00014146910011441022,0.9999999880365358,-0.007533372857956842,-0.0008604098402344211,0.0003483953668113047,0.0,0.0,0.0
1623492965464854240,51,1623492965464854240,0.006094053390712317,-0.0029362373156021997,0.0004555385221047574,-1.0242605188906062e-06,5.522368972860097e-05,-3.3411986193576415e-06,0.9999999984690662,-0.0036475068235928085,-0.0026595062551330465,6.886614258644227e-05,0.0,0.0,0.0
1623492965564710855,52,1623492965564710855,0.0011263665523568972,-0.002940253702909469,0.00046932065409484514,1.0324368981569873e-06,3.3331638810303507e-05,-3.8617058134718075e-05,0.9999999986983297,-0.021998461359364747,-0.0012032266927313928,-8.728255716735665e-05,0.0,0.0,0.0
1623492965665212154,53,1623492965665212154,0.0027503185397640957,-0.002592898209776747,0.0006126961063574343,5.287494149903903e-06,5.4349790797956534e-05,-1.1091061866234403e-05,0.999999998447566,-0.006969985724531141,0.00027795444310701914,0.0002908316437218168,0.0,0.0,0.0
1623492965765240431,54,1623492965765240431,0.004469663002487652,-0.0011758217352388065,0.00042518976094641306,-6.600419630384184e-06,5.171579304233598e-05,1.491676074685555e-06,0.999999998639843,0.002770307675864986,0.005777586359594937,-0.0015564527909699083,0.0,0.0,0.0
1623492965865003824,55,1623492965865003824,0.005533457770798551,-0.0021145963171288534,0.0003333836371598576,-6.088716192468863e-06,5.4666659462288584e-05,-5.467222656475165e-06,0.9999999984722959,0.006155940442614523,-0.0010124374809599669,-0.0008696225027897088,0.0,0.0,0.0
1623492965965313196,56,1623492965965313196,0.006163319895907727,-0.0027664033949165224,0.00045099085020128634,1.9997935403414307e-06,5.4783887238002916e-05,-4.454273852724845e-05,0.9999999975053355,0.006394801094241793,-0.003052790327833149,4.596605506708732e-06,0.0,0.0,0.0
1623492966065140963,57,1623492966065140963,0.009888000018423031,-0.001395088340814934,0.0004899286188028197,-1.5885179701612019e-06,6.555784515417914e-05,-5.220064598733967e-05,0.9999999964873691,0.0182570917330752,0.004661436100946966,-0.0004310302666037351,0.0,0.0,0.0
1623492966165067911,58,1623492966165067911,0.009589784621543314,-0.0006647534327181896,0.0004844159819470763,-7.342560038973726e-06,6.298063393724032e-05,-2.4231536322367812e-05,0.99999999769618,0.00970707901476467,0.006086698337724324,-0.0007612098934074419,0.0,0.0,0.0
1623492966265125275,59,1623492966265125275,0.008830207051558696,-0.001192436186537834,0.0006844969853125741,1.0778647527803764e-05,7.79160667565641e-05,-3.812530735209634e-05,0.9999999961796847,0.0033610043584676305,0.0014226493337007465,0.00043660427448368355,0.0,0.0,0.0
1623492966365370750,60,1623492966365370750,0.007244326894090079,-0.0024051490530160274,0.0004994316129768303,3.3204719696347916e-06,6.458233140847016e-05,-8.416256299933626e-05,0.9999999943673803,-0.004561384410125495,-0.004662634091654806,-0.0007562643937552211,0.0,0.0,0.0
1623492966465098381,61,1623492966465098381,0.004535862338531758,-0.0040827743701355845,0.0006133605222683059,2.811846965986623e-06,4.83907945541789e-05,-4.1000961646884025e-05,0.999999997984673,-0.013135513476364291,-0.010448841025165186,0.0009660789559581734,0.0,0.0,0.0
1623492966567622185,62,1623492966567622185,0.0027301550309056393,-0.003388922118440882,0.0007105985953841425,-9.982534245091471e-07,4.790663743612675e-05,-2.7956225261321614e-05,0.9999999984612037,-0.014924181053575162,-0.002413239420383191,0.0011135503107344744,0.0,0.0,0.0
1623492966667663336,63,1623492966667663336,0.0030298541905518484,-0.003864719565130607,0.000555670797732691,-5.232618253965985e-06,3.8890358336520506e-05,-5.960213435452577e-05,0.999999997453873,-0.007757936359353346,-0.003953393698919088,-0.001009659330910676,0.0,0.0,0.0
1623492966767692804,64,1623492966767692804,0.004464228785904886,-0.004828434639318317,0.00046840130686473595,8.675439236644097e-07,5.3973893261980666e-05,-3.5728781466496596e-05,0.999999997904761,0.0009208650715251537,-0.006997144916414996,-0.0007230205987865438,0.0,0.0,0.0
1623492966866514683,65,1623492966866514683,0.005923457621039394,-0.004199017933104,0.0004184329511063489,1.5944213513516347e-06,5.85494480512692e-05,-4.422893796634876e-05,0.9999999973066112,0.005992157382804705,-0.0010702091939795554,-0.0008675961634199616,0.0,0.0,0.0
1623492966965365648,66,1623492966965365648,0.004998493647072768,-0.003029471240664108,0.0003082625232994149,-2.0768887812839993e-08,5.795951172141864e-05,0.00012796279400561903,0.9999999901331093,-0.00010706098418950157,0.0047836238151311465,-0.0012980527142212946,0.0,0.0,0.0
1623492967065167427,67,1623492967065167427,0.0058729715634525574,-0.0016387046569171875,0.0005899135115054799,9.579763139608602e-06,5.22312403558782e-05,1.1571120233663796e-05,0.9999999985231182,0.0034827631974278126,0.008534965738019408,0.0014822035091962846,0.0,0.0,0.0
1623492967165485859,68,1623492967165485859,0.007244161500062086,-0.0012450674793632825,0.0007569896765136769,-9.911526780618755e-06,4.968237360017603e-05,5.192061351890548e-05,0.9999999973688377,0.007617247321584904,0.00592765358531346,0.0015597612873935872,0.0,0.0,0.0
1623492967265064001,69,1623492967265064001,0.008446766651220933,-0.000500405865117047,0.0007370586730757727,-8.149841434811756e-06,5.400607549494155e-05,2.446304955522976e-05,0.999999998209242,0.009215577753055926,0.0066422340459017125,0.0006629754320431817,0.0,0.0,0.0
1623492967365119934,70,1623492967365119934,0.0051159585273030045,-0.00382800810366843,0.0005380684485321105,-3.4488820005213344e-06,5.9014208742559446e-05,-0.00016915033576304678,0.9999999839467967,-0.0069627891674166244,-0.010843517362487436,-0.0019143577463518757,0.0,0.0,0.0
1623492967465150118,71,1623492967465150118,0.003844764832839302,-0.004100143761147993,0.0007240477802491738,1.5483375891752543e-05,7.709627013096758e-05,-0.0001793111632441738,0.999999980831969,-0.008977490280472008,-0.007341789388454273,-6.977464993589188e-05,0.0,0.0,0.0
1623492967565084696,72,1623492967565084696,0.002010489031741469,-0.005224650519536693,0.0006147626112918997,1.6303370652969935e-05,5.0558894131850766e-05,-3.4457043523451945e-05,0.9999999979953557,-0.012842403477713253,-0.009074371715898316,-0.0004888059045210472,0.0,0.0,0.0
1623492967665075779,73,1623492967665075779,0.002977534774636294,-0.00668197657936791,0.0008367961761026943,1.1494868660166156e-05,5.334850904134905e-05,4.265461463013546e-05,0.9999999976011947,-0.0038642500860064793,-0.011383797629168035,0.0006631944267497083,0.0,0.0,0.0
1623492967765271664,74,1623492967765271664,0.002768642435835134,-0.004126033031631573,0.000864057703466213,-2.2047350963144513e-06,5.152731167345489e-05,-9.642652040775212e-05,0.9999999940210008,-0.0036602584569672835,0.004936524826604442,0.00016038361582146096,0.0,0.0,0.0
1623492967865054131,75,1623492967865054131,0.0036106714542590325,-0.002455995862102907,0.0007878636953642324,-6.359502357078474e-06,4.92573205243554e-05,-0.00012458058000465466,0.9999999910064756,0.0012793948771666753,0.009803282042904649,-0.0005938767284599101,0.0,0.0,0.0
1623492967965092659,76,1623492967965092659,0.003381977245007607,-0.0014610168130553837,0.0005728592448791012,1.0929028385462114e-06,6.130861631024911e-05,-5.710863075896203e-05,0.9999999964893315,-0.00023323322602667547,0.010191457565536872,-0.0021332006108025266,0.0,0.0,0.0
1623492968065086603,77,1623492968065086603,0.005049501970883542,0.0005089551526982005,0.0006630460722582938,8.493064481722357e-06,6.996010230396052e-05,-2.9781090949142455e-06,0.9999999975122918,0.006307619802579456,0.013847037254696742,0.0008400927516779929,0.0,0.0,0.0
1623492968164874792,78,1623492968164874792,0.005933057876472854,0.0007250782058878472,0.0009045629458187459,3.994412614380293e-06,6.865473483513298e-05,-1.3708602434774729e-05,0.9999999975413241,0.007652270590415998,0.009009185282951327,0.002406897605528942,0.0,0.0,0.0
1623492968264944553,79,1623492968264944553,0.005670155371197356,-0.00037671110721658045,0.0013135374389611379,6.884539649234261e-06,6.225585510098734e-05,4.9058956340288905e-05,0.9999999968350163,0.003890294435649629,8.611437132827367e-05,0.0033471444130559907,0.0,0.0,0.0
1623492968365132809,80,1623492968365132809,0.004450499587954124,-0.002287303402395526,0.0012655888788654787,2.7546949496497648e-06,4.7955725548155245e-05,1.8666781763445463e-05,0.9999999986721066,-0.002120831438631744,-0.008521192143448358,2.8168185469107376e-05,0.0,0.0,0.0
1623492968465262413,81,1623492968465262413,0.0035126643588546526,-0.002702175293703645,0.001068583395973876,8.598400610463786e-07,4.63315463433195e-05,-3.324311112299555e-05,0.9999999983737728,-0.004705370759506793,-0.0068031952961773706,-0.001389178093107347,0.0,0.0,0.0
1623492968565272093,82,1623492968565272093,0.004500002346116584,-0.005602227742317821,0.0009192131343468047,5.866466331906233e-06,7.202107582207684e-05,-9.946340494268314e-05,0.999999992442791,0.001086689649720785,-0.01676118777325122,-0.0024185721899641134,0.0,0.0,0.0
1623492968665077448,83,1623492968665077448,0.002736333849786486,-0.004708511390320304,0.0009197780863310134,1.225194770741144e-05,7.330797981468408e-05,-5.915319968728527e-05,0.9999999954883655,-0.006584986337547193,-0.0052546030921577745,-0.0010804848792298823,0.0,0.0,0.0
1623492968765300989,84,1623492968765300989,0.003164103151831683,-0.0027455952616408956,0.0013025928333252335,1.8929369452259006e-05,8.008883242222945e-05,-4.654437062685593e-05,0.9999999955305415,-0.001960578678841623,0.005027434672879233,0.00214491531288312,0.0,0.0,0.0
1623492968865071297,85,1623492968865071297,0.0023954176888054753,-0.0009289984113046129,0.0013808871689062517,8.62633837840951e-06,7.657868700601272e-05,-4.610172559570499e-05,0.9999999959679629,-0.004017311378514309,0.010825335131396453,0.0018702275396082592,0.0,0.0,0.0
1623492968965102911,86,1623492968965102911,0.0017047814156281294,0.00027894533024627434,0.0013062677327860845,1.0569277176052487e-06,6.228433952000039e-05,8.49539118144444e-06,0.9999999980236879,-0.004678839128154026,0.011784337172973789,-0.00037468355842731026,0.0,0.0,0.0
1623492969064945698,87,1623492969064945698,-0.001737260552378527,0.0019838558456693064,0.0010358555973392924,-7.313371004278031e-06,5.140825610137136e-05,-3.069305055638018e-06,0.9999999986471441,-0.016178832462116648,0.014165420929201224,-0.002445525435955441,0.0,0.0,0.0
1623492969165341616,88,1623492969165341616,-0.00033034950563636315,0.004549048316819062,0.0007736215386015316,-1.434759996293123e-05,4.7479751606273907e-05,-4.359147195211384e-05,0.9999999978198028,-0.004490121044957215,0.018677966584940215,-0.0028833350359001456,0.0,0.0,0.0
1623492969265172243,89,1623492969265172243,-0.0019715783684802054,0.005056613301516599,0.000974168094768696,-1.072220966290267e-05,5.478622377800593e-05,5.162805127600943e-05,0.9999999971090249,-0.009033444755755717,0.012994689856796127,7.299121001598779e-05,0.0,0.0,0.0
1623492969365162134,90,1623492969365162134,-0.0020887565932439602,0.0021593221366349746,0.0011102112161510676,-1.1435798898336338e-05,2.3076706012041507e-05,6.222422982292438e-05,0.9999999977324179,-0.005305218692768007,-0.005603945412807437,0.00085184387993465,0.0,0.0,0.0
1623492969465313911,91,1623492969465313911,-0.00498334106022436,0.002101544408709676,0.0015618826255944826,5.8143039095424925e-06,5.8990539234579165e-05,0.00011571277726107918,0.9999999915484333,-0.014275498728579744,-0.003548625133131114,0.0033659401142427285,0.0,0.0,0.0
1623492969565069914,92,1623492969565069914,-0.005680082720118089,0.0025993458993490257,0.0012965647648014494,5.909593659558911e-06,5.156936737637686e-05,0.00013637083669934004,0.9999999893543376,-0.011537946104535112,0.00021667038862242154,-0.0012400972149957676,0.0,0.0,0.0
1623492969665272951,93,1623492969665272951,-0.008788939174130234,0.0019478792967604626,0.0012499056581776109,-7.5418501136870305e-06,4.500976737608216e-05,-2.7947373634608572e-05,0.9999999985680934,-0.018856853851221787,-0.002792757904167334,-0.001262134357201864,0.0,0.0,0.0
1623492969765090466,94,1623492969765090466,-0.012527137695034576,0.00220032618006272,0.0011194812145794816,-1.97870088024439e-06,3.597308229749344e-05,-5.2507592411294835e-05,0.9999999979724883,-0.025719103859131988,-0.00028390371252952004,-0.001172337207347795,0.0,0.0,0.0
1623492969865112782,95,1623492969865112782,-0.017625588212430304,0.004229101880008047,0.0012904868735465409,-2.9473540664603425e-06,2.339766242055226e-05,8.73379137198211e-05,0.9999999959079762,-0.03538874254765803,0.008731653923494589,0.0007501049840936225,0.0,0.0,0.0
1623492969965083838,96,1623492969965083838,-0.02149472971441534,0.005409029073280945,0.001164396425777951,-1.1715224972510417e-05,1.31948345598955e-05,5.943138765564578e-05,0.9999999980782803,-0.03659446983182538,0.010120848539119862,-0.0011899903359888719,0.0,0.0,0.0
1623492970065061808,97,1623492970065061808,-0.022772322568358074,0.008032117129969344,0.0010507565573846117,-1.8451102893163675e-05,3.6147648360445082e-06,3.190962589680635e-05,0.9999999993141331,-0.02754404366219279,0.016313691407160547,-0.0016249588022581825,0.0,0.0,0.0
1623492970165035009,98,1623492970165035009,-0.024791372509964844,0.01076599438043006,0.0009004414224762303,-3.639119217770343e-05,-5.040071877667844e-06,8.333023426133851e-05,0.9999999958531759,-0.024914115829492232,0.02087907205826492,-0.001400459232433894,0.0,0.0,0.0
1623492970265078545,99,1623492970265078545,-0.02525207836281615,0.012463272088111889,0.0008261881461237546,-4.0791440753304354e-05,-1.4596406185971895e-05,0.00017776743283236149,0.9999999832608716,-0.017299002519172782,0.018978865542613025,-0.000589202342134394,0.0,0.0,0.0
1623492970365284204,100,1623492970365284204,-0.03116209803419192,0.010945827206787023,0.0011220503014460713,-1.894310992588734e-05,-3.717981389557543e-06,3.7412795541549e-05,0.9999999991138093,-0.03284993774767934,0.004029199965645479,0.001552705483451309,0.0,0.0,0.0
1623492970465467691,101,1623492970465467691,-0.030776127304565033,0.008304289023688327,0.0011197934671318436,-1.4636051077227312e-05,-4.330467135057986e-06,4.504642479723086e-05,0.9999999988689271,-0.01790375879516001,-0.009340727451852902,0.000490275441177569,0.0,0.0,0.0
1623492970565085411,102,1623492970565085411,-0.029151094900764424,0.006708055093819982,0.0010434770423686907,-2.297803813317251e-05,-8.374906106353e-06,9.502374858788424e-06,0.999999999655789,-0.004705854545835093,-0.011762829269993934,-0.0005100408479961446,0.0,0.0,0.0
1623492970665347338,103,1623492970665347338,-0.029342836112809925,0.006879481552787967,0.00106496316309134,-1.5105347705200522e-05,-1.1861946477309198e-05,0.00015817690198372737,0.999999987305596,-0.0034783184419126564,-0.0065035447668394435,-0.0004385662419833327,0.0,0.0,0.0
1623492970765125036,104,1623492970765125036,-0.02484373785545145,0.005266775419244011,0.0010331348513674377,-1.1365335644670061e-05,2.170256637849552e-06,0.00012017338444307422,0.9999999927122385,0.015637660870768,-0.010859834128803963,5.8631277107612804e-05,0.0,0.0,0.0
1623492970864739656,105,1623492970864739656,-0.026628104466914507,0.005923319123158993,0.0009975176133175023,-1.699910794503919e-05,2.9996726520251714e-06,1.2428931770042655e-05,0.9999999997737776,0.002834504332809946,-0.0035970974655467162,-0.0003828839154243318,0.0,0.0,0.0
1623492970965164661,106,1623492970965164661,-0.02544476113952053,0.008772604337620542,0.001166249746589657,-1.8695094072831613e-05,-3.5987529330248625e-06,7.831346195784757e-05,0.9999999967522726,0.00628001288720248,0.009456385795513025,0.0004524566266385199,0.0,0.0,0.0
1623492971065159082,107,1623492971065159082,-0.025615515894014024,0.011011119464646084,0.0013216380349041466,-1.0819900655402642e-05,1.3120725064308396e-05,2.5276382786861836e-05,0.9999999995359407,0.003507601916002767,0.014485499332239013,0.000903726884332831,0.0,0.0,0.0
1623492971165150166,108,1623492971165150166,-0.025283496497198233,0.011548312133519431,0.0011952614204048149,-2.054539814651726e-05,-2.205788701512292e-06,0.0001753003822229391,0.9999999844213985,0.003944653085085601,0.010469189134746298,-0.0005220427026081278,0.0,0.0,0.0
1623492971265660048,109,1623492971265660048,-0.02900459450654394,0.012199814607352347,0.0010595210618315394,-2.9952526983051327e-05,-1.405242758072715e-05,0.0002107135432537434,0.9999999772525889,-0.011274605616590334,0.008800804960287312,-0.0018392344500467168,0.0,0.0,0.0
1623492971364983559,110,1623492971364983559,-0.031744767941540054,0.011191375853900532,0.001035183710139494,-3.35416534310325e-05,-1.4764183022653932e-05,0.00021616351480689298,0.999999975965155,-0.017723386446036857,0.0003887034491422414,-0.0009152373418779389,0.0,0.0,0.0
1623492971465150833,111,1623492971465150833,-0.029011424137875004,0.010465464476636863,0.001279540503168478,-2.45473578499683e-05,3.719283242550716e-06,0.00015944082801953603,0.9999999869811071,-0.0008835287095845003,-0.0028085294920735093,0.0016588150279767217,0.0,0.0,0.0
1623492971565584898,112,1623492971565584898,-0.029915027300768934,0.010979661953594651,0.0012279882594449672,-2.16658438778291e-05,-8.855847581663535e-06,7.38016634320242e-05,0.9999999970027389,-0.004227353353868554,0.0005320371730471386,0.0003629922250159281,0.0,0.0,0.0
1623492971665028334,113,1623492971665028334,-0.029098587143084484,0.010422895542355636,0.001193529095089904,-2.2635911477925877e-05,-2.476105427459041e-06,7.29307972414368e-05,0.9999999970812904,0.0005498267648962208,-0.002413537632250119,-0.00042082116310289977,0.0,0.0,0.0
1623492971765039444,114,1623492971765039444,-0.02716935389867292,0.009638018471650495,0.0010975011247855073,-2.5158494760694496e-05,6.340429438765726e-07,0.00010502559075044153,0.999999994168135,0.007532957669450739,-0.0046142086159096365,-0.0013363739126945157,0.0,0.0,0.0
1623492971865119934,115,1623492971865119934,-0.028626541172298986,0.010005886625413905,0.0012256581843603956,-1.3654604002897631e-05,1.0231474837555737e-05,0.00011918410790086159,0.9999999927520069,-0.0006000218001421661,-0.0015299081105956186,0.0003987178672724605,0.0,0.0,0.0
1623492971965101242,116,1623492971965101242,-0.02745143763777553,0.009629615805029596,0.0010250087304280188,-2.8707610446332363e-05,-6.9030076374579165e-06,0.00015334671708567147,0.999999987806501,0.00405753329021513,-0.002362582971564489,-0.0007507851108509449,0.0,0.0,0.0
1623492972065076828,117,1623492972065076828,-0.025485431405067444,0.00816043451795552,0.001221050908080911,-2.0957747128072584e-05,4.829959112835523e-06,-2.8589245166674084e-06,0.9999999997646335,0.009951451473865261,-0.0073507158473129506,0.0006399786392597747,0.0,0.0,0.0
1623492972165318727,118,1623492972165318727,-0.0263924629632089,0.008436666353324896,0.0013886647273758665,-1.1549137123290178e-05,1.576509836573693e-05,0.00015082578579600663,0.9999999884348287,0.0030734498943949026,-0.0032831793906871838,0.0012350963564271302,0.0,0.0,0.0
1623492972265066862,119,1623492972265066862,-0.025535028475132605,0.010682942136568256,0.001480576502865523,-2.246861457823207e-05,1.1152252571660947e-05,0.0002815007383092853,0.9999999600640586,0.005088033680629909,0.007023490867900264,0.0010726488000356521,0.0,0.0,0.0
1623492972364973545,120,1623492972364973545,-0.020962581922128663,0.007425639883541385,0.0015052602844168193,-5.881678522324539e-06,3.300640321777335e-05,4.224499662507187e-05,0.9999999985456696,0.020479791860102278,-0.00905501485150014,0.0009420599528464677,0.0,0.0,0.0
1623492972464801550,121,1623492972464801550,-0.023217954607743646,0.009963005629885984,0.0013117098220084122,-2.8325835549394804e-05,6.3226476277759985e-06,8.072531084877013e-05,0.999999996320545,0.004391127261883381,0.005477677989794745,-0.00106688695153614,0.0,0.0,0.0
1623492972565030575,122,1623492972565030575,-0.02027760021882407,0.008055449836629244,0.0013234284414693441,-1.0444272266323809e-05,1.8714733274719405e-05,9.573327118397556e-05,0.9999999951879057,0.014178905448775246,-0.005142790919648039,8.017189506454654e-05,0.0,0.0,0.0
1623492972664885283,123,1623492972664885283,-0.018775997658349985,0.0075684724383652,0.0013589342800946454,-1.1612726017722939e-05,1.6039209392710477e-05,0.00015478076021875495,0.9999999878253996,0.014291253233791344,-0.005326642208211185,0.0001151789520684394,0.0,0.0,0.0
1623492972765072346,124,1623492972765072346,-0.015939567164867732,0.006700474029726963,0.0012950404835671613,-1.6615584732706454e-05,2.1245216959507903e-05,9.510530567019616e-05,0.9999999951137694,0.020394799922925387,-0.006669811278562218,-0.0005160376685775757,0.0,0.0,0.0
1623492972865158558,125,1623492972865158558,-0.015991212026930938,0.003892996179529595,0.001200893072219085,-1.214548212030983e-05,2.4325321483060782e-05,6.240226801304052e-06,0.9999999996109101,0.01311063901923434,-0.016094823396589398,-0.0006194115941818831,0.0,0.0,0.0
1623492972965219736,126,1623492972965219736,-0.01719458183050786,0.005157760364946401,0.0010628535606631516,-1.183087124218523e-05,1.5195571003547596e-05,-1.1410165105286135e-05,0.999999999749464,0.003886884942230096,-0.004622890362854496,-0.0010329446884596665,0.0,0.0,0.0
1623492973064837217,127,1623492973064837217,-0.016246316936388727,0.004815410814961155,0.0010748344234911154,-1.8511943504777937e-05,1.656210455247295e-05,0.00018974506494954396,0.9999999816899051,0.00600592493100091,-0.0040894406390175626,-0.000296664595030554,0.0,0.0,0.0
1623492973164826393,128,1623492973164826393,-0.01524780250317726,0.0050985559095496616,0.0011903617116364113,-7.310503047516447e-06,1.936773978842522e-05,0.0001635373078273006,0.9999999864134956,0.007483000825381642,-0.0015375733573333049,0.0008615794848406487,0.0,0.0,0.0
1623492973265135527,129,1623492973265135527,-0.016912481187765737,0.005247446431764334,0.0012001466902660512,-9.503007502811049e-06,1.8545824634609092e-05,5.377696049499179e-05,0.9999999983368891,-0.0011443630588664705,-0.00045458693427146866,0.00020916307998091247,0.0,0.0,0.0
1623492973365144730,130,1623492973365144730,-0.016284069868497095,0.006413187573713366,0.001196021039273443,-1.2394682329539368e-05,1.9908862454819546e-05,0.0002302102950321915,0.9999999732266116,0.0022971076444913328,0.004202867020986654,-0.0003224139234813664,0.0,0.0,0.0
1623492973465110064,131,1623492973465110064,-0.017100863426715154,0.005809208170277014,0.0012916387942048674,-7.763937872176158e-06,1.6551075055109332e-05,0.00020494032481621182,0.9999999788326206,-0.001621337418558421,-0.0002256883868808502,0.0008483803767945563,0.0,0.0,0.0
1623492973564873695,132,1623492973564873695,-0.015521475375096036,0.005337260262594054,0.0012502947745575029,-1.4974582429732321e-05,2.9845138104477466e-05,6.664400026932189e-05,0.9999999972218009,0.004640771793279221,-0.0028208599500080434,0.0001217138499177156,0.0,0.0,0.0
1623492973665170193,133,1623492973665170193,-0.015407105142562882,0.0040826858231038715,0.00124673349696316,-1.1367472155327348e-05,2.5379844008744017e-05,-1.199390947181671e-06,0.9999999996125999,0.00273885226086923,-0.007027547553435766,-8.187658246468767e-05,0.0,0.0,0.0
1623492973764721394,134,1623492973764721394,-0.01648065446912937,0.003709700576018975,0.00124577518048963,-5.917620650184142e-06,2.9248524948612315e-05,3.974003955782077e-05,0.9999999987651149,-0.002146485076176529,-0.0060861314495545904,-0.0006433086493020458,0.0,0.0,0.0
1623492973865079165,135,1623492973865079165,-0.016421255902073634,0.004850209216014984,0.0011655666931197671,-1.19330515489245e-05,1.897576175068701e-05,0.0001461280547729347,0.9999999890720553,-0.00083075723555245,0.0010364725725020328,-0.0008498075989013598,0.0,0.0,0.0
1623492973964949369,136,1623492973964949369,-0.011720965115871503,0.004358340024481511,0.0013215769767565713,-5.1578443640039145e-06,3.3733776336180777e-05,0.00018698486727535677,0.9999999819360419,0.017065107835055424,-0.0014922335858391137,0.0012279985078745884,0.0,0.0,0.0
1623492974064961195,137,1623492974064961195,-0.008926441188534232,0.004040001241261682,0.0012719213554944983,-2.3666374448072688e-06,5.010890704878896e-05,4.753601518813693e-05,0.9999999976119093,0.021050396823375436,-0.002751446790780522,0.00016730328544950815,0.0,0.0,0.0
1623492974165029287,138,1623492974165029287,-0.009205864314806734,0.0044756266310906935,0.0014757855172839388,1.1996975856480083e-06,4.8628986877618677e-05,0.00014068777099221293,0.999999988920364,0.012239184017061708,-0.00023686963302172208,0.0014166648813134632,0.0,0.0,0.0
1623492974265269279,139,1623492974265269279,-0.008704976638013921,0.003418500503251514,0.0013279205722616443,-6.9195436395019805e-06,3.5669866869998446e-05,0.0001563408955069481,0.9999999871186495,0.009323992994158169,-0.004497328938712522,-0.0003006989863422202,0.0,0.0,0.0
1623492974364907742,140,1623492974364907742,-0.005955505169968682,0.003396591768910243,0.0013489635532928953,-4.62052593489511e-06,4.2251331496000726e-05,0.00019428623949171818,0.9999999802231636,0.016166330134924318,-0.002811135363358126,-0.00017060335687363337,0.0,0.0,0.0
1623492974465311766,141,1623492974465311766,-0.004347257664671065,0.003177152638970148,0.0014372557909111685,5.2047649589939405e-06,4.343130030029821e-05,0.0001667492294764632,0.999999985140661,0.016584187890233235,-0.0035329506726818616,0.0014215947960297976,0.0,0.0,0.0
1623492974565113783,142,1623492974565113783,-0.0022005175092415143,0.0029442281449408953,0.0013525506552677278,-4.024385335699364e-06,3.3306316087583465e-05,0.0001998660379127219,0.9999999794640277,0.018922155272013286,-0.0035828872508182432,-0.0003692131453066109,0.0,0.0,0.0
1623492974665281534,143,1623492974665281534,-0.0019131365808635228,0.0016574373207761761,0.0013181448674336766,-1.6846548922621575e-06,5.375359398913776e-05,4.343598752572502e-05,0.9999999976105123,0.01340150252392459,-0.008042062291286942,-0.0004792038101665466,0.0,0.0,0.0
1623492974765002012,144,1623492974765002012,-0.0029836664772200376,0.003438659934303338,0.0012155509749010099,-2.1967436874829374e-06,4.8259369262138865e-05,1.4710641678566676e-05,0.9999999987249004,0.004622539981885209,0.0019123948260881107,-0.0009875782527186251,0.0,0.0,0.0
1623492974865158081,145,1623492974865158081,-0.004901623210618502,0.002725903653262126,0.0012754382314663503,-5.90633337547617e-06,4.6925852254120746e-05,8.616956517428788e-05,0.9999999951689406,-0.003658766030611869,-0.0016885807855136301,-0.00029788911322129385,0.0,0.0,0.0
1623492974965002537,146,1623492974965002537,-0.004668436673949392,0.000923444767091289,0.0012991858598893357,2.934663853246498e-07,3.9819189628104525e-05,0.00012370024531864165,0.999999991556295,-0.001627775562672567,-0.008247779989647847,-0.0003914878596827061,0.0,0.0,0.0
1623492975065035582,147,1623492975065035582,-0.002966485799552026,0.0007531584913754681,0.0016337858617247924,1.4537790951424003e-05,8.15249005472548e-05,0.000153981671003518,0.9999999847159906,0.005450180382827599,-0.005203675080386338,0.0022733371017965827,0.0,0.0,0.0
1623492975165028811,148,1623492975165028811,-0.002702962538417332,0.0011732336494340038,0.001615885064255294,8.095221435822242e-06,5.6893773251942354e-05,0.00019901812038928084,0.9999999785446733,0.004373165159781219,-0.0019105996686096484,0.0008479927784838292,0.0,0.0,0.0
1623492975264652014,149,1623492975264652014,-0.0024147644783295524,0.0006220479366068448,0.0014266111737788465,1.8877270736774504e-06,5.391250785504996e-05,0.00012760037316436747,0.9999999904040074,0.0044925130219890305,-0.00336744410929236,-0.0008451673707518563,0.0,0.0,0.0
1623492975365247011,150,1623492975365247011,-0.0036226610059241506,0.0004999954876520815,0.0012874363053893385,1.946858547159607e-06,5.0529832870844005e-05,0.00010317631015223765,0.9999999933987932,-0.001601489320610501,-0.0023207850444408678,-0.0013258714206785252,0.0,0.0,0.0
1623492975465142250,151,1623492975465142250,-0.003582224149295731,0.0008940248012656701,0.001313604965435028,-2.291933292244567e-06,5.010696382430557e-05,7.707200363672236e-05,0.9999999957719685,-0.0006351283166865559,0.0007274346922714152,-0.000538311049387616,0.0,0.0,0.0
1623492975565129519,152,1623492975565129519,-0.0036369764736464316,0.0019068782134990946,0.0012901659928809823,-4.216432102776725e-06,4.198086074416831e-05,2.1030819862025797e-05,0.9999999988887626,1.0711551249374001e-05,0.004856112868206397,-0.0005824006958900429,0.0,0.0,0.0
1623492975665087700,153,1623492975665087700,-0.002229885277891215,0.00172552563276537,0.0012293503162129555,-3.008085294364217e-06,5.278821900088083e-05,0.0001719277343005526,0.9999999838226006,0.00517534641244641,0.002190118939427113,-0.0005204371459228878,0.0,0.0,0.0
1623492975764913797,154,1623492975764913797,-0.0034782064575561203,0.0013913379588946196,0.0012101315312122325,-3.5349534418599837e-06,4.430491702232688e-05,0.000103736352432582,0.9999999936316697,-0.0009973925339916805,-0.0008210284471140738,-0.0006000805770993903,0.0,0.0,0.0
1623492975865186691,155,1623492975865186691,-0.004620335510044099,0.0010110087001911124,0.00139241478307838,3.2760329918934173e-06,4.907441089553825e-05,0.00012636783415618724,0.999999990806066,-0.005226969821566172,-0.002353023911509029,0.001384671598210259,0.0,0.0,0.0
1623492975965225935,156,1623492975965225935,-0.004541687615296379,0.0012787467947846143,0.0013406437456422076,-4.791798626182989e-06,4.3374954042560876e-05,8.821171605615626e-05,0.9999999951571682,-0.0030202955845157592,-0.0008922320508492417,0.00017458067775105246,0.0,0.0,0.0
1623492976065264225,157,1623492976065264225,-0.004289941936400804,-0.00044522490482398134,0.0014656899690584926,7.549382511851934e-06,6.140445146626922e-05,0.00014244509924455373,0.9999999879409424,-0.0008834293361861352,-0.007844179911053841,0.0007257619886158215,0.0,0.0,0.0
1623492976165268421,158,1623492976165268421,-0.004301303728199198,-0.00045984094322546343,0.0013584118743143294,6.705436433523851e-06,5.518463151827918e-05,8.218641578241338e-05,0.9999999950775386,-0.0004685731992098049,-0.00508759831128657,-0.0002717088092302441,0.0,0.0,0.0
1623492976265114784,159,1623492976265114784,-0.006044945939075748,-0.001001256872183999,0.0012923294652221582,8.157927933827887e-06,5.045043821880728e-05,0.00012367601485191535,0.9999999910462183,-0.006762015094606418,-0.004612301439130146,-0.0003202068388139845,0.0,0.0,0.0
1623492976365029335,160,1623492976365029335,-0.005559279138453962,-0.0018323536204353508,0.0013688137495671763,7.086018357033343e-06,5.005277192752472e-05,0.00019141710361559472,0.9999999804019963,-0.002707459563014612,-0.006249807566912268,0.0006470745722845498,0.0,0.0,0.0
1623492976465004921,161,1623492976465004921,-0.004934016147452099,-0.0020513963551710823,0.0014519165707369832,1.649594548816801e-05,4.550281454605262e-05,0.00014821352934238903,0.9999999878450592,0.0007552761122928318,-0.0048639563166040685,0.0007694449930675711,0.0,0.0,0.0
1623492976564954281,162,1623492976564954281,-0.006025328677400502,-0.00040406272233896735,0.001525895122235505,1.0097311679760124e-05,4.6059130065000444e-05,9.162449051355432e-05,0.9999999946907722,-0.0031016876321769446,0.003814444748483854,0.0004958550068378298,0.0,0.0,0.0
1623492976664965868,163,1623492976664965868,-0.007975926693183215,0.0008724732891608342,0.001623701781483911,4.12996978561896e-06,3.965539572353847e-05,7.021696747061041e-05,0.9999999967399809,-0.009297290939588244,0.00730424746225649,0.000679919554250009,0.0,0.0,0.0
1623492976765018702,164,1623492976765018702,-0.008661019132652152,0.001165646101568149,0.0013668692926008651,-1.4988583502831005e-06,5.169289448822924e-05,5.039932338118701e-05,0.9999999973927491,-0.008093251209454514,0.005870270874406452,-0.0015311170336762651,0.0,0.0,0.0
1623492976865046024,165,1623492976865046024,-0.007667046050859042,0.002092459643695457,0.0012534056251144404,-5.749068544351996e-06,3.960885917354456e-05,0.00017598839336075426,0.9999999837130819,-0.0017335844457069564,0.007299000829695964,-0.0008804094540035482,0.0,0.0,0.0
1623492976965175390,166,1623492976965175390,-0.005070090403506748,0.002641983883960752,0.0013315591343483148,-2.953379070963594e-06,5.651182818896492e-05,5.551993693430432e-05,0.9999999968576098,0.008375137178495072,0.006845185899447689,0.00011522899118951782,0.0,0.0,0.0
1623492977064989090,167,1623492977064989090,-0.003930228501787778,0.003101154064221607,0.001426889229341326,1.8510362159742655e-06,5.002936192438966e-05,9.442177241901487e-05,0.9999999942890796,0.009413095290404811,0.0057437971448053675,0.0004775153797161099,0.0,0.0,0.0
1623492977165074110,168,1623492977165074110,-0.004134461523087975,0.002831509917934919,0.0014619372027112694,-1.243002775924647e-06,5.998732262803866e-05,6.281839158057338e-05,0.9999999962269099,0.0051911467276234725,0.002325502333573368,-5.242396584570776e-05,0.0,0.0,0.0
1623492977265050411,169,1623492977265050411,-0.005539601051046543,0.002770418019999658,0.0014699987633633783,1.0405818252198225e-06,5.599977234467164e-05,7.496475201464544e-05,0.9999999956216116,-0.0016357685866668715,0.001410049576395692,6.480226387749422e-05,0.0,0.0,0.0
1623492977365255356,170,1623492977365255356,-0.005898808450839153,0.0023553771054268193,0.001352931272476283,-3.298272907645333e-06,4.830109400287852e-05,5.742511180659023e-05,0.9999999971792387,-0.0023300984661469176,-0.0010528176432319854,-0.0004677765340078044,0.0,0.0,0.0
1623492977464731455,171,1623492977464731455,-0.007369038218970841,0.0016529950793935386,0.0013074742388878944,-5.324795090479682e-06,4.180897617379954e-05,3.7188217105694185e-05,0.9999999984203443,-0.006453856915452779,-0.0034411542892748845,-0.0005439034140355316,0.0,0.0,0.0
1623492977564921141,172,1623492977564921141,-0.007481167760604559,-0.0004970759670840951,0.001397498012188524,3.904037216370111e-06,4.189384237111469e-05,7.078294839573456e-05,0.9999999966097171,-0.0043060294562840325,-0.010744397426416278,0.00042573568267421924,0.0,0.0,0.0
1623492977664914608,173,1623492977664914608,-0.007085200302023719,-0.002418472677096867,0.0012817207604354066,4.603977910151269e-06,2.9034750028673158e-05,0.00011865493669314113,0.9999999925283943,-0.0013983872340951496,-0.01463202850390296,-0.0019429575841850744,0.0,0.0,0.0
1623492977764917374,174,1623492977764917374,-0.006887972974175181,-0.0007920717345643745,0.0012045674422148697,8.109336536144714e-07,4.711171386866551e-05,1.8576582665729995e-05,0.9999999987173678,0.0003278016393774522,-0.0026262037408604413,-0.0014525494953741512,0.0,0.0,0.0
1623492977864733934,175,1623492977864733934,-0.007286408489416469,0.00029873400208508557,0.0012998328289323953,5.366770783842445e-06,4.922974569677679e-05,3.0145436618754305e-05,0.9999999983194393,-0.0010260178560312992,0.0025024849833703163,0.0001899189044638086,0.0,0.0,0.0
1623492977965001822,176,1623492977965001822,-0.007441335543427267,0.001791678036032863,0.0015011533826264475,2.7313582011481928e-06,5.1697088414117956e-05,-2.2733247580675146e-05,0.9999999984015736,-0.0009149716207916472,0.0074556798710680005,0.0020841022273501977,0.0,0.0,0.0
1623492978065072298,177,1623492978065072298,-0.006830334744831519,0.001224342126141426,0.001458447506627135,-2.466753164506146e-07,4.760597300936423e-05,0.00011156627611458086,0.9999999926432864,0.002150799559372788,0.002338931230487639,-0.00023238556166980885,0.0,0.0,0.0
1623492978165252924,178,1623492978165252924,-0.007005422618418178,0.0003312894648316383,0.0012622905105198591,-2.9613521764637182e-06,3.5785748024215123e-05,4.464103840449662e-07,0.999999999355204,0.0006827171030753874,-0.0023676001496178516,-0.0016685773032117416,0.0,0.0,0.0
1623492978265206814,179,1623492978265206814,-0.005682316020765991,0.0017672224162011104,0.0013919711180630017,-1.1991911770252805e-06,4.969695691809481e-05,0.00023624237878592928,0.9999999708591545,0.005643724838927901,0.004452434109598643,4.675008810944847e-05,0.0,0.0,0.0
1623492978364767551,180,1623492978364767551,-0.006033175913372306,0.0027876969850897026,0.001262128708332109,-9.892695043338694e-06,4.071579376667392e-05,0.00018878187250993104,0.99999998130288,0.0026017963786578997,0.00667446657936653,-0.0011775646967534935,0.0,0.0,0.0
1623492978464971304,181,1623492978464971304,-0.003367407946793913,0.0029048961521413127,0.0013054380800322865,-4.355007045314792e-06,5.275877411927936e-05,0.000324136938867774,0.9999999460663921,0.011646014816764975,0.0037529879219553863,-0.0005740947037315811,0.0,0.0,0.0
1623492978564987898,182,1623492978564987898,-0.0007673548579681877,0.0037370527996620118,0.0013417269337961271,-7.860549019840923e-06,5.637835438649038e-05,0.00020462053247232695,0.9999999774450636,0.016752707229293298,0.005533937634182585,0.00048216423300002464,0.0,0.0,0.0
1623492978665189028,183,1623492978665189028,-0.0017491534104791128,0.004472242128108595,0.0013874618137875395,-1.0908664190374078e-05,5.0683825169152004e-05,0.0002523784882079284,0.9999999668086222,0.0072317237322475445,0.006718931648130143,0.00015236846299416086,0.0,0.0,0.0
1623492978765002251,184,1623492978765002251,-0.0013326207416071009,0.0029831502166532595,0.0015178485724727153,-3.4925197906549284e-06,5.9664940884747836e-05,0.00013618742083023572,0.9999999889404392,0.006314248606155728,-0.002410112005005516,0.0008078798573235173,0.0,0.0,0.0
1623492978865129709,185,1623492978865129709,0.0013803306343133563,0.0019870792942109083,0.0014326214310362996,4.368761272752355e-06,6.619799908805135e-05,0.0001333574757242446,0.9999999889072582,0.014422985986660126,-0.005814589028752558,-0.0003299214933329916,0.0,0.0,0.0
1623492978964862585,186,1623492978964862585,-0.0012016463115985452,0.0012482777569127795,0.0014257542196846273,1.2165904553134534e-06,5.6405428196591716e-05,0.00017536897085862062,0.9999999830313328,-0.00019208953293956173,-0.006289336247133028,-9.95118159828849e-05,0.0,0.0,0.0
1623492979064898968,187,1623492979064898968,-0.003197726404183328,0.0008981664019303766,0.001366981233060211,-2.8802956436802477e-06,5.5227514085428725e-05,0.00022235694693781475,0.9999999737495034,-0.007146208292764481,-0.0050403189855978995,-0.0013568078767242915,0.0,0.0,0.0
1623492979164942026,188,1623492979164942026,-0.005694174260191691,0.0016949824321013489,0.001367150246491836,-4.425469946040725e-06,5.3735545548525266e-05,5.490926768266902e-05,0.9999999970389366,-0.013769475077546531,4.111514147867729e-06,-0.0010362835222190068,0.0,0.0,0.0
1623492979265218735,189,1623492979265218735,-0.00693134065672238,0.002534257994194363,0.0013111414746457622,-9.37477337593913e-07,4.534424843445174e-05,0.00014512484065443016,0.9999999884408977,-0.013173447247211024,0.0030590785841424894,-0.0016904902149508763,0.0,0.0,0.0
1623492979365046978,190,1623492979365046978,-0.008496475733476509,0.0006818257398099105,0.0013240162684941994,3.239102403453844e-06,5.263672021591647e-05,-1.6434293920203774e-05,0.9999999984743962,-0.013944497014852047,-0.006104075026404802,-0.0015233880478240185,0.0,0.0,0.0
1623492979465060234,191,1623492979465060234,-0.008625275785948024,0.0005775697911497895,0.0012960763493924114,1.0848662916111302e-06,5.4225966903269564e-05,0.0001771531883607828,0.999999982837555,-0.009124707801441216,-0.003878363711751461,-0.0006096472261139512,0.0,0.0,0.0
1623492979565044403,192,1623492979565044403,-0.0071597269280101825,0.0005021801194104264,0.0016332726369162084,1.0819794225730768e-05,5.740140199525862e-05,0.000195744532461047,0.9999999791360421,-0.00017243917289443134,-0.003039978904775813,0.0027504421312539483,0.0,0.0,0.0
1623492979664926529,193,1623492979664926529,-0.006079821994799949,0.0007763489368380626,0.001712545028422326,9.714390871261375e-06,5.705479539532227e-05,6.213608970700009e-05,0.9999999963947414,0.0039017855714207007,-0.0009783452208885837,0.0014696926985337947,0.0,0.0,0.0
1623492979764936924,194,1623492979764936924,-0.0047191746398148006,0.0007486535080892368,0.0014795647001673478,-3.639641895396584e-06,5.1791013662417605e-05,0.00014764151105798231,0.9999999877532117,0.007560911326609066,-0.0007198152953578662,-0.0018581453594706922,0.0,0.0,0.0
1623492979865101814,195,1623492979865101814,-0.006570054303751641,0.0023097000575513873,0.0014523592548017423,2.0992835680220708e-06,5.5306883380949034e-05,-5.335408833317991e-05,0.9999999970450394,-0.002092815313177082,0.005159837870836857,-0.0007633584448617321,0.0,0.0,0.0
1623492979965529680,196,1623492979965529680,-0.006019463009564697,0.002339418826770527,0.0013010995152661193,1.6368431190966552e-07,4.5585364514333e-05,0.0001303840593180203,0.9999999904609703,0.00035252837719265467,0.003294324935908767,-0.001911827045491204,0.0,0.0,0.0
1623492980065001249,197,1623492980065001249,-0.006740817261345797,0.002141963524783321,0.0012223938463361568,-6.9819934464493226e-06,4.438267417858449e-05,5.7591093850520696e-05,0.9999999973323461,-0.0024562659928588776,0.0013381029189930946,-0.001258288940095532,0.0,0.0,0.0
1623492980165192366,198,1623492980165192366,-0.005925192969162204,0.0028426840895456372,0.0014034894834361851,2.7918532592077906e-08,5.049234295256556e-05,0.0001226097563882339,0.9999999912086831,0.002139856261526096,0.0035133282272203927,0.0015241562806310087,0.0,0.0,0.0
1623492980264981508,199,1623492980264981508,-0.007582723419686711,0.003082273701778377,0.0013008052314680708,-3.2229307632330547e-06,2.8875658665510067e-05,-9.866859894740031e-06,0.9999999995292244,-0.005106425232959066,0.0032325605316890845,-8.27146184181587e-05,0.0,0.0,0.0
1623492980364923000,200,1623492980364923000,-0.006922603185281467,0.0022438243455365626,0.0012957825335625887,-7.6052417103602325e-06,3.769093052207417e-05,5.269729305711246e-05,0.9999999978722718,-0.0010884488532490015,-0.0012612375500425412,-1.1268471263231483e-05,0.0,0.0,0.0
1623492980465039968,201,1623492980465039968,-0.006246357853009766,0.001939350786811713,0.0013028991494092115,-2.236322617567507e-06,4.9205632226500564e-05,0.0001286983216082471,0.9999999905052704,0.0016449889138040327,-0.0021761604168540304,-0.0008217584162057668,0.0,0.0,0.0
1623492980564857721,202,1623492980564857721,-0.005678906438642645,0.0012175025654246419,0.0012257210835732574,4.270157318003018e-06,5.6955131932775136e-05,0.00012719964644314867,0.9999999902790614,0.0033421230181724876,-0.004390499037623959,-0.000741373258113798,0.0,0.0,0.0
1623492980665122509,203,1623492980665122509,-0.005680393317261856,0.0010823821082222517,0.001274128132177654,1.5054930705852327e-06,4.787722529772595e-05,0.00012308060138751994,0.999999991278333,0.0023145734403135776,-0.0030486977143279878,0.00044024670910442886,0.0,0.0,0.0
1623492980765168905,204,1623492980765168905,-0.00679392565055293,0.001078373058574,0.001518832156749574,5.993689831508816e-06,4.78533425058523e-05,0.00010734666925856159,0.9999999930754104,-0.0027580593167306185,-0.0018171708707027607,0.0015793898070693047,0.0,0.0,0.0
1623492980864959240,205,1623492980864959240,-0.0072700508381379056,0.0012420083855932537,0.0015548781527749574,-4.049972509310246e-06,4.317806314731155e-05,0.00011683306791011605,0.9999999922346408,-0.0030592594634760674,9.243607364305476e-06,0.0009539626686348225,0.0,0.0,0.0
1623492980964903355,206,1623492980964903355,-0.007115230695940358,0.00031391146389893803,0.0013437758018462293,1.2305623217747685e-06,3.871696682212765e-05,0.00017567723847507243,0.9999999838184918,-0.00117503333828514,-0.0038778115511023787,-0.0022078867692689372,0.0,0.0,0.0
1623492981064951181,207,1623492981064951181,-0.007328795566855486,3.566498464901177e-05,0.0013354456940363074,3.937805802366966e-06,4.784379031695105e-05,0.000158633184009549,0.9999999862654866,-0.0014181060889467453,-0.0031241722357475844,-0.0007809258182219626,0.0,0.0,0.0
1623492981165173292,208,1623492981165173292,-0.006848434717223122,0.0015399679596196174,0.0013724228853630573,3.2773133339750822e-06,4.849249615280732e-05,7.495727742212413e-05,0.9999999960095691,0.0011319808782302692,0.004095014564010035,0.0008538812541298891,0.0,0.0,0.0
1623492981265124798,209,1623492981265124798,-0.00879337061757132,0.0008582303179818225,0.001566189916824764,1.019703273178036e-06,3.630720977862733e-05,0.00012684239986294172,0.999999991295874,-0.006322219510981704,-1.2678177282891834e-05,0.0015001640051376698,0.0,0.0,0.0
1623492981364906549,210,1623492981364906549,-0.00667546952552701,0.0005048876181802557,0.0012230489383327837,-2.006641807102005e-06,4.418863192643404e-05,4.964529228548728e-05,0.99999999778934,0.003461027894783787,-0.0017905971040987907,-0.0022531981775842837,0.0,0.0,0.0
1623492981464625120,211,1623492981464625120,-0.006819215899901309,0.0021900015286167467,0.0011285276474638766,-1.1914201209975257e-05,4.304858926619621e-05,6.509693197118007e-05,0.9999999968836283,0.0019884121967202245,0.0058005826231974575,-0.001965928847495123,0.0,0.0,0.0
1623492981564866543,212,1623492981564866543,-0.00512992704909809,0.004844629082210698,0.0012427822484631483,-1.0445879454640788e-05,4.257748334880429e-05,0.00010768368706194968,0.9999999932411315,0.007880234997976954,0.014971710156851541,-0.0004991378981213032,0.0,0.0,0.0
1623492981664952040,213,1623492981664952040,-0.006677003712830116,0.004099917296841626,0.001220792538554932,-6.1741291397840914e-06,5.588653373841388e-05,6.006037399187911e-05,0.9999999966156621,-0.00042134272831704025,0.00547854337268385,-0.0006357432398766105,0.0,0.0,0.0
1623492981764947653,214,1623492981764947653,-0.007401791103261685,0.0047369374460466225,0.0013402639105284896,-4.378826827668214e-06,5.357768031539663e-05,0.00012095315913834575,0.9999999912402939,-0.002948715815701314,0.005733736107111562,0.0009608637854436269,0.0,0.0,0.0
1623492981864993572,215,1623492981864993572,-0.004249615462798264,0.0023212886079224445,0.0014962485698588681,-1.874909443595148e-06,6.660274530903353e-05,0.00015563032099041087,0.9999999856698796,0.009641826300375973,-0.006133536017080142,0.0018271725670623686,0.0,0.0,0.0
1623492981965204954,216,1623492981965204954,0.0011050502860959377,0.0011931198363931068,0.0016193915154253805,4.102151592290738e-06,6.0523891417410003e-05,0.00012737872598699091,0.9999999900473444,0.02550861268766641,-0.007998102849637055,0.0006169226376649862,0.0,0.0,0.0
