%time,field.header.seq,field.header.stamp,field.pose.pose.position.x,field.pose.pose.position.y,field.pose.pose.position.z,field.pose.pose.orientation.x,field.pose.pose.orientation.y,field.pose.pose.orientation.z,field.pose.pose.orientation.w,field.twist.twist.linear.x,field.twist.twist.linear.y,field.twist.twist.linear.z,field.twist.twist.angular.x,field.twist.twist.angular.y,field.twist.twist.angular.z
1623492361803276062,0,1623492361803276062,-0.0017221302791415516,-0.0006419129516703902,0.00037973802032246356,1.761275075548503e-05,-2.3214596968764388e-05,5.025104445028883e-05,0.9999999983128536,0.0012513242246741368,-0.0026449829392003054,0.0004238204511777154,0.0,0.0,0.0
1623492361903217793,1,1623492361903217793,-0.00026211406088440627,0.0005067874870321556,0.0002892564347681956,2.0442971806847036e-05,-8.349517145421098e-07,-7.435986779402223e-05,0.9999999970259996,0.01544887973911918,0.011204688714579358,-0.0007990398300058788,0.0,0.0,0.0
1623492362003196955,2,1623492362003196955,-0.0015626065302552943,-0.0015004101605832372,0.00047729574479098196,1.493278661531454e-05,4.072765365310828e-06,-2.5359133329300507e-05,0.9999999995586699,-0.0022345485272566995,-0.008775478713811534,0.0018590415546682509,0.0,0.0,0.0
1623492362103168726,3,1623492362103168726,-0.0018828897443166593,-0.0019575526709137703,0.0002324647043452099,1.8756941526530485e-05,-1.1266760838498834e-05,5.8901815790839196e-05,0.9999999980259074,-0.0035175701856253326,-0.007134002173889849,-0.0012111854921761241,0.0,0.0,0.0
1623492362203125238,4,1623492362203125238,-0.004110654136317085,-0.003851380273141755,0.00032077539662508307,1.888642762557845e-05,-2.1754312262814495e-06,-5.395936733399359e-05,0.9999999983634795,-0.01516548490751443,-0.014390998632481817,-0.0002147693703003447,0.0,0.0,0.0
1623492362303085327,5,1623492362303085327,-0.005467709792722345,-0.0038915102744405254,0.0006326928806651495,7.026187851060075e-06,-1.4880764123378934e-05,3.4837107060874074e-05,0.9999999992577859,-0.016034769227598618,-0.007148477619057942,0.002283732963432122,0.0,0.0,0.0
1623492362403149843,6,1623492362403149843,-0.006609107714587614,-0.006336369205258891,0.0008034231774249077,2.674966614316979e-05,-2.0520495735371525e-05,-2.4945561271953376e-05,0.9999999991205422,-0.013536300000567523,-0.017430242909874445,0.0021994085379710214,0.0,0.0,0.0
1623492362503154755,7,1623492362503154755,-0.007903849050323819,-0.00839507946980817,0.0006674745299757593,2.2975091337177347e-05,-2.2208584101644085e-05,-5.928631756229126e-06,0.999999999471888,-0.01433612183626615,-0.020167572601181852,-9.266750009663408e-05,0.0,0.0,0.0
1623492362603174686,8,1623492362603174686,-0.008326447953884585,-0.007364284640542369,0.0005949280375549987,2.6045962328401928e-05,-1.4808364069085586e-05,-5.614548272306889e-05,0.9999999979750024,-0.010289957795209338,-0.004870334398859876,-0.0003658663395054254,0.0,0.0,0.0
1623492362703142881,9,1623492362703142881,-0.010552200188811688,-0.008145279772621446,0.0003743057201761911,7.330079419132313e-06,-2.3305257257556306e-05,-9.106702023603435e-06,0.9999999996601014,-0.016890513764099994,-0.006290398903680784,-0.002447890162842772,0.0,0.0,0.0
1623492362803130150,10,1623492362803130150,-0.00980550840213457,-0.009178938434204366,0.00016058656628068106,2.1126137379331974e-05,-2.6610553465962996e-06,-6.746601888773295e-05,0.9999999974974701,-0.003397220576421762,-0.00934556127560284,-0.0024880455047409863,0.0,0.0,0.0
1623492362903156757,11,1623492362903156757,-0.008860972809900652,-0.009161229536105351,0.0004344973432723269,8.512294305998935e-06,-3.6852424127208716e-06,-5.475868617200436e-05,0.9999999984577221,0.0034983851235062687,-0.005034310641373102,0.000365991917028768,0.0,0.0,0.0
1623492363003145456,12,1623492363003145456,-0.01114939221414773,-0.007967352065468798,0.0007477701284205498,1.544792298545175e-05,-1.4940913322478398e-05,-5.275959357281101e-05,0.9999999983772773,-0.010305131890963277,0.005621741901196519,0.0022195930898448353,0.0,0.0,0.0
1623492363103132248,13,1623492363103132248,-0.013250734027233854,-0.008377783035301225,0.0005072548574206997,1.7797578308847478e-05,-5.1109301251037186e-05,-7.427940719477644e-05,0.9999999957768265,-0.01561127888472181,0.0019556639169910324,-0.0008441703422872294,0.0,0.0,0.0
1623492363203064203,14,1623492363203064203,-0.012460036906753607,-0.008400044827894658,0.0006740977310048943,2.000320203673091e-05,-3.055236311215904e-05,-2.5098616757698613e-05,0.9999999990182414,-0.0032709529429636973,0.0005338301183636118,0.0006266638695556009,0.0,0.0,0.0
1623492363303009272,15,1623492363303009272,-0.014131574693006839,-0.00863133200620609,0.0005674955467515464,1.522357747629899e-05,-1.8653730939849492e-05,8.44483862550049e-05,0.9999999961443743,-0.009919568841594468,0.00016033268827098557,-0.00043061886428618604,0.0,0.0,0.0
1623492363403018713,16,1623492363403018713,-0.01372682357011637,-0.008561174360577,0.0005652709543638945,2.0885819180410484e-05,-1.552164361959922e-05,5.5447188753943674e-05,0.9999999981242333,-0.002810385133620608,0.0001525125065145207,-0.00027585307233562637,0.0,0.0,0.0
1623492363503089190,17,1623492363503089190,-0.012290875168321934,-0.009310360205764314,0.0006596264779927648,1.8956208698718706e-05,-2.2986650783396078e-05,-0.00010047561584113297,0.999999994508461,0.006624435024206762,-0.004384985482138826,0.0007059175213668708,0.0,0.0,0.0
1623492363603107214,18,1623492363603107214,-0.01160668306730051,-0.007896391056086005,0.0004675423163508494,1.4513062094337022e-05,-2.7898976114701244e-05,0.00017056065166725772,0.9999999849600386,0.0071817468414431315,0.005258486772311262,-0.0014379030554416091,0.0,0.0,0.0
1623492363703120947,19,1623492363703120947,-0.011332099875691838,-0.00901378568176726,0.0004152452780371278,1.575865828483906e-05,-1.2760901540231877e-05,4.3814194630466235e-05,0.9999999988345679,0.005660713738149889,-0.002727491669010074,-0.0011254304922031083,0.0,0.0,0.0
1623492363803091288,20,1623492363803091288,-0.011301857429746126,-0.00898649939835682,0.00042269027850535575,1.7001318850064565e-05,-2.4502016722604238e-05,-5.071109791276784e-05,0.9999999982694932,0.0035494981145677345,-0.0009480996025203667,-0.0008690680810830504,0.0,0.0,0.0
1623492363903072119,21,1623492363903072119,-0.010226404502357348,-0.00777235608851981,0.00038204053834689077,1.1124728721265225e-05,-2.9970360907827193e-05,4.122375013945762e-05,0.9999999986393081,0.007049378761857391,0.005596888805012339,-0.0008486093662351942,0.0,0.0,0.0
1623492364003121614,22,1623492364003121614,-0.010142608382458573,-0.0068359660156502135,0.0006489803815545681,1.398906807366514e-05,-2.96019988196954e-05,-0.00013678656776720433,0.9999999901087286,0.0041257093596757215,0.007950913892118466,0.0016399695437346628,0.0,0.0,0.0
1623492364103103399,23,1623492364103103399,-0.00609544601282359,-0.0048808050273968905,0.0005540455750229668,9.26379461060481e-06,-1.882359036370777e-05,-6.0928671925195134e-05,0.9999999979237733,0.022691926529149628,0.013104310240597286,-0.0005806539713104685,0.0,0.0,0.0
1623492364203049898,24,1623492364203049898,-0.00428741277597244,-0.004304100149161641,0.0005285328963505381,1.047969138619392e-05,-2.9920698748996108e-05,-0.00038509296405286317,0.9999999253491632,0.021607581681009874,0.010317940430140051,-0.0005404646827725881,0.0,0.0,0.0
1623492364303203821,25,1623492364303203821,-0.003259452803817581,-0.0038829226010795095,0.00047587194858785735,2.257638619587203e-06,-3.235895486064178e-05,-0.00013305496883755713,0.9999999906220857,0.01658881138676798,0.007852344680367952,-0.0016352779281552608,0.0,0.0,0.0
1623492364402992487,26,1623492364402992487,-0.0025729901803172766,-0.0026602703659634615,0.0004197164735377632,1.1711151833608317e-05,-1.0651510430004643e-05,-6.987263849917135e-05,0.9999999974336015,0.012407562335775738,0.010469710960242174,-0.0014116275871723343,0.0,0.0,0.0
1623492364503026247,27,1623492364503026247,-0.0033294931850651453,-0.002095296183327649,0.0005591718329570647,2.505303461441244e-06,4.066190068807944e-07,-0.0002382416188977225,0.9999999716172415,0.003255209477577915,0.009873190747889844,0.00022355423964647296,0.0,0.0,0.0
1623492364603100300,28,1623492364603100300,-0.0034734435921094015,-0.0027167118974995787,0.0005574327939932244,1.2903112776370624e-05,-1.55271832819189e-05,-0.00030562792155670247,0.9999999530919919,0.002476669703595569,0.0025446117918558773,0.0002794178925561367,0.0,0.0,0.0
1623492364703180313,29,1623492364703180313,-0.005359968695784821,-0.004270137110134157,0.0005481841470758832,1.8344232038155243e-05,-1.7984475668074962e-05,-0.0002391926434594389,0.9999999710634613,-0.007220312245002259,-0.004686608003839061,0.0003545029567358104,0.0,0.0,0.0
1623492364803179502,30,1623492364803179502,-0.006205535901015198,-0.0056493903557829515,0.0006846176843405254,1.9436851782484462e-05,-1.1329472969369378e-05,-0.0002662460390894996,0.9999999643034471,-0.007487157728879526,-0.009595364331254234,0.0007005715347900985,0.0,0.0,0.0
1623492364903132915,31,1623492364903132915,-0.009667914342121664,-0.006802020411456481,0.00071736497288052,1.1611398437291877e-05,-3.451584593595402e-05,-0.00022418352133298978,0.999999974207788,-0.02084643115439312,-0.009798190310584301,-5.324468802536111e-05,0.0,0.0,0.0
1623492365003075123,32,1623492365003075123,-0.011441485137583885,-0.008470678432144958,0.0009215457728060557,1.8923890725559386e-05,-2.849860718067155e-05,-0.00012808220698038082,0.9999999912123306,-0.01885028259791373,-0.013215285094758675,0.0008553255229590564,0.0,0.0,0.0
1623492365103124380,33,1623492365103124380,-0.0113743887190609,-0.008931440360304039,0.0007327724488304018,1.576459798670434e-05,-3.265892499077142e-05,2.1240124738486426e-05,0.9999999991168631,-0.009818660473397748,-0.009541418819997479,-0.0011386262294443112,0.0,0.0,0.0
1623492365203126192,34,1623492365203126192,-0.012394177139700724,-0.009135062908959806,0.0005747506763789798,1.665555781450766e-05,-2.8759601905195208e-05,-0.00012864245400714955,0.999999991173297,-0.010477689102145532,-0.005840535077918761,-0.0017775026128788978,0.0,0.0,0.0
1623492365303096056,35,1623492365303096056,-0.013880728314718883,-0.009066428820372162,0.0005259256309150966,7.8534767646206e-06,-3.89750766974104e-05,-0.00010082326791911056,0.9999999941269655,-0.013037896564664302,-0.00290030514780575,-0.0012349051414972906,0.0,0.0,0.0
1623492365403018951,36,1623492365403018951,-0.014035692572494533,-0.010279381179581253,0.0005354233531425122,1.9655009624632035e-05,-4.357927873266094e-05,-8.307649707681257e-05,0.9999999954064092,-0.00708439726019616,-0.007710655484379906,-0.0009319181186778045,0.0,0.0,0.0
1623492365502977371,37,1623492365502977371,-0.015179012968043495,-0.010443817907728947,0.0004953605712045918,1.5122956901241982e-05,-3.0869530544880915e-05,-1.4490429776539918e-05,0.999999999304195,-0.00919965810939486,-0.004757238355694215,-0.0011373236169434859,0.0,0.0,0.0
1623492365602997541,38,1623492365602997541,-0.016637264066805352,-0.01198128188994045,0.0007769965956525003,2.6786840616076304e-05,-3.736858893199708e-05,-0.00017192939391221348,0.999999984163166,-0.011147549331564139,-0.009314582357401745,0.0018386557019628726,0.0,0.0,0.0
1623492365703009605,39,1623492365703009605,-0.01988889383065784,-0.01417639082583724,0.0006704541385440857,2.2619931964260347e-05,-3.505673596380948e-05,-9.395834759768849e-05,0.9999999947155941,-0.021049402447397888,-0.014779903443721158,-2.9905474694733817e-05,0.0,0.0,0.0
1623492365802994251,40,1623492365802994251,-0.021003978226960224,-0.014950466637188914,0.0005871342099041408,2.755710620967116e-05,-4.289989029075745e-05,6.412022505521478e-05,0.9999999966443983,-0.016910697342296513,-0.012519880874584869,-0.0005838039001118484,0.0,0.0,0.0
1623492365902998209,41,1623492365902998209,-0.022627159239517178,-0.012853635803097953,0.0006108743670298061,1.330780462274172e-05,-6.418686691134636e-05,7.130590351887057e-05,0.9999999953092054,-0.0175346490552565,0.0034631672450964844,-0.0006936178877099437,0.0,0.0,0.0
1623492366002912045,42,1623492366002912045,-0.019930880008998758,-0.010351501812051295,0.000613610595462235,2.4353410931332956e-05,-3.882077987947458e-05,0.00012641337760976504,0.9999999909597556,0.002748901324867579,0.012154828129671601,-0.00010919284844523359,0.0,0.0,0.0
1623492366102984667,43,1623492366102984667,-0.017090441834992164,-0.008955169941033066,0.0007190817723910565,9.446031148429079e-06,-4.2373247543744965e-05,2.6022149604233924e-05,0.9999999987190618,0.015262191126664059,0.012865943397749144,0.00044186145567891126,0.0,0.0,0.0
1623492366203004837,44,1623492366203004837,-0.013114040402885496,-0.008296288122740006,0.0007430947371043805,8.809696240783676e-06,-3.684872803019965e-05,-0.0001508783383479618,0.9999999879001419,0.028004091428125034,0.009670935806464767,0.00033785917243091344,0.0,0.0,0.0
1623492366302942991,45,1623492366302942991,-0.01174780656452306,-0.005017945458006074,0.0006462782910883021,8.489518116149628e-06,-4.134746511406642e-05,-0.00010014478176446757,0.9999999940946671,0.020956892272405565,0.021127243765831076,-0.00037612524611798455,0.0,0.0,0.0
1623492366402948618,46,1623492366402948618,-0.01044714556275615,-0.0051742793469654776,0.0006667935238247077,4.756009149597278e-06,-4.140942377759131e-05,-6.853333754085841e-05,0.9999999967829085,0.01813849485209985,0.010945462096750362,-0.0012153360321056595,0.0,0.0,0.0
1623492366502969980,47,1623492366502969980,-0.009997054326701983,-0.005396832624526826,0.0005403014250593114,1.4297203283618937e-05,-2.7907674692614487e-05,6.50045287558069e-06,0.9999999994872454,0.012733772867517892,0.005466976411625374,-0.0013293849948656875,0.0,0.0,0.0
1623492366603254318,48,1623492366603254318,-0.012321777844348496,-0.008444008568491755,0.0005706016976581027,1.8390993629074834e-05,-1.874333098883045e-05,6.755889565729699e-06,0.9999999996324047,-0.003113411342729822,-0.009129987507511428,-0.0006746076113936944,0.0,0.0,0.0
1623492366703153372,49,1623492366703153372,-0.013158534603101887,-0.00975315229756023,0.000533143965955913,1.9639429283124953e-05,-3.20668254649959e-05,2.7396483905963453e-05,0.999999998917718,-0.0055200241802659915,-0.010549570947479346,-0.00032227442294659306,0.0,0.0,0.0
1623492366803060532,50,1623492366803060532,-0.016192012345489844,-0.013164556842783049,0.000519551241731892,1.431860585188255e-05,-3.4022120888106336e-05,-2.1079314997831143e-05,0.9999999990965631,-0.016220045911124734,-0.020089053178764027,-0.00016145378523251076,0.0,0.0,0.0
1623492366903064013,51,1623492366903064013,-0.017491838251826104,-0.012037962048720268,0.0005778856389575438,2.611181996035747e-05,-4.122751412178758e-05,-8.704737703458633e-05,0.9999999950206054,-0.016339736352387915,-0.006409915275793227,0.00019583960653279836,0.0,0.0,0.0
1623492367003028870,52,1623492367003028870,-0.018646271481454715,-0.0126894876674537,0.0007733697009070792,2.2248300055962964e-05,-4.508133852286044e-05,-0.00010463243858809325,0.9999999932623654,-0.014423097703738643,-0.00688831096826493,0.0002519305379304795,0.0,0.0,0.0
1623492367102930784,53,1623492367102930784,-0.018470387557547645,-0.011291481239008442,0.0007637502412749085,2.3540484542627343e-05,-3.2712491378033296e-05,0.0001276879171766757,0.9999999910357629,-0.007382888694375937,0.0014143585688393152,-0.00018266955045246382,0.0,0.0,0.0
1623492367202934980,54,1623492367202934980,-0.01688335457008082,-0.010389395668996899,0.0007062761912561933,1.9699238371155655e-05,-3.9405802371778936e-05,-2.579732313343266e-05,0.9999999986968057,0.003160698775019551,0.003990257829033243,-0.0005496293911998147,0.0,0.0,0.0
1623492367302943230,55,1623492367302943230,-0.01655726604639879,-0.010539195328718548,0.0007171971750144379,2.2664937717924392e-05,-4.004106872663184e-05,2.4034403640740065e-05,0.9999999986526757,0.004008394698166783,0.002071490046536658,-0.0004095152517031988,0.0,0.0,0.0
1623492367403364897,56,1623492367403364897,-0.016008113030256874,-0.009691292991559748,0.0004868125774960531,1.8798206746836324e-05,-3.9073035587213044e-05,0.0001122939189389012,0.9999999927549954,0.004158377724769404,0.005245946234665306,-0.0016916808554383192,0.0,0.0,0.0
1623492367502958298,57,1623492367502958298,-0.01887540555139597,-0.010069700803063063,0.0008100455636252739,1.782732407669985e-05,-3.996373009691489e-05,2.827834724585285e-05,0.999999998642706,-0.010593971805151457,0.0022088508409691342,0.0005530191084671256,0.0,0.0,0.0
1623492367602929831,58,1623492367602929831,-0.016687355561126885,-0.008674402953878281,0.0007655835803915065,2.1460733716789153e-05,-7.644407011660073e-06,6.573804273634697e-05,0.9999999975797497,0.0040633694182924725,0.0067900398761095715,0.00022580754366485377,0.0,0.0,0.0
1623492367702873468,59,1623492367702873468,-0.019571214041771548,-0.010223363841697228,0.0008598845900279452,1.275759384427342e-05,-4.1654375312752364e-05,0.0001097072924281783,0.9999999930332285,-0.009744463817915456,-0.0021242371695157636,0.001077789463665799,0.0,0.0,0.0
1623492367802934170,60,1623492367802934170,-0.022232621227051136,-0.012231121517316847,0.0005608438911556193,7.303987012076833e-06,-6.293166197574554e-05,0.00020082831078240993,0.9999999778271186,-0.016714034172837077,-0.009485891123396144,-0.0018328864407402264,0.0,0.0,0.0
1623492367902930260,61,1623492367902930260,-0.023318464712975478,-0.010855226369537941,0.0006616786756978998,1.2518487893899541e-05,-5.754263776815993e-05,0.0002728833375739911,0.9999999610334018,-0.014829819533035476,0.0004960881890829667,-0.00030551776318611754,0.0,0.0,0.0
1623492368002969503,62,1623492368002969503,-0.022286789282033818,-0.01181606882977928,0.0007500923630580049,1.882289942828689e-05,-6.979899552138157e-05,0.0001723684389274973,0.9999999825314546,-0.0027180617964218078,-0.004976668343456481,-3.0948985467653704e-05,0.0,0.0,0.0
1623492368102951527,63,1623492368102951527,-0.02104010203685187,-0.011722907989833017,0.0006577367676917377,1.885227732972902e-05,-4.723637004513779e-05,0.00017160875542964447,0.9999999839818707,0.004585641626075795,-0.0028453756838842264,-0.0011844079828847954,0.0,0.0,0.0
1623492368203010559,64,1623492368203010559,-0.02444613563298788,-0.01246466382399039,0.0006788159143097249,1.68937657862579e-05,-6.319090580959191e-05,0.00018554974226718602,0.9999999806463964,-0.012889405777034086,-0.0032748579660116647,-0.000458612390907048,0.0,0.0,0.0
1623492368303012609,65,1623492368303012609,-0.025731416498999196,-0.012461929937378458,0.0007607306903247781,2.6072498854997946e-05,-5.5147948313008793e-05,0.00025971264396390693,0.9999999644141294,-0.013182969591216469,-0.0015063435225959958,-0.0003239743785877153,0.0,0.0,0.0
1623492368402942896,66,1623492368402942896,-0.025048647887314885,-0.009935695085114476,0.0007098496539435666,1.2288212913005631e-05,-7.18881287632116e-05,0.0003100159555338279,0.9999999492855959,-0.004803337645282945,0.010526418066936652,-0.0005439616572907411,0.0,0.0,0.0
1623492368502993107,67,1623492368502993107,-0.023221426651646126,-0.008420601301893656,0.0006366360869844724,1.1485745708577513e-05,-6.138130640697266e-05,0.00023726464138702972,0.9999999699029462,0.005591103999604033,0.012316408573275464,-0.0008392937587389656,0.0,0.0,0.0
1623492368602962017,68,1623492368602962017,-0.026013786110475504,-0.00967952635278658,0.0005644560825759664,1.7922706261246997e-05,-5.2519658556499965e-05,0.0003663828539352244,0.9999999313420258,-0.008970883349548568,0.0034773032282251898,-0.001855214492880305,0.0,0.0,0.0
1623492368702944279,69,1623492368702944279,-0.026207310316618042,-0.010504219287999971,0.0005078296013123093,2.3550017336236782e-05,-6.659161182271402e-05,0.00029743349978058025,0.9999999532721274,-0.005391090329475328,-0.0018251538901889112,-0.001157013010815014,0.0,0.0,0.0
1623492368802957058,70,1623492368802957058,-0.027487769277374112,-0.012429749300064205,0.0006827554862739613,2.69967630389217e-05,-6.87283930419345e-05,0.0002727718397307739,0.9999999600715469,-0.007879221035281575,-0.009001820346939289,0.0010292466361206823,0.0,0.0,0.0
1623492368902879000,71,1623492368902879000,-0.029788955036466298,-0.014252507872358766,0.0008175404191298724,2.236751809107349e-05,-7.67298447195625e-05,0.0003044155221772583,0.9999999504717004,-0.014892910943304565,-0.01176589433006159,0.0007630765213942569,0.0,0.0,0.0
1623492369002891541,72,1623492369002891541,-0.028334515817436106,-0.014477528518285276,0.0006617894829569695,1.9664143813831076e-05,-6.794464677843471e-05,0.00020982692621579339,0.9999999754847474,-0.0020760553045126202,-0.008578693336442966,-0.0014562889350128356,0.0,0.0,0.0
1623492369102878094,73,1623492369102878094,-0.02747911897188497,-0.01455001075371465,0.0006705991044052347,2.8540501959355657e-05,-5.910704074857928e-05,0.00018621310689970023,0.9999999805082327,0.002960557129813731,-0.005625484679971857,-0.00043359854512185054,0.0,0.0,0.0
1623492369202902555,74,1623492369202902555,-0.026620373735956212,-0.013644349999766906,0.0007187825044365588,2.1462949977685006e-05,-6.523706774919002e-05,0.0002579350192770123,0.9999999643764906,0.005075455165227123,0.0007995424029036005,-0.00023744634519018334,0.0,0.0,0.0
1623492369302910805,75,1623492369302910805,-0.023921070792493972,-0.01258135799568147,0.0007111473843419997,1.1701942290811053e-05,-5.4972132064427057e-05,0.00024138140575074668,0.9999999692880676,0.014669694185355804,0.004499586293710087,-0.00010605706562672606,0.0,0.0,0.0
1623492369402926683,76,1623492369402926683,-0.02387199327098976,-0.010378445574671023,0.0005283287090676624,1.763783000501629e-05,-5.1785786057865174e-05,0.0003973817244150747,0.9999999195474438,0.008084345739381757,0.012847749959323683,-0.0007572538752491933,0.0,0.0,0.0
1623492369502961874,77,1623492369502961874,-0.02543061082490835,-0.012518134173787977,0.0007844447125230989,1.953041344453219e-05,-7.09067754496492e-05,0.0004214751854890204,0.9999999084747201,-0.0014204969881708536,-0.000734358327583123,0.0016418594592911048,0.0,0.0,0.0
1623492369602932215,78,1623492369602932215,-0.02772550304909374,-0.01404070858262254,0.0009402736453442306,2.8028371102753606e-05,-4.7191736787079714e-05,0.00031713985294368245,0.9999999482048255,-0.010532839852055775,-0.006044780724261636,0.0011861434701898963,0.0,0.0,0.0
1623492369702906370,79,1623492369702906370,-0.02782091545944357,-0.013718482596934494,0.0009767271591943115,1.467454819708607e-05,-5.26630886365745e-05,0.00030945613679908535,0.999999950624072,-0.00674698795861863,-0.002103905616958667,-6.892822464718746e-05,0.0,0.0,0.0
1623492369802857161,80,1623492369802857161,-0.02726527109013568,-0.013956442145381704,0.0008345841812621574,2.06931019857961e-05,-5.824289838580879e-05,0.00019699572486268967,0.9999999786861172,-0.000581240737649859,-0.0025017982912142766,-0.0010997076737696476,0.0,0.0,0.0
1623492369902870893,81,1623492369902870893,-0.02525208758674705,-0.01323057135692942,0.000783399588372882,1.5768938764666082e-05,-5.6285017406439924e-05,0.00022106983083424315,0.999999973855729,0.00867376901802163,0.0011657364514965247,-0.000999679617247833,0.0,0.0,0.0
1623492370002811670,82,1623492370002811670,-0.024916859597563276,-0.012241581766805777,0.0008243635315482397,1.7924232248383275e-05,-5.548734561475313e-05,0.00024415868582846885,0.9999999684932012,0.006235555870177786,0.005288270771544152,0.00058355872226066,0.0,0.0,0.0
1623492370102817059,83,1623492370102817059,-0.023197853355920124,-0.011042758484506837,0.0007481859123650802,1.3314094129880802e-05,-5.008174037424897e-05,0.00019170211574414723,0.9999999802824221,0.010988506213622698,0.007948240144022591,9.333850336381015e-05,0.0,0.0,0.0
1623492370202847242,84,1623492370202847242,-0.022977861052474055,-0.009879034670353544,0.0006877294640555748,1.1180326119735276e-05,-5.3012622815857806e-05,0.00024557361623019287,0.999999968379126,0.0073636462867081465,0.009666528969254965,-0.0008574576970120967,0.0,0.0,0.0
1623492370302864313,85,1623492370302864313,-0.022801198127631837,-0.010571423028248006,0.0007672270488957111,1.5346915821544843e-05,-4.349868993199737e-05,0.00028316193290443446,0.9999999588458232,0.005902369306245523,0.0023649088390731267,0.0001753398060801096,0.0,0.0,0.0
1623492370402854681,86,1623492370402854681,-0.022768797439404447,-0.011136050468538617,0.0008265208516779232,2.2974637062240065e-05,-4.854370876943817e-05,0.00026214148444632086,0.9999999641987536,0.00407728250620318,-0.0005606841395286305,0.00045140954743666035,0.0,0.0,0.0
1623492370502853632,87,1623492370502853632,-0.023111870184646572,-0.01198774056631503,0.0008369137502107616,2.227850746544805e-05,-5.860574864919111e-05,0.0003347149454503457,0.999999942017464,0.001137970794856304,-0.0033097733527841285,-7.395571363283594e-05,0.0,0.0,0.0
1623492370602928638,88,1623492370602928638,-0.024054940109466225,-0.010727288080540777,0.0007784304208538953,1.4702441588729881e-05,-6.488859478613421e-05,0.00023868116588132606,0.9999999693023002,-0.0040275559269649045,0.004324096927732977,-0.00025701931921499963,0.0,0.0,0.0
1623492370702893496,89,1623492370702893496,-0.025089451704667757,-0.010878906581271105,0.0006569001742471418,1.0094733354428904e-05,-7.272522000377776e-05,0.0002715169697620374,0.9999999604438314,-0.006152945406393743,0.0019376104672340073,-0.0010111672167892258,0.0,0.0,0.0
1623492370802959681,90,1623492370802959681,-0.02756034826297862,-0.012482046076482836,0.0007033955839158299,1.8779327562144456e-05,-6.668479665766705e-05,0.0003173232060735538,0.9999999472532223,-0.013745711889149808,-0.005864753748769633,-0.00012589358953160438,0.0,0.0,0.0
1623492370902983189,91,1623492370902983189,-0.02895948097168566,-0.014613878130934902,0.0009346670587353514,2.873195495575117e-05,-6.583162107532358e-05,0.00028686749286037036,0.9999999562738509,-0.012876720776047557,-0.01281838999279648,0.0016318141359618784,0.0,0.0,0.0
1623492371002960443,92,1623492371002960443,-0.027067586615403726,-0.015000026931705424,0.0008894148019644184,2.7457487249636873e-05,-5.251037520028779e-05,0.00036318067674835164,0.9999999322942633,0.0012237216487613316,-0.010728248241924315,0.0006221700638517355,0.0,0.0,0.0
1623492371102835655,93,1623492371102835655,-0.02759668107677305,-0.016306423558135618,0.0007019776523495762,2.529867357840884e-05,-6.293021871213928e-05,0.00022787828610076405,0.9999999717356199,-0.0013857895115000072,-0.01182746677017673,-0.0022123503760090924,0.0,0.0,0.0
1623492371202804804,94,1623492371202804804,-0.027140001776987978,-0.016349299760971717,0.0006473343542614446,2.4283523525383358e-05,-5.3683478987751305e-05,0.0002548445080437428,0.9999999657913299,0.0008451654171306553,-0.007197594521401175,-0.0016199484679713487,0.0,0.0,0.0
1623492371302740097,95,1623492371302740097,-0.02831690090792063,-0.015322744510283228,0.0009119417492541349,3.0922159663379346e-05,-5.366152906293796e-05,0.00023629033797862624,0.9999999701655622,-0.005316526270334238,0.0015158370224947993,0.0011328977587335195,0.0,0.0,0.0
1623492371402725220,96,1623492371402725220,-0.026217310671133122,-0.014262440227043705,0.0011259379958016363,2.3261531152030294e-05,-5.900152850205213e-05,0.0002645030889967892,0.9999999630079119,0.0067624471045366315,0.0042932149313100664,0.001971256910609088,0.0,0.0,0.0
1623492371502844334,97,1623492371502844334,-0.02538232774719897,-0.01367933649283243,0.0010445962943768758,2.6290622470845767e-05,-5.460137068530607e-05,0.0002441733778604677,0.9999999683534213,0.007743835254836492,0.005507364723842669,0.00048498953523553245,0.0,0.0,0.0
1623492371602836609,98,1623492371602836609,-0.023866260614845286,-0.014087155204698625,0.0008899042153057915,2.386183604019371e-05,-4.926064607040565e-05,0.00024282376558418137,0.9999999690203045,0.011758792363890323,0.0012159866233044884,-0.0007703563438383851,0.0,0.0,0.0
1623492371702860832,99,1623492371702860832,-0.02316509395587352,-0.012967693220202392,0.0006504123614538704,1.6070747039731002e-05,-6.195477011623774e-05,0.00010644634619557868,0.9999999922862512,0.00958876572633208,0.005607197451806357,-0.0027541743671562206,0.0,0.0,0.0
1623492371802795172,100,1623492371802795172,-0.02200084875231058,-0.011217732546536505,0.0005989577943942612,1.8620871102630145e-05,-5.027915229814055e-05,0.00024662389678151554,0.9999999681509562,0.010724786542878227,0.010060583786258254,-0.001736054693830907,0.0,0.0,0.0
1623492371902786493,101,1623492371902786493,-0.021060090371200806,-0.010377434082800159,0.0007861530126860755,1.8330063565533614e-05,-5.065588208246532e-05,0.00026788391447216136,0.9999999626680932,0.010898220064277687,0.009701056415990724,0.0005016526643556298,0.0,0.0,0.0
1623492372002767801,102,1623492372002767801,-0.018852205183874718,-0.008856474516151212,0.0008034265982742383,1.4579651637832756e-05,-4.3519312052851435e-05,0.00032732085373927516,0.9999999453772733,0.01596762587850377,0.011737395597963983,0.0007733271986609366,0.0,0.0,0.0
1623492372102839708,103,1623492372102839708,-0.01788268225224552,-0.007722017183286567,0.000782569478273495,8.427724056624825e-06,-4.529675974641028e-05,0.00014905328692028472,0.9999999878301417,0.013686935504090269,0.011735204015846424,-0.00041287173159787406,0.0,0.0,0.0
1623492372202920675,104,1623492372202920675,-0.0200573515156717,-0.008647800929864842,0.0007398747160810516,1.5247804100933167e-05,-5.7615259249602264e-05,0.00025296021926574504,0.9999999662295507,-0.0004447932562749099,0.004595364775161314,-0.00033266949848616154,0.0,0.0,0.0
1623492372302807331,105,1623492372302807331,-0.02134561505542035,-0.007018075671155727,0.0006429634276298305,5.2262152850918754e-06,-4.17335013614113e-05,0.0002902398138182367,0.9999999569959193,-0.006102473926323783,0.010533235332803662,-0.0013583541724726785,0.0,0.0,0.0
1623492372402806520,106,1623492372402806520,-0.02085362447850335,-0.008923038253087238,0.0005577675383242266,9.808533586719917e-06,-5.2137933625837406e-05,9.976960004977919e-05,0.9999999936157209,0.00040560410572150225,-0.0029057070695686967,-0.0017583635193339224,0.0,0.0,0.0
1623492372502763271,107,1623492372502763271,-0.02140764829751895,-0.010546325377937713,0.0005660190248821982,9.116460822944344e-06,-4.499581532618788e-05,0.0002801150989841954,0.9999999597138914,-0.0008373819149846344,-0.00820622744183733,-0.0005214286137792869,0.0,0.0,0.0
1623492372602818966,108,1623492372602818966,-0.020591206135029193,-0.011695550757076215,0.0008191602170740997,1.808225321139945e-05,-3.490111498315492e-05,0.00024436592122913597,0.9999999693701124,0.0033712585212901814,-0.010330353903590005,0.0017370271946886453,0.0,0.0,0.0
1623492372702815533,109,1623492372702815533,-0.021121813364903624,-0.01081868369609567,0.0007268603992984408,1.6466940446022674e-05,-6.434923694214408e-05,0.00018323957096963604,0.9999999810056293,-0.0008432259169359755,-0.0011680800562401897,-0.00032105236693668335,0.0,0.0,0.0
1623492372802794456,110,1623492372802794456,-0.018615229988178585,-0.009762222605907941,0.0008703685655110144,1.6184596308716408e-05,-4.8751222650753094e-05,0.00022001566325182542,0.9999999744772338,0.010248540297867577,0.002432979084660704,0.0008911131832808108,0.0,0.0,0.0
1623492372902796268,111,1623492372902796268,-0.018330291702099502,-0.0095864084321016,0.0007415630906049984,1.2260378081024209e-05,-3.966226835134266e-05,0.00011022656058849851,0.9999999930633386,0.007436045610226376,0.002535650754936865,-0.0006240223601757988,0.0,0.0,0.0
1623492373002821445,112,1623492373002821445,-0.018366547943341686,-0.008846123790194123,0.0006815992215257512,6.441886786984589e-06,-3.840594675683791e-05,0.0002286504162921064,0.9999999731012291,0.0041363896314669125,0.005386438263716188,-0.0007470404537520876,0.0,0.0,0.0
1623492373102892399,113,1623492373102892399,-0.017481497521407794,-0.009032235618125667,0.0006994529948744069,1.219288598998907e-05,-3.754560195490429e-05,0.00020642905254251358,0.9999999779143466,0.006907277806936778,0.0023472632802043958,0.0004163831536182003,0.0,0.0,0.0
1623492373202865362,114,1623492373202865362,-0.01832914153910227,-0.008950307010018114,0.0007440040140053092,1.7262896766611715e-05,-3.816849210384745e-05,0.0002551123815842522,0.9999999665814079,0.0008694036176812719,0.002702355027301816,0.0005797646099457844,0.0,0.0,0.0
1623492373302748442,115,1623492373302748442,-0.01894880582231207,-0.008145114360335281,0.0007296943560172687,2.0230070310397943e-05,-4.1792259745947416e-05,0.00025720826254754055,0.9999999658440228,-0.002356884057115279,0.005321858560944556,-0.000901529166739174,0.0,0.0,0.0
1623492373402739048,116,1623492373402739048,-0.01830459884027409,-0.007613580328585047,0.0007547459912130667,1.670299388949427e-05,-4.085082287267297e-05,0.00024952675364170977,0.9999999678943017,0.0018961247832094555,0.004691938263877949,-9.05274669083171e-05,0.0,0.0,0.0
1623492373502724648,117,1623492373502724648,-0.018249296260918865,-0.008803706809062188,0.0007173010232011764,1.5689359460697632e-05,-4.927859202589946e-05,0.0001584876200903277,0.9999999861035616,0.0022294226645397522,-0.001855679890485109,-0.0006609071189712704,0.0,0.0,0.0
1623492373602733135,118,1623492373602733135,-0.019028114085907277,-0.009028562061397065,0.0007123541730015866,1.0776778517524406e-05,-4.95352975259062e-05,0.00023870474910743354,0.999999970225071,-0.0018288600164994102,-0.0014584654882591475,-0.00040695509173758223,0.0,0.0,0.0
1623492373702756882,119,1623492373702756882,-0.01956257799478635,-0.009335278464257926,0.0007100666344818877,1.3703038048541439e-05,-4.275986586359952e-05,0.00022032004983614327,0.9999999747214396,-0.002863355452419709,-0.0019634903911080245,2.1712290481054017e-05,0.0,0.0,0.0
1623492373802762270,120,1623492373802762270,-0.01942323161465167,-0.011423405356017175,0.0009071394278320511,2.160736304739093e-05,-4.004557087575217e-05,-5.543864061778032e-05,0.9999999974280076,9.562682345870674e-05,-0.010328090191869975,0.001846714366752357,0.0,0.0,0.0
1623492373902751446,121,1623492373902751446,-0.01903702302608526,-0.012391066263332438,0.0009248658477234305,2.09132151142209e-05,-4.397902289216744e-05,0.00019492653172220023,0.9999999798160563,0.0014926180208051484,-0.00983524484973945,0.00031181891688693525,0.0,0.0,0.0
1623492374002769709,122,1623492374002769709,-0.019987209118660976,-0.013166718342747302,0.0007823422218542856,1.8096707572528846e-05,-5.3201416526850745e-05,0.00013351467525105903,0.9999999895079661,-0.002775032622334561,-0.00855620455931476,-0.0015347971316063518,0.0,0.0,0.0
1623492374102705240,123,1623492374102705240,-0.01958059487925406,-0.012930582750135686,0.0006852218533409083,1.636161047919517e-05,-4.660232067774955e-05,0.0001259543874039926,0.9999999908479986,-8.401269514146052e-05,-0.004092118463168573,-0.0011717734887886897,0.0,0.0,0.0
1623492374202705383,124,1623492374202705383,-0.018677006368006982,-0.013120499389362604,0.0006692811545348996,1.1770013949418258e-05,-3.817473399815628e-05,0.00018576562011931208,0.9999999819476371,0.0046869569965900994,-0.004234143836765702,-0.0003869430449509057,0.0,0.0,0.0
1623492374302782536,125,1623492374302782536,-0.01698913565068258,-0.012534792962769643,0.0007415993178569923,1.5629763071460114e-05,-3.648844355122254e-05,4.1775829497773535e-05,0.9999999983395341,0.009396009702320752,-7.316013649555711e-07,0.00016453360541633937,0.0,0.0,0.0
1623492374402791977,126,1623492374402791977,-0.018211630574561953,-0.01238094354361052,0.0007272938996856358,1.5519662670217692e-05,-4.244830805391419e-05,0.0001367284645043564,0.9999999896312961,0.000420286828424668,0.0015961649672573358,-0.0006594925937704111,0.0,0.0,0.0
1623492374502762556,127,1623492374502762556,-0.018681214808369484,-0.01122241490807474,0.0008077566294804525,1.793718124581972e-05,-3.0148326924764316e-05,-7.238951815534217e-06,0.9999999993584587,-0.002096222226453518,0.006370761471964137,-0.0001540003119194247,0.0,0.0,0.0
1623492374602745056,128,1623492374602745056,-0.01973308295665405,-0.011417144687699566,0.0005898240485763255,1.296232622591742e-05,-7.773949314213002e-05,0.00016240319130918283,0.9999999837068682,-0.0052180361501614776,0.0029697770230048062,-0.0019394828414718796,0.0,0.0,0.0
1623492374702759027,129,1623492374702759027,-0.020819152247287004,-0.01167000256492414,0.0005889803565344402,1.3245424506701082e-05,-5.352416077857842e-05,0.00013000447993363724,0.9999999900292716,-0.0073327011879586014,0.0011535067865609387,-0.0008029417518453982,0.0,0.0,0.0
1623492374802663088,130,1623492374802663088,-0.020824500089256844,-0.012840559452077006,0.0005947940789963427,1.3607783299786272e-05,-4.4795724724683735e-05,0.0001907206564489923,0.9999999807168936,-0.0035937932995598124,-0.004314725541879639,-0.00015251088308072613,0.0,0.0,0.0
1623492374902753115,131,1623492374902753115,-0.02018418850881634,-0.013071729619305725,0.0007899511709280518,1.9092209833611847e-05,-5.271009722696467e-05,0.00022058935887614276,0.9999999740987261,0.0009367474158390289,-0.003711722093495929,0.000671145998004377,0.0,0.0,0.0
1623492375002696753,132,1623492375002696753,-0.019531390570291324,-0.011135696105163328,0.0006630634425523909,1.155559863715768e-05,-4.093723191577385e-05,0.00020303828977033295,0.9999999784830244,0.0023008951513926353,0.005867445285150791,-0.0013414871803762575,0.0,0.0,0.0
1623492375102647305,133,1623492375102647305,-0.0194829295745682,-0.01211171940128154,0.0007255163548927138,1.4397340967010564e-05,-5.28410493931125e-05,0.00016891519414886274,0.9999999842340901,0.002360744894995564,-0.00030328748051720866,-0.0001199917349590762,0.0,0.0,0.0
1623492375202655554,134,1623492375202655554,-0.01860848601735459,-0.012459864726269733,0.0008448897669300387,1.5176142298125352e-05,-4.953663818551109e-05,0.00010531276145511876,0.9999999931125061,0.005115649909447486,-0.0016785231117989986,3.397214141409046e-05,0.0,0.0,0.0
1623492375302656651,135,1623492375302656651,-0.01799672588715915,-0.012184408498289315,0.0007593664788167836,2.3842810919893545e-05,-2.3800676252061096e-05,0.0002022962877654196,0.9999999789706215,0.005644346888084189,0.00041118448680244773,-0.0007093561600105924,0.0,0.0,0.0
1623492375402660370,136,1623492375402660370,-0.01641573642265224,-0.01143349879396393,0.0006635291318236343,2.106897856093364e-05,-2.8912407689441323e-05,9.625041286311435e-05,0.999999994728006,0.010078508754473284,0.003077485313882021,-0.0011445472295289927,0.0,0.0,0.0
1623492375502750635,137,1623492375502750635,-0.01747529241031827,-0.01196819893555021,0.000609255475738156,1.572476506317467e-05,-3.894274049090763e-05,0.00019205854705559713,0.9999999806748463,0.0024010315144645487,7.792166935074183e-05,-0.001702741534648929,0.0,0.0,0.0
1623492375602805138,138,1623492375602805138,-0.018083187772827535,-0.01199601572777916,0.0006241318943521627,1.1751059552300835e-05,-3.843181135114201e-05,0.00021511925232838046,0.9999999760543,-0.0009359797913119964,0.000554080088768789,-0.0012179389472826976,0.0,0.0,0.0
1623492375702859879,139,1623492375702859879,-0.019432161849414025,-0.01197180222228136,0.0007967289502937703,2.2601242156421562e-05,-3.095789714064155e-05,0.0001624189358401454,0.9999999860754328,-0.0063768056800526714,0.0009317022403674588,0.000299849966207038,0.0,0.0,0.0
1623492375802795887,140,1623492375802795887,-0.0176783465415321,-0.011342627382871846,0.0009061868427210159,2.6562531292369898e-05,-3.647226191535383e-05,4.8287134598315194e-05,0.9999999978162715,0.003884361394898227,0.0024021406447656095,0.0010861869798227649,0.0,0.0,0.0
1623492375902740717,141,1623492375902740717,-0.016682432705712832,-0.009701047448338817,0.0009795715066382529,1.2631888191135865e-05,-3.58515756085974e-05,0.00011980642158798595,0.9999999921007525,0.00630941644993642,0.008041940964350028,0.0007635354196932054,0.0,0.0,0.0
1623492376002667904,142,1623492376002667904,-0.015729394872072176,-0.011072753895428363,0.0008284943272646194,1.4571167936742151e-05,-4.0822480044440935e-05,0.00011100290102492959,0.9999999928997724,0.008614054875639168,-0.0016785018201248957,-0.0014148182614300501,0.0,0.0,0.0
1623492376102623940,143,1623492376102623940,-0.015720552668570097,-0.00908971370387769,0.0006922475379817564,1.498397717649915e-05,-3.881079811396452e-05,6.260939174764379e-05,0.9999999971746246,0.004242484442349089,0.008003792345177336,-0.002266265564109226,0.0,0.0,0.0
1623492376202626228,144,1623492376202626228,-0.015209756361546534,-0.008326943844137397,0.0005986261005618804,8.162604099428552e-06,-3.1893352607753984e-05,0.00011372907268187,0.9999999929909337,0.005016198632135152,0.008037609217082575,-0.0014134213041697436,0.0,0.0,0.0
1623492376302622795,145,1623492376302622795,-0.015469708209227688,-0.008781871178351641,0.00037597139989215114,2.8880159522756395e-05,-3.99132362186445e-05,-0.00027187664278363583,0.9999999618279719,0.002737284533867655,0.003377990782601698,-0.0019777337609300995,0.0,0.0,0.0
1623492376402609587,146,1623492376402609587,-0.015131158732415504,-0.008701599179308222,0.0006760428876032321,9.041506930966914e-06,-3.653522183101205e-05,9.383919427407281e-06,0.9999999992476784,0.0033425882555052273,0.0024956180870651674,0.0015994396031224706,0.0,0.0,0.0
1623492376502655268,147,1623492376502655268,-0.014303398609573864,-0.008063453713148039,0.0008657489639797047,1.236374150700001e-05,-4.2515799894039536e-05,8.766408434222779e-05,0.9999999951772696,0.005458627759264199,0.0037814541910329525,0.0017151194061659461,0.0,0.0,0.0
1623492376602718353,148,1623492376602718353,-0.014521771415805214,-0.008780470965773075,0.0007944902596073346,4.973978509894369e-06,-3.59187420413035e-05,-1.3803964386162104e-05,0.99999999924727,0.0028718999828794196,-0.0002587298762700982,-0.0008787086420200048,0.0,0.0,0.0
1623492376702755213,149,1623492376702755213,-0.015231708684648255,-0.010191431611361688,0.0008802183011389623,2.202872080002992e-05,-2.625980801287194e-05,0.00010976687160576202,0.9999999933881883,-0.0007650679423457404,-0.00568928743106223,0.0003449785316073827,0.0,0.0,0.0
1623492376802716970,150,1623492376802716970,-0.016175550108709764,-0.010391452887503037,0.0007809532606332779,2.348354247634483e-05,-2.5576860454248655e-05,0.00014737478294376538,0.9999999885375027,-0.0045929052778144585,-0.003655805225131114,-0.0008428481248865815,0.0,0.0,0.0
1623492376902683496,151,1623492376902683496,-0.017054409883411423,-0.0106760055938131,0.0006676031330825414,1.5114274816790707e-05,-4.266496917470653e-05,0.00013408333486852197,0.999999989986451,-0.006604688047156505,-0.00306495370237328,-0.0011276646716159636,0.0,0.0,0.0
1623492377002604723,152,1623492377002604723,-0.018386081261428554,-0.010324527407613367,0.000660680190335005,1.1741625253315702e-05,-5.1649867880677866e-05,8.042359532617739e-05,0.9999999953632269,-0.009348034339356558,-0.0004408022389709677,-0.0004966165254634082,0.0,0.0,0.0
1623492377102596521,153,1623492377102596521,-0.019671297753612774,-0.012707904704399323,0.00067221805054751,1.0903517126491292e-05,-5.156374265341618e-05,0.00018075649706196365,0.9999999822746823,-0.009508734013128208,-0.01032771721254034,-0.0011859839601157923,0.0,0.0,0.0
1623492377202617645,154,1623492377202617645,-0.01832519326871513,-0.010810365521157437,0.0007947868939531899,1.8379163101082903e-05,-3.967040666986883e-05,0.00020637208476588468,0.9999999777495047,-0.0005125908556823707,0.001089034141971099,-0.0004617893379884562,0.0,0.0,0.0
1623492377302634001,155,1623492377302634001,-0.017858255341544928,-0.011934218392066475,0.0006211164762525519,1.4129663331973896e-05,-4.473308785643602e-05,6.532708778320408e-05,0.9999999967658288,0.002543515917068215,-0.004740781935343263,-0.0009553773137458431,0.0,0.0,0.0
1623492377402685165,156,1623492377402685165,-0.018718818804802095,-0.011750741368114256,0.0007587711550455113,1.1961600941669247e-05,-4.787873373412662e-05,0.00035923322024069513,0.9999999342580095,-0.002327384662066102,-0.0012358081908890326,0.0010505246200476573,0.0,0.0,0.0
1623492377502722025,157,1623492377502722025,-0.019691798940372866,-0.012434003265773727,0.0008799982629229908,1.2232570082869297e-05,-5.560441592294651e-05,0.00015632589722632348,0.9999999861603548,-0.005470084153263633,-0.0029686010696562196,0.0007947718336461724,0.0,0.0,0.0
1623492377603080511,158,1623492377603080511,-0.01807989050643581,-0.011455102534338032,0.0008016792824796073,1.374225491380658e-05,-3.8865829545815714e-05,0.00011745723552348203,0.9999999922521889,0.003119963291700707,0.0013908135059864375,0.00018676355520583676,0.0,0.0,0.0
1623492377702600479,159,1623492377702600479,-0.017214602070157927,-0.011289824766883493,0.0008966611928484846,1.5984479682139083e-05,-5.4192035788894125e-05,0.00015320416915586138,0.9999999866680918,0.005799555876049321,0.001298966293741984,0.0006569795003919692,0.0,0.0,0.0
1623492377802625179,160,1623492377802625179,-0.017648816272413218,-0.011436212158807368,0.0006800023060062549,5.761512581288841e-06,-4.130422341187462e-05,0.0001007447023364241,0.9999999940556258,0.002143856133691768,0.00084690630126599,-0.0011279026750807472,0.0,0.0,0.0
1623492377902637720,161,1623492377902637720,-0.016687813757358727,-0.010852506712245141,0.0008125826511581011,1.1161644414140771e-05,-3.9586755932363e-05,9.531830143537381e-05,0.9999999946113546,0.005150886579294755,0.002645902809279674,0.000751965202388511,0.0,0.0,0.0
1623492378002639294,162,1623492378002639294,-0.017133784885552415,-0.011658872453256938,0.0009208521461306268,2.514073833190362e-05,-3.8149414464459515e-05,0.00014240159810279947,0.9999999888171665,0.0011289959572037067,-0.002038453971398415,0.0012489595238006556,0.0,0.0,0.0
1623492378102613211,163,1623492378102613211,-0.01760485357551927,-0.01163388916075741,0.000726712593275091,1.8432157107628935e-05,-5.18377024968107e-05,0.0002025050210898622,0.9999999779824033,-0.001326160109485412,-0.0004629544335313558,-0.0016817493360474236,0.0,0.0,0.0
1623492378202602625,164,1623492378202602625,-0.016270062770159792,-0.010834214431529486,0.0006490554097658504,4.173524157033476e-06,-4.6036837480425616e-05,0.00017865910323746015,0.999999982972049,0.004980092063340291,0.0026133655893686167,-0.0013195330773191044,0.0,0.0,0.0
1623492378302572012,165,1623492378302572012,-0.014876563764355696,-0.009091243524423644,0.000729209281738277,9.304941507851577e-06,-3.879574642495412e-05,9.247966312353057e-05,0.9999999949279009,0.0077904883801260235,0.008626705251767234,-9.234150097092719e-05,0.0,0.0,0.0
1623492378402507782,166,1623492378402507782,-0.01566849973092282,-0.009935924314270966,0.0008323990090793331,1.8104500217292312e-05,-2.8981498747024216e-05,0.00014652312160584057,0.9999999886816289,0.0019493912424350304,0.002361401847317232,0.0014131957763750223,0.0,0.0,0.0
1623492378502578497,167,1623492378502578497,-0.017508262123872124,-0.009095683314201764,0.0008944239452380379,1.746513527966034e-05,-1.6457801057969186e-05,0.00020539198328514712,0.9999999786191129,-0.006899168191204583,0.005931637093549522,0.0007667189233743098,0.0,0.0,0.0
1623492378602563381,168,1623492378602563381,-0.017566487206905325,-0.009053632752790407,0.0007034751927848306,7.246329574173552e-06,-4.068506256519446e-05,0.00024620136719749814,0.9999999688385428,-0.0039539341561617295,0.0032843516836119917,-0.0016654447268231148,0.0,0.0,0.0
1623492378702646732,169,1623492378702646732,-0.01769806829699313,-0.00861805677323829,0.0006693008740594812,1.3839337838106805e-05,-5.1493522931451826e-05,0.00016868051003706975,0.9999999843518789,-0.0023548566821112492,0.0037388903725993593,-0.0005237463259699116,0.0,0.0,0.0
1623492378802706003,170,1623492378802706003,-0.01714068491835757,-0.009444201887020415,0.0007474603821649305,1.2477550067826658e-05,-3.103533112379765e-05,0.00011488589692450485,0.9999999928411657,0.0015701939297397874,-0.001515662698751456,0.0002239459730460357,0.0,0.0,0.0
1623492378902610540,171,1623492378902610540,-0.01625592289813239,-0.010312143817207563,0.0006166780696149927,1.6307929527647414e-05,-3.884343199238359e-05,0.00018882410120063487,0.9999999812853398,0.004830043637755426,-0.004290459864717042,-0.00117946713336085,0.0,0.0,0.0
1623492379002554655,172,1623492379002554655,-0.0159313565545255,-0.010728164258904523,0.0007753551787608942,1.7306612171223828e-05,-2.0452080285282427e-05,0.0001721330775266129,0.9999999848261898,0.004354872952137416,-0.004262723625619197,0.0013073389451507403,0.0,0.0,0.0
1623492379102580070,173,1623492379102580070,-0.016490773824787888,-0.009393556775457258,0.0008069221709790432,1.652645242231116e-05,-4.231627823299958e-05,0.00024287538450222615,0.9999999694738688,0.00028283049994868355,0.003216452670273042,0.00022407562940948288,0.0,0.0,0.0
1623492379202600002,174,1623492379202600002,-0.015442774995357077,-0.009599039362413776,0.0008030098170320987,1.1383717862406628e-05,-4.706776974479854e-05,0.00010929741605974554,0.9999999928545464,0.0048020314075618705,0.0014281872671977102,-0.0007196228319534551,0.0,0.0,0.0
1623492379302598238,175,1623492379302598238,-0.015295325569917152,-0.010685526244481373,0.000776568783342825,1.4479805165043872e-05,-3.082048360581279e-05,0.0001392838703543963,0.9999999897202093,0.004733878573838498,-0.0029874045025305935,-0.0009735074326062774,0.0,0.0,0.0
1623492379402645588,176,1623492379402645588,-0.016001844645538877,-0.010459380626424973,0.0006739187789121259,9.888916294472574e-06,-3.152761486935185e-05,0.00011793565173801053,0.9999999924996914,-0.0002993112771929275,-0.0006721045847632714,-0.0008009406737087723,0.0,0.0,0.0
1623492379502682209,177,1623492379502682209,-0.015664895971748125,-0.00933549611394989,0.0007310363709339147,1.2677837747355154e-05,-3.372321690375066e-05,4.417686372566349e-05,0.999999998375202,0.0009695320645993973,0.004607606280435844,0.0007333218415712822,0.0,0.0,0.0
1623492379602623463,178,1623492379602623463,-0.015437924637777978,-0.009839812314874125,0.0008247140666754286,1.6135925873236058e-05,-2.7012048120608428e-05,0.00017739451313113095,0.9999999837705748,0.001966867856888724,0.0007651921387232773,0.000255914867610931,0.0,0.0,0.0
1623492379702606916,179,1623492379702606916,-0.014676801561831968,-0.00926698707052976,0.0007136879863263652,8.757594365688454e-06,-3.658557149283017e-05,0.00012841078796762005,0.9999999910477257,0.0041521973581503885,0.0027811317651589727,-0.001023044911398346,0.0,0.0,0.0
1623492379802530527,180,1623492379802530527,-0.013386152933301147,-0.00995031038295276,0.0006763870734249137,1.0001251546823862e-05,-3.495309552853346e-05,4.6144370371292945e-05,0.9999999982744671,0.007977230949978324,-0.0010622162967236686,-0.0007933154525090642,0.0,0.0,0.0
1623492379902519941,181,1623492379902519941,-0.014753957712993438,-0.010219243375766157,0.0006731234743243105,1.2222628486186368e-05,-2.9720201674621817e-05,0.00016554145427456773,0.9999999857816625,-0.0011589280466801676,-0.0015643700061748454,-0.0003498564828201307,0.0,0.0,0.0
1623492380002531052,182,1623492380002531052,-0.01603086357544686,-0.010135140522944099,0.0007126002977400896,9.123248983940879e-06,-3.522863372052685e-05,6.999108759209825e-05,0.9999999968884694,-0.006360329609295703,4.682806942822777e-05,7.02084865414716e-05,0.0,0.0,0.0
1623492380102418184,183,1623492380102418184,-0.01648417325622594,-0.010556494016056272,0.0007540761503742302,1.358734384426776e-05,-3.020403520380538e-05,8.426970115820905e-05,0.99999999590085,-0.005442540125834949,-0.002194619871799418,0.0004451591744169559,0.0,0.0,0.0
1623492380202466965,184,1623492380202466965,-0.01599277659663738,-0.010592510455093573,0.0007950091616656792,1.5387862014338613e-05,-2.9931627086262994e-05,-1.9283988415460663e-05,0.9999999992477113,-0.0008416964493936085,-0.0017183633097835945,0.000632276718422615,0.0,0.0,0.0
1623492380302512169,185,1623492380302512169,-0.016802572005321932,-0.009955842250806245,0.0006308772859385367,2.1477247520610763e-05,-3.298814419259358e-05,0.00016027418967105985,0.9999999863813381,-0.0037305970640247018,0.001772095027188243,-0.001130719037001955,0.0,0.0,0.0
1623492380402522087,186,1623492380402522087,-0.017024925744864278,-0.010120907720420768,0.0006482160923625927,1.4258802023022166e-05,-3.49304971472811e-05,8.902495308017398e-05,0.9999999953255432,-0.0024551349683707576,-0.0001420548023744585,-0.0008224985103223657,0.0,0.0,0.0
1623492380502572298,187,1623492380502572298,-0.016615879465396242,-0.009940170370247399,0.0005579364065015828,3.8470767343231774e-06,-2.5084513536397176e-05,0.00027981640685463403,0.9999999605293629,0.0008132295511713234,0.0008370897830815758,-0.0010024328411288295,0.0,0.0,0.0
1623492380602584362,188,1623492380602584362,-0.018583628101331382,-0.01032828226344017,0.0006858079122598511,1.3838236660719722e-05,-4.116552450036023e-05,5.662196786279094e-05,0.9999999974539183,-0.00796822202015799,-0.0004005377072141672,0.0007548445942102775,0.0,0.0,0.0
1623492380702590227,189,1623492380702590227,-0.018829224541026025,-0.011027050443377089,0.0007686901245828769,1.5825267437485377e-05,-3.8342288917157796e-05,0.00022880396668789984,0.9999999729640772,-0.004652922866484167,-0.003168014232718248,0.0005565082654945968,0.0,0.0,0.0
1623492380802528620,190,1623492380802528620,-0.017215454988844112,-0.010147742064483743,0.000663719613433731,5.19970557827173e-06,-4.622561067189052e-05,0.00011241075669644565,0.9999999925999785,0.004053858553452797,0.0005508261582949175,-0.0009518823615130783,0.0,0.0,0.0
1623492380902612209,191,1623492380902612209,-0.018518101354199075,-0.01040887094622191,0.0007237576680534489,1.127272584743909e-05,-4.711718000980747e-05,0.00011744321133823625,0.9999999919299839,-0.002751620223801406,-0.0004420773527150149,-0.00021528240341195577,0.0,0.0,0.0
1623492381005845785,192,1623492381005845785,-0.018688567023261698,-0.010384662914016195,0.0006542995601930954,1.3568346012781254e-05,-3.554151002886244e-05,0.0001501207097762808,0.9999999880082254,-0.0023868068959690797,-0.0005556458143787806,-0.0007054183591619403,0.0,0.0,0.0
1623492381102505445,193,1623492381102505445,-0.019053286461067503,-0.010837661240764471,0.0005990547997561125,1.4656068487781544e-05,-3.2559547584725106e-05,0.00021974732083889227,0.999999975218084,-0.0029797143432280355,-0.0020344844512401655,-0.0008001592566473926,0.0,0.0,0.0
1623492381202534199,194,1623492381202534199,-0.01788040185196324,-0.010220172354950709,0.0007683863916008991,1.6197781805938453e-05,-2.504331906269174e-05,0.00018402048837680245,0.999999982623451,0.0034089618485790493,0.0004120124398211528,0.0006737985402198018,0.0,0.0,0.0
1623492381302551985,195,1623492381302551985,-0.019104804374824,-0.011812585115825716,0.0009138650262425836,1.669989575475966e-05,-4.275369408429093e-05,9.382055781136035e-05,0.9999999945454583,-0.002490840549486633,-0.006211159487209037,0.000770203719120584,0.0,0.0,0.0
1623492381402534008,196,1623492381402534008,-0.018391860657753972,-0.012231454265165817,0.0007666672560359193,8.93914234102312e-06,-5.6352128724855575e-05,5.87573270655592e-05,0.9999999966460418,0.0016306919561223524,-0.005732285180179581,-0.0013906024557603666,0.0,0.0,0.0
1623492381502503872,197,1623492381502503872,-0.017838813984335854,-0.011793685052689266,0.0007000315922503025,1.544981429502542e-05,-4.6227057116322166e-05,0.00012184819407266154,0.9999999913886788,0.002662885782773535,-0.0009175160828193089,-0.0008236537951478375,0.0,0.0,0.0
1623492381602502584,198,1623492381602502584,-0.017163517191466058,-0.011731144463371099,0.0007653530909271188,2.5423758396738375e-05,-3.7382739352560975e-05,9.038481558085508e-05,0.9999999948933628,0.0043442755823900215,-0.0003417721502916851,-1.3495022017625874e-05,0.0,0.0,0.0
1623492381702504635,199,1623492381702504635,-0.017726493854102143,-0.010320084528627904,0.0006557480732241164,7.976819109005447e-06,-3.725251592891497e-05,0.00016047304455073407,0.9999999863985001,-0.0005337791764113559,0.006047110336762835,-0.0009325504128162444,0.0,0.0,0.0
1623492381802521706,200,1623492381802521706,-0.016666503221191276,-0.009809107690892655,0.0005722549556984166,1.1260339696072343e-05,-5.089108603810829e-05,9.495794168646934e-05,0.9999999941331351,0.004331904815384196,0.005029468948882666,-0.0013690540253593771,0.0,0.0,0.0
1623492381902453899,201,1623492381902453899,-0.016416932799094137,-0.00973570989788553,0.0006465869322844213,1.5870259766762268e-05,-3.858778437141352e-05,0.0001167131999732559,0.9999999923185631,0.00399184922145126,0.0033096759537436004,-0.0003242621102131617,0.0,0.0,0.0
1623492382002452850,202,1623492382002452850,-0.01625692047799377,-0.010353130955949709,0.0008171612366981234,1.3688077780387516e-05,-3.432341614082754e-05,0.0001550296932701687,0.9999999873001568,0.003592017954915073,-0.0006479317214344569,0.0007569313804651359,0.0,0.0,0.0
1623492382102503300,203,1623492382102503300,-0.016809864626208003,-0.012158796818268798,0.0008234727179073528,1.8747095269716963e-05,-3.948413532225894e-05,0.0001727854220392376,0.9999999841173636,0.0006658874110812528,-0.00716241247685827,0.0007249959999149648,0.0,0.0,0.0
1623492382202496767,204,1623492382202496767,-0.01775483917816583,-0.011471470835753577,0.000767542974569974,1.5726015975227958e-05,-3.537235946777798e-05,0.00013811438618193232,0.9999999897129423,-0.004401111070675065,-0.00041886227568108635,-0.00041845894899992,0.0,0.0,0.0
1623492382302539587,205,1623492382302539587,-0.016788833511479407,-0.010971093364623217,0.0007448064334398101,1.824374070502825e-05,-4.0265024244641005e-05,0.00021354142534616975,0.9999999762229662,0.001634403683625156,0.001147700748643575,-0.00017797480914317167,0.0,0.0,0.0
1623492382402550697,206,1623492382402550697,-0.016670207397475996,-0.011716142101443177,0.0008426628391486887,2.132214198333535e-05,-4.376060585239154e-05,0.00021523666187873015,0.9999999756517668,0.002317944054460187,-0.0018278077994173321,0.0007735180778694523,0.0,0.0,0.0
1623492382502546310,207,1623492382502546310,-0.017360613353579076,-0.011670634083275995,0.0009500654020753089,2.0296844176839333e-05,-2.926888657000053e-05,9.077143377085317e-05,0.9999999952459475,-0.0011531587601051898,-0.0006280531610049235,0.0009604221592705514,0.0,0.0,0.0
1623492382602503777,208,1623492382602503777,-0.02036487156415607,-0.01311100136889613,0.000814999062417141,1.6151604369332366e-05,-3.837486612646657e-05,0.00023149607199623518,0.9999999723380204,-0.012695880841463524,-0.004953592499707059,-0.0012399209414671632,0.0,0.0,0.0
1623492382702851295,209,1623492382702851295,-0.01936951163559552,-0.012516680723790816,0.0007386991869987661,1.9778256742165887e-05,-4.0744192774178024e-05,0.0002256248299202682,0.999999973521072,-0.0036596134479090353,-0.0007308768265988129,-0.0010273465233217728,0.0,0.0,0.0
1623492382802352428,210,1623492382802352428,-0.01873020678026261,-0.012207814505093121,0.0006441359300472869,1.2589947814546675e-05,-3.4572988603829835e-05,0.00027397787153398155,0.9999999617911515,0.0007321413990898518,0.0009761512245949136,-0.0011707018916206622,0.0,0.0,0.0
1623492382902289867,211,1623492382902289867,-0.018439092281041732,-0.01241358806961753,0.0007045327583964337,9.433733082196805e-06,-4.970964420824818e-05,0.00017751710667681867,0.9999999829638045,0.002130814852567967,-0.000124656422418085,0.00023246362762082535,0.0,0.0,0.0
1623492383002355576,212,1623492383002355576,-0.018359450064024528,-0.012459714113733329,0.0006815106028422742,1.5639107767137977e-05,-4.409141294077643e-05,9.225558723294388e-05,0.9999999946501246,0.0013626003347531818,-0.0003809115228577603,-0.000692574595254413,0.0,0.0,0.0
1623492383102473974,213,1623492383102473974,-0.0183853834139188,-0.0137512762250558,0.0005694252077918877,1.2615651463374322e-05,-4.300867061874284e-05,0.00025462071192519013,0.9999999665796836,0.0008848902531598375,-0.005864718051686055,-0.0008766479032597058,0.0,0.0,0.0
1623492383202641010,214,1623492383202641010,-0.01966129049979276,-0.013857897010335355,0.000753015912079785,2.43846878065359e-05,-4.8909592204324596e-05,0.00020601063656452084,0.9999999772864159,-0.004636862125496377,-0.003209803877095476,0.0012585093842130408,0.0,0.0,0.0
1623492383302505732,215,1623492383302505732,-0.01891989976530476,-0.013400676204639524,0.0007716202466419985,2.7548189887737354e-05,-4.8283945183393404e-05,0.0001582799724942588,0.9999999859285924,-0.00013501773113349085,-0.000683740237461141,1.434808843274178e-05,0.0,0.0,0.0
