%time,field.header.seq,field.header.stamp,field.pose.pose.position.x,field.pose.pose.position.y,field.pose.pose.position.z,field.pose.pose.orientation.x,field.pose.pose.orientation.y,field.pose.pose.orientation.z,field.pose.pose.orientation.w,field.twist.twist.linear.x,field.twist.twist.linear.y,field.twist.twist.linear.z,field.twist.twist.angular.x,field.twist.twist.angular.y,field.twist.twist.angular.z
1609046842170625925,0,1609046842170625925,0.0014113446928185154,0.000215421996513238,0.00039144645205136096,-0.00013841585290023947,-3.4399777003528745e-05,7.669995465347248e-05,0.9999999868874115,0.0016954828013677815,-0.00046816570654646385,-0.0006681646462539928,0.0,0.0,0.0
1609046842270628691,1,1609046842270628691,-0.0020876366728350545,0.003310720595315779,0.001008689014549192,-0.0001927578877070314,-3.554085308325596e-05,-9.207239148826601e-05,0.9999999765519583,-0.03436932628182911,0.033751644277821166,0.00612601795646065,0.0,0.0,0.0
1609046842370589733,2,1609046842370589733,-0.003998796618776449,0.002334728181624254,0.001743858117868814,-6.284948871529959e-05,5.3111456836177963e-05,3.7823589389535014e-05,0.9999999958992439,-0.02455023883624792,0.0063758769703348706,0.006189031026487853,0.0,0.0,0.0
1609046842470580339,3,1609046842470580339,-0.0047242067927641684,0.0022008971502995136,0.0015682139615919774,-0.00011612177754881899,-1.3016412530238059e-05,-8.555687226989753e-05,0.9999999895131617,-0.015163694515376617,0.0018550686769457834,0.0016182255412315015,0.0,0.0,0.0
1609046842570514679,4,1609046842570514679,-0.0055281798692630325,0.001962685542645726,0.0016530956302612963,-0.00012416835382566903,-2.063012367866862e-05,-0.00013079584267182922,0.9999999835245306,-0.010308190731568322,-0.0009902418652866416,-0.0003015680695568694,0.0,0.0,0.0
1609046842670444489,5,1609046842670444489,-0.005478999941555794,0.0009211252079450209,0.001292937220267746,-0.0001445963972678289,-3.965492508230934e-05,-2.2698458748745173e-05,0.9999999885020725,-0.0031427524124260026,-0.006980974367176745,-0.0033545363902575186,0.0,0.0,0.0
1609046842770460367,6,1609046842770460367,-0.005704503611714908,0.0007022602839208252,0.002074482181781913,-3.3839155007313895e-05,8.087888303102752e-05,-9.151318574916967e-05,0.9999999919694254,-0.0005977661012490057,-0.004029763203413354,0.00294019646128787,0.0,0.0,0.0
1609046842870565653,7,1609046842870565653,-0.006668752635839734,0.0004807722327373067,0.0018121015956258577,-7.611571557112182e-05,1.5458072225306761e-06,-4.023416147895874e-05,0.9999999962926075,-0.0029998346497018364,-0.0020018079623952707,-0.00048619694230902675,0.0,0.0,0.0
1609046842970623255,8,1609046842970623255,-0.006838443683429601,0.0011810035917650412,0.00143474367595248,-0.00012146263684893738,-2.2170397447791756e-05,-7.08404326137549e-05,0.9999999898684644,-0.001074887066461214,0.0035887786835380317,-0.0032145746483994665,0.0,0.0,0.0
1609046843070588112,9,1609046843070588112,-0.007512716472491662,0.0007446729768259706,0.0013673107261974137,-7.70793952494458e-05,-1.3738253801241502e-05,-0.00012015022881555917,0.9999999897169718,-0.002164180483346501,6.417289628185465e-05,-0.0021503403463709317,0.0,0.0,0.0
1609046843170506954,10,1609046843170506954,-0.007713324607469032,-0.0003427023276254672,0.0013457281763184132,-8.698094508513436e-05,8.280155129609463e-07,-2.0563961914157383e-05,0.9999999960053735,-0.0007590697350869078,-0.005544632116125479,-0.0013782393651241478,0.0,0.0,0.0
1609046843270449162,11,1609046843270449162,-0.006306951440078773,-0.0006586626085840867,0.001415308615126352,-0.0001098137199182273,-4.743749878876298e-06,-5.702305656771191e-05,0.9999999923334042,0.007442429990820288,-0.0034212866430852963,-0.000861301668522925,0.0,0.0,0.0
1609046843370527983,12,1609046843370527983,-0.008617293671634099,-0.000932932645088984,0.0013191469286257878,-7.234495675272042e-05,8.173111235282051e-06,-7.49927261160631e-05,0.9999999945377454,-0.004317277161456029,-0.001818967289213383,-0.000909182093523704,0.0,0.0,0.0
1609046843470550537,13,1609046843470550537,-0.008604529955821262,-0.0008314648104960133,0.0015875036706653307,-6.232079076025547e-05,1.2696607988003296e-05,-6.226789344095752e-05,0.9999999960388082,-0.0016946014889765463,0.000992992612157094,0.0007053286878922606,0.0,0.0,0.0
1609046843570543766,14,1609046843570543766,-0.007026409975885828,-0.00021178697143554664,0.001494061184351199,-5.929207038796761e-05,1.0303626353488245e-05,-6.285072747598188e-05,0.9999999962140314,0.006910255788550996,0.00541110575838333,-0.0007831699594640073,0.0,0.0,0.0
1609046843670594454,15,1609046843670594454,-0.007745995997298702,-0.0004032239090997723,0.0015002258828107269,-7.019668134247456e-05,3.830488070859065e-06,-3.9996680912004455e-05,0.9999999967290047,0.002192573229255209,0.0023976534522443865,-0.0008471355202191666,0.0,0.0,0.0
1609046843770585299,16,1609046843770585299,-0.007030923693560612,-9.784820261679483e-05,0.0015447420834001973,-6.423463355297336e-05,2.0521154262494928e-05,-5.785763445639488e-05,0.9999999960526395,0.005422703495022696,0.004355483185698316,-0.00018548241557192447,0.0,0.0,0.0
1609046843870553732,17,1609046843870553732,-0.007210503222782159,-0.0007484460338491265,0.0016212486680165943,-6.204761306708044e-05,3.5635203179941174e-06,-9.460948118892562e-05,0.9999999935932155,0.0033966799526116863,-0.0010429232975367499,0.00011860169264288448,0.0,0.0,0.0
1609046843970560551,18,1609046843970560551,-0.006632799055664893,-0.0005099721777779577,0.0016159945415556236,-3.701635442207289e-05,8.962408058839043e-06,-4.109474697102354e-05,0.9999999984303377,0.005739281933719656,0.0016587169046912978,-0.0005709099337857079,0.0,0.0,0.0
1609046844070548534,19,1609046844070548534,-0.007094502023264811,-0.0013666226534297713,0.0015403478430925303,-4.9915130882335716e-05,1.1221126008041136e-05,-8.006769795042298e-05,0.9999999954858595,0.0022196459697420186,-0.003453000575207651,-0.00024472211934220805,0.0,0.0,0.0
1609046844170505524,20,1609046844170505524,-0.005668677993072952,-0.0022160751403550276,0.0015378742058993714,-6.084941536158863e-05,5.516650911217957e-06,-4.644997457698816e-05,0.9999999970546523,0.0086123323525126,-0.004597758374202189,-0.0002746793072561673,0.0,0.0,0.0
1609046844270577431,21,1609046844270577431,-0.006788887801867198,-0.0012287930959563958,0.0016809207950603494,-0.00010229254701159299,2.4214775632643485e-06,-5.847167255836404e-05,0.999999993055711,0.0016268881736777544,0.005165254569135574,0.0010232162655672069,0.0,0.0,0.0
1609046844370578051,22,1609046844370578051,-0.005894909229079663,-0.0001900755910553969,0.00170560727332692,-5.5205621251735356e-05,-5.016583169208306e-06,-8.612621618271548e-05,0.9999999947547171,0.0056974383440255415,0.009322908114539407,0.0002479969796655889,0.0,0.0,0.0
1609046844470557928,23,1609046844470557928,-0.005994358826515499,-0.001026595138788938,0.0018315917015493928,-5.283507515066616e-05,7.766880641286192e-06,-5.58850933573729e-05,0.9999999970124858,0.0030540447428729976,0.000951183165230244,0.00021849299453665684,0.0,0.0,0.0
1609046844570569038,24,1609046844570569038,-0.006324125933596679,-0.0012521217580897855,0.0015174209436827452,-4.649727986580175e-05,2.2578434440107313e-06,-1.160097605910123e-05,0.9999999988491532,0.0013563023803313868,0.00016597050497935102,-0.0022659035325273734,0.0,0.0,0.0
1609046844670572758,25,1609046844670572758,-0.0065282063441617615,-0.0007258769721588174,0.0013477014379689302,-4.595662509453021e-05,8.402746963114704e-06,-4.1369655444594646e-05,0.9999999980529591,0.0007163574250667131,0.004245987079689553,-0.0022781159402758726,0.0,0.0,0.0
1609046844770580769,26,1609046844770580769,-0.006646270476646797,-0.0012692915200064989,0.0014693741590550767,-7.48583310029928e-05,-7.521402138721484e-06,-5.892230646630976e-05,0.9999999954339018,0.0006295220810459331,0.00019833670224591584,-0.0003830451758336556,0.0,0.0,0.0
1609046844870580673,27,1609046844870580673,-0.006931997156456678,-0.0015511750104343959,0.0017069553549322774,-2.1036090859129983e-05,2.342115247628506e-05,-3.61143093304436e-05,0.9999999988523361,-0.00011607074184669412,-0.0005253309637675975,0.000886548846677744,0.0,0.0,0.0
1609046844970585346,28,1609046844970585346,-0.006516817465681811,-0.001836245644165107,0.0017977892203398125,-5.423180062376438e-05,4.756089745840496e-06,-8.434362692087792e-05,0.9999999949612134,0.0021427803524859713,-0.0008065667276083985,0.0004047966638257434,0.0,0.0,0.0
1609046845070501804,29,1609046845070501804,-0.005170705795844591,-0.002073325430794038,0.0017536345491243656,-5.491796532758445e-05,2.767707256818791e-05,-2.0018383877893303e-05,0.9999999979086216,0.007775916734910759,-0.0002323917678412052,-0.0005083869666247718,0.0,0.0,0.0
1609046845170489550,30,1609046845170489550,-0.007375206897301973,-0.0020169119437608656,0.0017423482999064223,-5.284396870564055e-05,1.0523588834165693e-05,-6.797685470798008e-05,0.9999999962379492,-0.0036625617208158982,0.0007306723648540722,6.416664547851129e-06,0.0,0.0,0.0
1609046845270539522,31,1609046845270539522,-0.006677438517973737,-0.002904766170639725,0.0015208043596923063,-8.672780748376998e-05,-2.4027397219675235e-05,3.9836883218123965e-05,0.9999999951569879,0.000739434033909895,-0.0028822928357759513,-0.0006493486465052655,0.0,0.0,0.0
1609046845370550394,32,1609046845370550394,-0.005606657178561284,-0.0011819303399009727,0.0016541736307901483,-2.1646993986554397e-05,1.6928666098064402e-05,-3.740516039545214e-05,0.9999999989228319,0.006054315553043717,0.009241137377232067,0.0008730103813353928,0.0,0.0,0.0
1609046845470626593,33,1609046845470626593,-0.006142685735063128,-0.00017361022821060293,0.001772897107719767,-5.3371224416086626e-05,3.129312872197844e-05,8.32825201939045e-06,0.9999999980514367,0.001993055022654057,0.01056777905663594,0.0013019905401025764,0.0,0.0,0.0
1609046845570596933,34,1609046845570596933,-0.005897065194145508,-0.00066934592287267,0.0021028179377480935,-6.935333674783768e-05,2.0983529110935654e-05,-4.231141169356371e-05,0.9999999964797652,0.0023836674903685486,0.0041845696110276755,0.002415206335883455,0.0,0.0,0.0
1609046845670600653,35,1609046845670600653,-0.0052512504758546324,-0.0004682882829792576,0.002033802645404589,-4.569073462295447e-05,4.568052227129288e-05,-2.6722299003125698e-05,0.9999999975557727,0.005036868508873221,0.0047253332159487805,0.00011882541671496757,0.0,0.0,0.0
1609046845770523310,36,1609046845770523310,-0.007211047761086607,-0.0005900199234462743,0.0017333354278187532,-5.306936088319121e-05,1.4297773579157035e-05,-6.0255863851626975e-05,0.9999999966742142,-0.004930994394117096,0.002219749721332199,-0.0018014823581231653,0.0,0.0,0.0
1609046845870498896,37,1609046845870498896,-0.008332116136422011,-0.0008058855066324579,0.001604003721963754,-6.45208373027557e-05,1.4184834797196605e-06,-4.776387028952235e-05,0.9999999967768213,-0.006602779399637556,0.0013535425864175375,-0.0012448746199935118,0.0,0.0,0.0
1609046845970499039,38,1609046845970499039,-0.007044567838074924,-0.001799789175752172,0.0014894430413413481,-7.685734166973229e-05,3.1625162477990345e-06,-5.070584278925479e-05,0.9999999957559231,0.0017562530454092217,-0.003046001471115589,-0.0019587564905789896,0.0,0.0,0.0
1609046846070474625,39,1609046846070474625,-0.007124142419015011,-0.000777735697971828,0.0012594153018592631,-6.20068944738844e-05,2.1231961701696714e-06,-2.832775870503669e-05,0.9999999976740784,0.0010592018095598138,0.005033553473222733,-0.0023885355187788057,0.0,0.0,0.0
1609046846170834064,40,1609046846170834064,-0.007792779454524015,-0.0007490478757709583,0.0016546411000554686,-5.881193599183075e-05,1.0792690660384757e-05,-6.023696704199729e-05,0.9999999963980817,-0.0017079077687709792,0.003994118948259283,0.0006974355245220262,0.0,0.0,0.0
1609046846270554304,41,1609046846270554304,-0.007550304620886196,-0.0008711125454609324,0.0016143781240724082,-7.503530086450257e-05,-9.695469767814625e-06,-2.218427309656226e-05,0.99999999689177,0.0003080214770894306,0.003176912488635237,-0.00010403533049731749,0.0,0.0,0.0
1609046846370622873,42,1609046846370622873,-0.007832618670314984,-0.0014240795595204599,0.002090612272903929,-7.579325092676527e-06,5.875524627685191e-05,-1.084195602402461e-06,0.99999999824459,-0.0006749845480351639,2.4874059306529122e-05,0.0028068362887483603,0.0,0.0,0.0
1609046846470627546,43,1609046846470627546,-0.007946069867019073,-0.0007424232699333556,0.0022840923745908533,-7.728665349089522e-06,6.836951155482049e-05,-0.0001078435955553138,0.999999991817808,-0.0003292703587275247,0.004419657552500051,0.0016071379940699113,0.0,0.0,0.0
1609046846570623159,44,1609046846570623159,-0.00874459237108389,-0.00022266735738309403,0.0021111733203635387,-6.473977183924419e-05,2.4731171600390677e-05,-6.627469865115087e-05,0.9999999954023872,-0.003279795981039605,0.006072167719550513,-0.0007546693303977429,0.0,0.0,0.0
1609046846670645237,45,1609046846670645237,-0.00793054721154571,-0.00035925943503829083,0.0016565638499775365,-6.865050078494625e-05,8.506711962441254e-06,-8.544152892544375e-05,0.9999999939572343,0.0014816246014410033,0.003269838541868003,-0.0038394636788211855,0.0,0.0,0.0
1609046846771064997,46,1609046846771064997,-0.00718407016533027,-0.0009504162628877681,0.0013857632806269,-7.37062715769345e-05,5.214656094238046e-06,-6.395291631732218e-05,0.9999999952250979,0.004488523102311055,-0.0003890171922630377,-0.0033173245702763977,0.0,0.0,0.0
1609046846870593309,47,1609046846870593309,-0.00904738874997254,-0.0005619078443298913,0.0013725636002922773,-8.179458629726516e-05,-2.052290778079142e-06,-5.553592278698879e-05,0.9999999951105863,-0.00478111366153463,0.003268597163674308,-0.001866264618058528,0.0,0.0,0.0
1609046846970551491,48,1609046846970551491,-0.009402975138830752,-0.0010991663291416516,0.00154263527211825,-4.939409152032825e-05,2.74925036095576e-07,-2.297076136605176e-05,0.9999999985162342,-0.004080297409377616,0.0009048846019119217,0.0009410044578041698,0.0,0.0,0.0
1609046847070536852,49,1609046847070536852,-0.009144880949981648,-0.0009018065434220797,0.0017426499724456377,-8.041907090387414e-05,-1.0911080253237889e-05,-7.395451506368852e-05,0.9999999939722127,-0.0010696780469663025,0.0031246623721784073,0.0011608069727059504,0.0,0.0,0.0
1609046847170560122,50,1609046847170560122,-0.009792413440303172,-0.0012344271296688425,0.001678186301350409,-4.587315572704509e-05,4.2272606051034144e-05,-0.00011502187682400377,0.9999999914393104,-0.0030004620558823593,0.001330827016809233,0.00038790846104125114,0.0,0.0,0.0
1609046847270575762,51,1609046847270575762,-0.009298774057151458,-0.0006026069928520303,0.0015558296186932,-7.269251788221415e-05,-1.9566632404947912e-06,-4.3104061302307244e-05,0.9999999964269908,0.0002185310963911803,0.005530059674631247,-0.0010651365180833552,0.0,0.0,0.0
1609046847370585442,52,1609046847370585442,-0.009084111815106684,-0.0011557101157224224,0.001748067192737308,-6.405574895184332e-05,7.839672824557796e-06,-1.6179662488016087e-05,0.9999999977867958,0.001287788201051309,0.0011288509354904714,0.00026911578768614515,0.0,0.0,0.0
1609046847470521688,53,1609046847470521688,-0.008661607496055473,-0.0014597601112832925,0.0016748631482778379,-6.750424553421803e-05,1.518397005133159e-05,-4.226065751128378e-06,0.9999999975973681,0.002949381112477975,1.8369232725700107e-05,-0.0010656326850948753,0.0,0.0,0.0
1609046847570483208,54,1609046847570483208,-0.00714045698734934,-0.0021365796542589404,0.0018186015806589588,-5.599760501610401e-05,1.6492960774526907e-05,-9.33234624983104e-05,0.9999999939414767,0.00827963892935402,-0.0027051000214142066,1.6280308094555754e-05,0.0,0.0,0.0
1609046847670584202,55,1609046847670584202,-0.006148818784370177,-0.002089647153182247,0.001776717083801093,-8.005695473500787e-05,6.164948697964534e-06,-3.365745895288719e-05,0.9999999962100118,0.009350815058613663,-1.1432419507266187e-05,-0.0006231844097669463,0.0,0.0,0.0
1609046847770577669,56,1609046847770577669,-0.006168453810973496,-0.0021118230181326795,0.0017680696813338248,-7.099439748581769e-05,1.3716739529447383e-05,-1.3134124511117494e-05,0.9999999972995559,0.005927422450212086,0.001610845638564863,-0.00029165919009439475,0.0,0.0,0.0
1609046847870214224,57,1609046847870214224,-0.006872725723571618,-0.00153145039523298,0.0018187159695193759,-6.557518243669007e-05,1.1631499867139022e-05,-1.5962205147649137e-05,0.9999999976548906,0.0015241601010274799,0.005587614968358913,3.298211750547462e-05,0.0,0.0,0.0
1609046847970488787,58,1609046847970488787,-0.0051502411324073965,-0.0013010446690070341,0.0019115859611219292,-4.9600677738565396e-05,4.433728879169564e-05,-7.576863561607455e-05,0.9999999949165298,0.007976307840287106,0.005946940876992815,0.000391064592998462,0.0,0.0,0.0
1609046848070542097,59,1609046848070542097,-0.004918950711539342,-0.0003366116322228279,0.002012420859054417,-6.25641819401861e-05,3.5206149227822526e-06,-5.044283587521898e-06,0.9999999980239259,0.005633138650188893,0.010049229396215973,0.0010978595014075492,0.0,0.0,0.0
1609046848170530081,60,1609046848170530081,-0.005664539823828276,-0.00015310190966222266,0.0018354712788988489,-7.880157838634048e-05,2.2655445215058224e-06,-7.290050218995978e-05,0.9999999942353315,0.0008564571087665528,0.006861707413743949,-0.001522145747402461,0.0,0.0,0.0
1609046848270571470,61,1609046848270571470,-0.006087611813961058,-0.000863813430967167,0.0018149384304326562,-4.332969017652475e-05,1.2156300453082974e-05,-2.8627674191358068e-05,0.9999999985775935,-0.0010473543591842866,0.0007035654613061736,-0.0011539360320245561,0.0,0.0,0.0
1609046848370565414,62,1609046848370565414,-0.006037288813366715,-0.0015707765846714968,0.0016671256827231356,-5.558066181194304e-05,4.13388819145075e-06,-4.401629832925026e-05,0.9999999974781172,0.000316109002304284,-0.002541961059710569,-0.002067101269686961,0.0,0.0,0.0
1609046848470528841,63,1609046848470528841,-0.008005428877943584,-0.002301009033210072,0.001453247332352048,-7.050564443419248e-05,1.8819373755334104e-06,-2.8440971835228847e-05,0.9999999971082454,-0.007485383237827215,-0.003325329347605029,-0.001730075592568311,0.0,0.0,0.0
1609046848570476055,64,1609046848570476055,-0.007802034625349901,-0.003645030951240264,0.0016767780670564412,-6.252742546910917e-05,1.610261938135666e-05,2.0255536483306945e-05,0.9999999977103532,-0.0031218689505487147,-0.007721934007012807,0.00025136491830740496,0.0,0.0,0.0
1609046848670509338,65,1609046848670509338,-0.00795100854845707,-0.0024717950836511526,0.001633448997458431,-5.915340521174277e-05,1.4497310440466372e-05,-6.279056087476013e-05,0.9999999961740071,-0.001902612640727492,0.0033394991933187474,-0.0005332214313574307,0.0,0.0,0.0
1609046848770555735,66,1609046848770555735,-0.007133052282528825,-0.0022951611894171053,0.0014833181003178987,-7.797558834356764e-05,-1.5061891339360727e-05,4.734439107662826e-05,0.9999999957257107,0.0025575294309641465,0.004254747199285308,-0.0010307034463840048,0.0,0.0,0.0
1609046848870523930,67,1609046848870523930,-0.007109854124576892,-0.001932961307983893,0.0015977670196853692,-6.585083706739728e-05,-7.818579211606537e-07,1.1182476898304134e-05,0.9999999977689865,0.0016584566143738291,0.005456814272677862,0.0006330117206045548,0.0,0.0,0.0
1609046848970534325,68,1609046848970534325,-0.005883475798503606,-0.0015145017620222996,0.0015529616456304498,-6.416290776155782e-05,7.862981188134646e-06,1.552136029511972e-05,0.9999999977901737,0.006371096429245471,0.006057080803210539,0.00038686655048072766,0.0,0.0,0.0
1609046849070492029,69,1609046849070492029,-0.004950113525580486,-0.0011570127599019192,0.0017709406534266606,-6.753206206869958e-05,1.8027405565338547e-05,-2.2727457768019455e-05,0.9999999972989311,0.007848619921736738,0.006304505200426696,0.0015765067814021163,0.0,0.0,0.0
1609046849170568943,70,1609046849170568943,-0.003519955053777998,-0.0019008168711616006,0.001983114818323966,-5.6689211939238605e-05,1.3673651634424737e-05,9.250682278385257e-06,0.9999999982568775,0.010552254962111794,0.0004293616272151527,0.0013439649265735614,0.0,0.0,0.0
1609046849270565510,71,1609046849270565510,-0.004899954833045379,-0.0016707933149921281,0.0017275187389433385,-8.187484451265436e-05,6.328768609886929e-06,-3.3259541311885874e-06,0.9999999966226799,0.001494021490140364,0.002652594799687739,-0.0012504504136763826,0.0,0.0,0.0
1609046849370511770,72,1609046849370511770,-0.005607620150840046,-0.001567210255928152,0.0016747409641151316,-7.24772619058416e-05,1.8767792268940193e-05,2.0112058845267058e-05,0.9999999969951432,-0.0017923983461534192,0.003579664211620795,-0.0012403348803595895,0.0,0.0,0.0
1609046849470542669,73,1609046849470542669,-0.006329726326075806,-0.0018191544236782228,0.0015625951897520712,-8.056779182184537e-05,4.658304056284157e-06,3.970525034478273e-05,0.9999999959552949,-0.003869508356604547,0.001434831306130461,-0.0014598555718775045,0.0,0.0,0.0
1609046849570496082,74,1609046849570496082,-0.006871348858620932,-0.0020878043346962603,0.0016842240014317586,-6.848647202130855e-05,1.9428457364665977e-05,-1.222945934354516e-05,0.9999999973912724,-0.004433290958029025,-0.00025920704362135773,-0.0001364867501677143,0.0,0.0,0.0
1609046849670561075,75,1609046849670561075,-0.008450600655736717,-0.0016890090925075838,0.001538769001740962,-8.192968966696753e-05,2.106738242687572e-07,-8.189025133442674e-06,0.9999999966101932,-0.008351391522159381,0.003398485758594825,-0.0009511257957087302,0.0,0.0,0.0
1609046849770547867,76,1609046849770547867,-0.008515538492716133,-0.0012707057513986612,0.0014609359503326936,-8.532589254764662e-05,1.9218986034753865e-06,2.67482882705784e-07,0.9999999963578462,-0.004697338038022024,0.0050291888210571315,-0.0012030692125446748,0.0,0.0,0.0
1609046849870563745,77,1609046849870563745,-0.0071029012257840625,-0.001314084681022449,0.0016639429701513558,-5.125924728153799e-05,2.376095820431013e-05,-3.591432159059259e-05,0.9999999977590165,0.0034290899421680343,0.0031366937845108194,0.00021339080535299972,0.0,0.0,0.0
1609046849970584393,78,1609046849970584393,-0.00609757422117098,-0.0023600060524604253,0.001762025118216765,-5.766086179848506e-05,9.214296064515564e-06,1.817556195774252e-05,0.9999999981299682,0.006637579523936235,-0.00295547742966073,0.0008539245562313505,0.0,0.0,0.0
1609046850070511103,79,1609046850070511103,-0.0066575178804643975,-0.0026839883518133124,0.0016414949453251576,-6.033264741182285e-05,1.1577890152655995e-05,-4.97616253124689e-06,0.9999999981005635,0.0021238364702521736,-0.0019644402805061353,-0.00028396777490574134,0.0,0.0,0.0
1609046850170525312,80,1609046850170525312,-0.0070378263721764065,-0.002200409482331766,0.001741298764217265,-5.634007134956597e-05,2.5335465891783537e-05,-2.0122257654417012e-05,0.9999999978894847,0.0003439791681345795,0.0025392413315149364,0.0010641759656472495,0.0,0.0,0.0
1609046850270617247,81,1609046850270617247,-0.007392400505713561,-0.0020215479366147227,0.0018357572205720933,-7.630852720244559e-05,1.217649215912041e-05,1.1128681742884307e-05,0.9999999969524292,-0.0009322144498708629,0.0029765773105065734,0.0011979583561302792,0.0,0.0,0.0
1609046850370601892,82,1609046850370601892,-0.007053276158737336,-0.0026109431014123626,0.0019094587408953635,-8.584351621815875e-05,1.562938861247916e-05,4.262797337753664e-05,0.9999999952847171,0.0011394972775301674,-0.0005784870648523634,0.0012057899191068005,0.0,0.0,0.0
1609046850470571995,83,1609046850470571995,-0.007098053698344467,-0.0024037866642376685,0.0017812221725771805,-5.691810599283474e-05,5.698576115323179e-06,-1.6857919717004407e-05,0.9999999982218154,9.808491830524363e-05,0.0017625766736322885,-0.0010182306830389509,0.0,0.0,0.0
1609046850570524216,84,1609046850570524216,-0.007425448737499447,-0.001954792726835795,0.0017537277111703902,-5.427731202878825e-05,2.389522361835639e-05,4.3127974532784815e-05,0.9999999973114668,-0.0010935125116855494,0.004215325197220422,-0.0007436117471193212,0.0,0.0,0.0
1609046850670555115,85,1609046850670555115,-0.00731262002153597,-0.0016167290315737967,0.001693985915741684,-6.42018076430511e-05,2.4595610561876944e-05,-6.818606656220124e-05,0.9999999953119034,0.00030045142485868965,0.005385939094295133,-0.00012258517234503327,0.0,0.0,0.0
1609046850770534754,86,1609046850770534754,-0.008045006082432025,-0.0006646009194913375,0.001578176598441754,-8.179227313906789e-05,-3.999791632070497e-06,-7.430086990312398e-05,0.9999999938866847,-0.002073703878582826,0.008810944168381228,-0.0008158155232500054,0.0,0.0,0.0
1609046850870550394,87,1609046850870550394,-0.008092529434537976,-0.0009587482964983952,0.0014760890836880063,-8.939377067751267e-05,-5.395149458734452e-06,2.3559720258939976e-06,0.999999995987029,-0.0012202809653213396,0.004766299034599733,-0.0013177542902684239,0.0,0.0,0.0
1609046850970553160,88,1609046850970553160,-0.006929118071228504,-0.0012089426336566048,0.0015267886689673321,-6.181860830228355e-05,1.5898319824782715e-05,-2.2535746258219726e-05,0.9999999977089027,0.004042227607463622,0.0019545931300601616,-8.485865629181695e-05,0.0,0.0,0.0
1609046851070513248,89,1609046851070513248,-0.0070550886462329085,-0.0018034034458404961,0.0017008634287207119,-4.722748351825672e-05,1.6701617558285036e-05,-4.1918139250049596e-05,0.9999999978667259,0.0027736454337783964,-0.0014471895698776381,0.0015120321292667748,0.0,0.0,0.0
1609046851170511246,90,1609046851170511246,-0.006654776788812209,-0.0019283414264744379,0.0016157778844691107,-8.705348447539496e-05,1.03780987991452e-05,4.816177648579512e-06,0.9999999961453758,0.0036977058167654616,0.00017969495270614378,9.907394360401727e-06,0.0,0.0,0.0
1609046851270467281,91,1609046851270467281,-0.0071027658018096036,-0.00169114382779077,0.0016559179302220067,-8.86816888827937e-05,-1.6599207197689044e-06,-2.3346768602774426e-05,0.9999999957938464,0.0008179593806143699,0.0024868189367616826,0.0002119345662131806,0.0,0.0,0.0
1609046851370476246,92,1609046851370476246,-0.007704207076055952,-0.0022873819234538227,0.0016291923766723385,-7.795749049448098e-05,6.286112809737746e-06,-2.3178235942696693e-05,0.9999999966729224,-0.0017014880995341254,-0.0009877961300270867,-0.0005965976544834113,0.0,0.0,0.0
1609046851470521450,93,1609046851470521450,-0.006711957251696611,-0.002031086203392923,0.001563369948384014,-6.175631090603969e-05,1.9458985341923746e-06,-3.537528701412666e-05,0.9999999974654611,0.0032796137336981025,0.0015735874623484113,-0.00013914338296578768,0.0,0.0,0.0
1609046851570582151,94,1609046851570582151,-0.008261825354355665,-0.0020961397432371818,0.0015234246859555784,-6.234213066213993e-05,2.198431132288721e-06,8.252207745324934e-06,0.999999998020244,-0.003397494540740211,0.0016360480045784216,-0.000731289286332984,0.0,0.0,0.0
1609046851670599699,95,1609046851670599699,-0.009326024760163747,-0.001618199468982466,0.0012751208427853144,-6.1073738859673e-05,1.665798716486739e-05,4.601317706133742e-06,0.9999999979856495,-0.005521619739405775,0.00428995995021641,-0.002085608117919477,0.0,0.0,0.0
1609046851770598412,96,1609046851770598412,-0.009646207941367394,-0.0022544809261301597,0.0012065613344716417,-7.496860488148751e-05,4.449220042568189e-06,-3.2183327817344904e-05,0.9999999966620534,-0.004229254358768757,9.876401219537697e-05,-0.0016538158002326782,0.0,0.0,0.0
1609046851870543718,97,1609046851870543718,-0.008833507767682332,-0.0019998446877544985,0.0014386489460640034,-5.9831972358456546e-05,8.442341675976528e-06,-5.7805133709485364e-05,0.9999999965036942,0.0008457824494708067,0.0020939838379892815,0.0003817365164405114,0.0,0.0,0.0
1609046851970502853,98,1609046851970502853,-0.00931908831151047,-0.002021195853709025,0.0015737621519558976,-7.341778246879491e-05,1.0208939670008088e-06,-3.420882266693464e-05,0.999999996719251,-0.0012976542438419597,0.001584611424244323,0.0007598812794968333,0.0,0.0,0.0
1609046852070566416,99,1609046852070566416,-0.009835744074626274,-0.0023723805289387946,0.001587886878105065,-6.96805871313411e-05,-1.137736537826452e-05,-5.993123312992185e-06,0.9999999974896062,-0.0025110273490984024,0.0004852819897652929,0.0010650332225599062,0.0,0.0,0.0
1609046852170496941,100,1609046852170496941,-0.009369864238982428,-0.0021511656613143857,0.001637929654683423,-6.16329102347206e-05,5.585469204680399e-06,-2.191204892374787e-05,0.9999999978450043,0.00036925184291677557,0.0031564450137219957,0.0012771158819608163,0.0,0.0,0.0
1609046852270535469,101,1609046852270535469,-0.008282703061543259,-0.0010987822328894668,0.0016415370966996968,-6.43328289097261e-05,1.4377960998793668e-05,8.368284971372084e-06,0.9999999977922465,0.004348782388857186,0.008404872518222351,0.0009805791692011389,0.0,0.0,0.0
1609046852370453835,102,1609046852370453835,-0.009343470844004755,-0.0011061883756684997,0.0015182979978604315,-6.028778707606291e-05,9.36155422342485e-06,-7.328515216939505e-05,0.9999999954534948,-0.0007027481331306233,0.004699890096091613,-0.00011571913473745711,0.0,0.0,0.0
1609046852470498562,103,1609046852470498562,-0.010267575143288117,-0.000748428586872511,0.0016096999764218347,-7.333461366701908e-05,-7.336434064751505e-07,-2.448258171997359e-06,0.9999999973077306,-0.003970853220171227,0.0051333398924793125,0.00032795707412671614,0.0,0.0,0.0
1609046852570902824,104,1609046852570902824,-0.010292052490085125,-0.0013578013704492384,0.0015917431581609005,-7.648428168697023e-05,4.7525339762669105e-06,-1.5650126728884942e-05,0.9999999969413004,-0.0023255016595073287,0.0009669487152373672,-0.0005616387358362729,0.0,0.0,0.0
1609046852670596838,105,1609046852670596838,-0.01019837895700932,-0.0011987695449189862,0.0014370159535664782,-7.159739166617474e-05,8.70413202554876e-06,-5.4300272876109904e-05,0.9999999959247455,-0.00030866782539981565,0.0024800735729276395,-0.0011351186070739934,0.0,0.0,0.0
1609046852770692587,106,1609046852770692587,-0.00891038217626826,-0.0007871033133783134,0.0015542280003214355,-5.196189305199075e-05,-6.990364999977147e-06,-1.9614217503133904e-05,0.9999999984331686,0.00491241888453899,0.004320938849708248,0.000611897584091321,0.0,0.0,0.0
1609046852870678902,107,1609046852870678902,-0.008354155839458147,-0.002107464767085623,0.001648910448704127,-4.020528651639522e-05,1.4649974802727548e-05,-9.862725053190098e-06,0.9999999990357993,0.005562719461652523,-0.003846565026067271,0.00037268950998513815,0.0,0.0,0.0
1609046852970625877,108,1609046852970625877,-0.009661443887079289,-0.0021298713207066893,0.0015405377345062135,-6.228839378596946e-05,1.3039821341599695e-05,-4.817406091985568e-05,0.9999999968146687,-0.0016207410947465016,-0.0008263955821994078,-0.0007508542142846692,0.0,0.0,0.0
1609046853070537567,109,1609046853070537567,-0.009333446679337108,-0.0017853911900991726,0.0013148475059342236,-8.17819073444883e-05,-1.52775033079457e-05,-1.3716067607819415e-05,0.999999996445072,0.0011437354545498352,0.002403399947170398,-0.0017115172146914578,0.0,0.0,0.0
1609046853170504093,110,1609046853170504093,-0.010303281875916231,-0.001503061140609491,0.0014144431808732268,-6.29754647295502e-05,-2.4018932042553725e-05,-5.840559218815086e-05,0.9999999960229622,-0.0028252327977600585,0.00378928130380596,-0.00041465684477620776,0.0,0.0,0.0
1609046853270460844,111,1609046853270460844,-0.009255013949823185,-0.0015476886331378934,0.0014577296119162857,-6.298378428812293e-05,-1.1216036521059267e-06,-1.530686893790315e-05,0.9999999978987204,0.0020820679755982644,0.0031038737798770705,0.00029747936459989993,0.0,0.0,0.0
1609046853370476007,112,1609046853370476007,-0.009100205770414704,-0.0012742935695504575,0.0015213197494117598,-6.196751437053346e-05,-5.47421093940993e-06,-3.23930112668171e-05,0.9999999975403536,0.002010654317544759,0.004024124711168508,0.00032314480578798954,0.0,0.0,0.0
1609046853470492125,113,1609046853470492125,-0.010114504758330185,-0.001252203095441592,0.001548182093216144,-8.339956901018147e-05,-1.6982049418077776e-07,2.2037474427376165e-05,0.9999999962793936,-0.002286405046634814,0.002393731521848237,1.634974093096456e-05,0.0,0.0,0.0
1609046853570513010,114,1609046853570513010,-0.011787796999109555,-0.001548621656543191,0.0017866359612750504,-5.5828074690760075e-05,8.098616496249602e-06,-4.755261474945376e-05,0.9999999972781703,-0.007208559590091541,0.0004795508194712834,0.0010213481733435626,0.0,0.0,0.0
1609046853670498371,115,1609046853670498371,-0.011392961233552757,-0.0019010631756362767,0.001673368896051261,-7.347955883445842e-05,-8.496431353171506e-06,-1.749796478792183e-05,0.9999999971111697,-0.003297456711863745,0.00042890663282547155,-0.0004044050916329144,0.0,0.0,0.0
1609046853770578146,116,1609046853770578146,-0.01026705756168756,-0.002656896953806523,0.0017637178290688831,-8.513592279394768e-05,-8.524555147390766e-06,9.807169643886367e-06,0.9999999962914893,0.002894530736192091,-0.0019238965392223768,0.00024060819328486013,0.0,0.0,0.0
1609046853870600224,117,1609046853870600224,-0.010660392022370109,-0.0027429068784056354,0.0015904928657023165,-6.661694654510265e-05,-5.560520937869704e-06,-5.044959274889064e-06,0.9999999977528822,0.0007217049353309833,-0.000496699986718366,-0.000907816097290382,0.0,0.0,0.0
1609046853970641851,118,1609046853970641851,-0.01077144594740194,-0.003134112581736142,0.0014684568523461363,-7.089746312546019e-05,-3.682024839009507e-06,-1.5176047568426461e-06,0.9999999974788208,0.0004394951828795234,-0.001355273716447207,-0.0009605538890605646,0.0,0.0,0.0
1609046854070612669,119,1609046854070612669,-0.010887101679054403,-0.0025260883148926815,0.0014618076908264044,-5.4029606236156924e-05,-9.9895040795469e-06,-1.788632054613542e-05,0.9999999983305216,-4.2960603718351605e-05,0.004443321691415461,-0.00047459112199838146,0.0,0.0,0.0
1609046854170553684,120,1609046854170553684,-0.011520289827533621,-0.0024124429246303383,0.001591538547473407,-4.416619834438321e-05,8.5505164631379e-06,-2.204811748108233e-05,0.9999999987450342,-0.00223122255818092,0.003935873835861466,0.0006206791940933705,0.0,0.0,0.0
1609046854270515203,121,1609046854270515203,-0.011465948997562956,-0.001777228522269532,0.0017387564009589832,-5.617906840820747e-05,1.0678208399935314e-05,-4.127959653850568e-05,0.9999999975129177,-0.0016371664181630055,0.006194603947555491,0.0008243763731238053,0.0,0.0,0.0
1609046854370488405,122,1609046854370488405,-0.012014820496129898,-0.0011992366307125343,0.0016071952312931895,-6.302591876293856e-05,-6.517917200499389e-06,-5.832795581824685e-05,0.9999999962915255,-0.0027643950021346473,0.007358653500332991,-0.0007826477845614474,0.0,0.0,0.0
1609046854470449686,123,1609046854470449686,-0.011992020562135448,-0.001232820965052273,0.0016201368771620868,-7.744767517600973e-05,-8.6788515993308e-06,-4.194825468270873e-05,0.999999996083415,-0.0016950025726725393,0.005028153182770762,-0.00038880262230099214,0.0,0.0,0.0
1609046854570512056,124,1609046854570512056,-0.011772186143609994,-0.0021388708457898155,0.0016280331658274222,-8.5682800860688e-05,-1.3104730854008032e-05,2.833839288151437e-05,0.9999999958418049,-9.955970409388816e-05,-0.00048508168576789565,2.9493321756853248e-05,0.0,0.0,0.0
1609046854670500517,125,1609046854670500517,-0.011772061113373077,-0.0010511546591394781,0.0014035366620898178,-0.00010412696326357494,-1.9141303600263113e-05,-8.40933488802807e-05,0.9999999908597217,-0.00013686547457076123,0.006583516695778588,-0.001297877715345009,0.0,0.0,0.0
1609046854770555258,126,1609046854770555258,-0.012278354343273802,-0.0017217644625342804,0.0015560755841507962,-5.693517809086892e-05,-3.425868852285627e-06,-2.7111383462770606e-05,0.9999999980057853,-0.0013506474323931616,0.000283918513626729,5.536658213186273e-05,0.0,0.0,0.0
1609046854870552778,127,1609046854870552778,-0.009990523783419103,-0.0019185476221743021,0.001492888055202245,-7.181811429100031e-05,2.6014340273655596e-06,4.399461707258815e-05,0.9999999964499066,0.009025728405275081,0.00023212767048391366,-0.0003922663960744925,0.0,0.0,0.0
1609046854970609665,128,1609046854970609665,-0.009992821267730757,-0.001208650151907462,0.0014648003172907426,-7.216196629871127e-05,-3.951717705150493e-06,-1.6567752025442487e-05,0.9999999972512463,0.006354277507024376,0.004482393331988585,-0.0005420770751488814,0.0,0.0,0.0
1609046855070595026,129,1609046855070595026,-0.010032716772929816,-0.0014321290361641854,0.0015780924305640867,-4.47137423302571e-05,1.5487981212953237e-05,-1.482817917829481e-05,0.9999999987704387,0.0035255336320103637,0.002507238405018022,2.3571926184931384e-05,0.0,0.0,0.0
1609046855170562506,130,1609046855170562506,-0.011602267917915281,-0.0013789805900078541,0.0014891864100708327,-6.943821725574415e-05,-1.0298743734745896e-06,-5.424566844883158e-05,0.999999996117314,-0.003772596595765062,0.002803902322581819,-0.00038810751435411697,0.0,0.0,0.0
1609046855270524263,131,1609046855270524263,-0.01096964592187746,-0.0008145216877818258,0.0012492687394555075,-8.343244709476267e-05,-5.3800400884817916e-05,-0.00011560269164993437,0.9999999883902546,0.0005171662372177137,0.005317879369167987,-0.002072696730999875,0.0,0.0,0.0
1609046855370475769,132,1609046855370475769,-0.01129969006697869,-0.0020569059514860995,0.0014554568947504067,-6.386484225920781e-05,-4.601652302918845e-06,-2.3695407135582256e-05,0.9999999976692914,-0.0009710694143338693,-0.002295987152917839,0.0008605673289859379,0.0,0.0,0.0
1609046855470542431,133,1609046855470542431,-0.01113622629589626,-0.00145449807865782,0.0018496181609670014,-3.9293167282731664e-05,3.6277487570926204e-05,-4.1244484006292985e-05,0.9999999977194155,7.160163853319108e-05,0.003249056138299774,0.0026286142683757206,0.0,0.0,0.0
1609046855570541382,134,1609046855570541382,-0.011911829355503908,-0.0017343569324377573,0.001773364076007631,-8.523638636836658e-05,-1.1496133307564777e-05,-1.496376976629531e-06,0.9999999963001521,-0.0027815969735957126,0.0014517426805145976,0.0007840628412658281,0.0,0.0,0.0
1609046855670600891,135,1609046855670600891,-0.010742197001088563,-0.0012179573275595188,0.0018868836105100538,-6.599786289714161e-05,1.350280897133634e-05,-4.111125127605877e-06,0.9999999977225004,0.0032133967146204343,0.004102174861219195,0.0012449519724385973,0.0,0.0,0.0
1609046855770575762,136,1609046855770575762,-0.009838816400173063,-0.0019792821641270147,0.0018815374590426647,-5.786888601566379e-05,-1.4374022493312979e-06,-2.6868348572799074e-05,0.9999999979635822,0.005895589581626755,-0.0008705212364766581,0.0004984000974774675,0.0,0.0,0.0
1609046855870537996,137,1609046855870537996,-0.008861885995546253,-0.0023894250047397933,0.0017155312328064215,-6.0081635250941994e-05,1.568742152446229e-05,1.1303376851613899e-06,0.9999999980713843,0.007744949160732319,-0.0007549627072129063,-0.001114059268087539,0.0,0.0,0.0
1609046855970495224,138,1609046855970495224,-0.009024552693755948,-0.001912988831246917,0.001463386102276092,-7.703714005954746e-05,-6.850243011163677e-07,3.214506999114778e-05,0.9999999965157241,0.00514269121376076,0.0030974545421965875,-0.002105862297444134,0.0,0.0,0.0
1609046856070511818,139,1609046856070511818,-0.007029687648800372,0.0007098645714220751,0.0016025845025180413,-4.370307720124096e-05,4.668327166101076e-05,-0.0002360294655204086,0.9999999701003734,0.010949438620889332,0.016727336185590847,7.184919634519696e-05,0.0,0.0,0.0
1609046856170555830,140,1609046856170555830,-0.008982939092558512,0.0005891800052480309,0.001469450163360367,-8.092415711245672e-05,8.559395255964743e-06,-2.8408358908984455e-05,0.999999996285463,-0.00046564714001578675,0.00914392734760997,-0.0008487807339446194,0.0,0.0,0.0
1609046856270534277,141,1609046856270534277,-0.009613970072194682,-0.0008913703263761492,0.0014148340518739002,-6.244101272326106e-05,4.603508687042339e-06,4.4606791911466374e-05,0.9999999970450532,-0.0021389969428798243,-0.002375158182993999,-0.0015529180631432713,0.0,0.0,0.0
1609046856370505333,142,1609046856370505333,-0.010060510157406465,-0.001385928468256523,0.0015957521997178703,-6.399414369804019e-05,-3.081494182880614e-06,-3.446816819529656e-05,0.9999999973535715,-0.0028198353132875493,-0.0026318235868164077,0.0005389768574636735,0.0,0.0,0.0
1609046856470502615,143,1609046856470502615,-0.009854449030963087,-0.002063262669004075,0.0018190632432775297,-8.155033516904665e-05,1.1236959656560356e-07,-6.180568511446844e-06,0.9999999966556364,-0.0006948188195250939,-0.0033524869372694686,0.0012080780552654138,0.0,0.0,0.0
1609046856570540905,144,1609046856570540905,-0.007468393847338471,-0.00238206749193737,0.0018925087518345475,-7.836284488763596e-05,1.1098908544517802e-05,8.75146330723848e-06,0.9999999968297169,0.009026295683348382,-0.0020043899493317713,0.0006659035097864158,0.0,0.0,0.0
1609046856670547009,145,1609046856670547009,-0.007918946734251787,-0.0029421666445694624,0.0017686546823810732,-8.28495508058368e-05,1.738021422052113e-05,1.2389819771779294e-05,0.9999999963401581,0.004187346983198982,-0.0024454221688914118,-0.0005796946104066627,0.0,0.0,0.0
1609046856770560980,146,1609046856770560980,-0.0080045148041039,-0.001983117726430249,0.001854997500182919,-5.24506595965793e-05,2.6748146318387066e-05,3.335912416650069e-05,0.9999999977102887,0.0028427004300403697,0.004247592022045848,9.64289843735812e-05,0.0,0.0,0.0
1609046856870594263,147,1609046856870594263,-0.008934304431766285,-0.0025109817594123197,0.0016743494499861394,-6.811174536364011e-05,-3.4303045281175084e-06,-2.589404526258819e-05,0.999999997339232,-0.001373477590406924,0.00016332677893041853,-0.0005797308681281786,0.0,0.0,0.0
1609046856970551252,148,1609046856970551252,-0.008464922011481756,-0.0026409525457380813,0.0015248368592067196,-8.694653248779427e-05,-4.852616598976417e-06,2.3217078839270485e-05,0.9999999959388303,0.0013042413534507526,0.000712658728075647,-0.0015149000797551996,0.0,0.0,0.0
1609046857070508242,149,1609046857070508242,-0.007720510917634689,-0.0027277803718864188,0.0014248340190090177,-6.95909969445582e-05,1.0362099462178479e-05,6.560516219360656e-05,0.9999999953728115,0.004362604241850095,0.0010295806582380895,-0.0014101278631552532,0.0,0.0,0.0
1609046857170460939,150,1609046857170460939,-0.007977132652690237,-0.0015442152526452847,0.0015736735589864876,-9.064256663880881e-05,-3.440639677094393e-06,-2.216655132668718e-07,0.9999999958859885,0.0021447201816690666,0.007226104021007676,-7.354972960026476e-05,0.0,0.0,0.0
1609046857270451546,151,1609046857270451546,-0.007849125363881538,-0.0016668522188785127,0.0016474085176090673,-6.490109983303959e-05,5.898700164628415e-06,3.918907700555134e-05,0.9999999971086041,0.002200283153158512,0.003599115968449569,0.000701051247560655,0.0,0.0,0.0
1609046857370440483,152,1609046857370440483,-0.007103105169851413,-0.0009257645328203783,0.0016844057434574672,-7.461434570412842e-05,9.744448720908883e-06,-2.371709923839012e-05,0.9999999968875916,0.004345156488742244,0.006827618695598404,0.00017183218890437328,0.0,0.0,0.0
1609046857470539808,153,1609046857470539808,-0.008632763670852748,-0.002174393431113803,0.001748195263071764,-7.930357129593501e-05,3.0838966660646784e-07,8.373718734829308e-05,0.9999999933494352,-0.002949033926147715,-0.002002858778961061,0.0006025066875623439,0.0,0.0,0.0
1609046857570633173,154,1609046857570633173,-0.01058860245905835,-0.002635404269929866,0.0017638004663350006,-8.159042972296271e-05,4.789438428380625e-06,-1.6122898643163281e-06,0.9999999966587018,-0.009065203319492558,-0.0018591718044172817,0.00019710375813462443,0.0,0.0,0.0
1609046857670713663,155,1609046857670713663,-0.010376005101655851,-0.002509579911556021,0.0016259476629829934,-8.60422195146596e-05,2.8386154140709524e-07,2.6376728350227332e-05,0.9999999959504314,-0.0045050417180460415,0.0010244586928189947,-0.0006173972914369193,0.0,0.0,0.0
1609046857770592690,156,1609046857770592690,-0.010173866171766367,-0.0019099019620193857,0.0016788306074150615,-7.570820134287847e-05,-2.468948283023954e-06,3.376988896463785e-05,0.9999999965608528,-0.0014421687299173772,0.004830229922736043,0.00027183691936747453,0.0,0.0,0.0
1609046857870555639,157,1609046857870555639,-0.008662838112186372,-0.0018888374034820323,0.0014904755081951286,-7.204178868286669e-05,7.14878430571538e-06,-8.963569559701587e-06,0.9999999973392343,0.005116031729461435,0.00426332121453109,-0.001210174092323071,0.0,0.0,0.0
1609046857970541716,158,1609046857970541716,-0.007494090195105083,-0.0018637297449505992,0.001621612565277244,-6.500977512655628e-05,6.259619507373993e-06,1.084129579741241e-05,0.9999999978084754,0.007980907651053075,0.00300755080691864,0.000182536237228027,0.0,0.0,0.0
1609046858070522785,159,1609046858070522785,-0.008481969043739103,-0.0014783447544617983,0.0015152512594204467,-7.632585906227386e-05,9.516025655895778e-06,2.068237844963302e-05,0.9999999968279927,0.0015338439340599648,0.004795170877059633,-0.0006112813562633471,0.0,0.0,0.0
1609046858170515299,160,1609046858170515299,-0.009030927940625542,-0.0012138673692695696,0.00145620044470665,-6.426095814795351e-05,-1.3315858848919057e-05,4.5465084418486754e-05,0.9999999968130403,-0.0006276260831293537,0.004530985097153085,-0.0010350997118313732,0.0,0.0,0.0
1609046858270494223,161,1609046858270494223,-0.009461254141371209,-0.0005185317688580062,0.001601750607561992,-5.892795316758592e-05,7.917997814551017e-06,-1.7134296352506485e-05,0.9999999980855773,-0.0017028522404230122,0.006431609607592254,0.00036478135897098597,0.0,0.0,0.0
1609046858370490313,162,1609046858370490313,-0.009997582768861904,-0.0007981897864087681,0.0014317658430969993,-8.840484252652056e-05,1.5910264820738107e-06,1.0158149059207287e-05,0.9999999960394008,-0.002747834578659931,0.003224168931317048,-0.0009963488363151063,0.0,0.0,0.0
1609046858470515966,163,1609046858470515966,-0.009920453301091928,-0.0017449573407080845,0.0014061158451285764,-7.59272314017434e-05,-3.3524956122454543e-06,5.003388599361147e-05,0.9999999958601824,-0.0011951442487917548,-0.0017945028498310162,-0.0012651366789179618,0.0,0.0,0.0
1609046858570526600,164,1609046858570526600,-0.00959810365644313,-0.0013267374339234605,0.0012915032973085075,-6.638047472467243e-05,1.3126528662772993e-05,-7.024012816366733e-06,0.9999999976859638,0.00041951550522317284,0.002443915435681356,-0.001886174880339835,0.0,0.0,0.0
1609046858670532227,165,1609046858670532227,-0.009223592477466484,-0.0015080952013183109,0.0015239311982114699,-6.867917959706897e-05,2.0954889863337405e-05,-1.6399131841378361e-06,0.9999999974206559,0.0012169986377629878,0.0010266060300557372,0.0004159647251713145,0.0,0.0,0.0
1609046858770501614,166,1609046858770501614,-0.008442478314376625,-0.0026989582706038804,0.0016203479841490284,-8.128883475951555e-05,2.9116732654818786e-06,3.475563814447388e-05,0.9999999960878152,0.00378674734363109,-0.0041352118232830986,0.001079857221535074,0.0,0.0,0.0
1609046858870434761,167,1609046858870434761,-0.009558989357853983,-0.002345614733659223,0.0015626844937620872,-7.863772400804396e-05,-9.93941917280556e-06,2.7732438809596286e-05,0.9999999964740823,-0.000975581528103643,0.0009429150757776514,-0.0001955356843164447,0.0,0.0,0.0
1609046858970487356,168,1609046858970487356,-0.00823325461784001,-0.0013735866177419487,0.0015237060806468508,-5.935972533603415e-05,1.3957032342087135e-05,1.4233709944622839e-05,0.9999999980394806,0.004634310233222175,0.0066803609857967895,-0.001086118749072291,0.0,0.0,0.0
1609046859070479155,169,1609046859070479155,-0.006211734888573239,-0.0010634706619938338,0.001730938805854881,-8.254120775579742e-05,2.666294381669127e-05,-2.6586011535228508e-05,0.9999999958845774,0.010857650947386574,0.006520490369200874,0.001233530146979116,0.0,0.0,0.0
1609046859170568943,170,1609046859170568943,-0.0059814269691442715,-0.0016259240790145277,0.001855967593890787,-8.347132329410358e-05,1.686301234970114e-05,8.06061361946042e-05,0.9999999931253811,0.007980889630256557,0.00181002864607375,0.0012246194515169785,0.0,0.0,0.0
1609046859270550728,171,1609046859270550728,-0.006191481516787922,-0.002187289927334063,0.001783524237799431,-7.58557003998169e-05,1.643222185517594e-05,8.188045592881305e-05,0.9999999936357098,0.004806233422322893,-0.0012743763290551642,4.5610307445849776e-07,0.0,0.0,0.0
1609046859370598555,172,1609046859370598555,-0.006607573728993591,-0.0027946008089407997,0.0015556216818257077,-7.128021419700457e-05,2.5062043150383818e-05,5.643794629393265e-05,0.9999999955528581,0.00159984566827518,-0.0024179117235937977,-0.0017249117907677104,0.0,0.0,0.0
1609046859470643044,173,1609046859470643044,-0.007525888317843087,-0.0019565502959122323,0.0016896575455130484,-5.702817140781332e-05,2.7631771254876275e-05,-1.8814425531059994e-05,0.9999999978151115,-0.0019578047571199592,0.004398022437580169,-0.000407308623338033,0.0,0.0,0.0
1609046859570580721,174,1609046859570580721,-0.008103355094278562,-0.0027870423378097346,0.001474478211002798,-6.338529623416355e-05,5.096991314394023e-06,3.163261607177125e-05,0.9999999974778174,-0.003272706203695771,-0.0006706141329137849,-0.0015807541995969362,0.0,0.0,0.0
1609046859670507193,175,1609046859670507193,-0.008310789692550287,-0.001721827914764664,0.0014273718873341543,-8.743557578514629e-05,1.1722657423227966e-06,2.0263833314426583e-05,0.999999995971477,-0.002779330370533465,0.006911489930257458,-0.0010552526536321601,0.0,0.0,0.0
1609046859770574093,176,1609046859770574093,-0.007467935164907329,-0.0016700024139979402,0.0014172795486311323,-7.514482896704462e-05,9.680052705473804e-06,1.2394767767056088e-05,0.9999999970529259,0.0019566418483480848,0.004657615463552231,-0.000332824254125985,0.0,0.0,0.0
1609046859870572805,177,1609046859870572805,-0.006036263171465962,-0.0015685500758097616,0.0016977701515782835,-7.650948157247441e-05,2.7886578789228805e-06,3.8591810275802756e-05,0.9999999963245622,0.006909087074901116,0.004005566936448487,0.00202026731674087,0.0,0.0,0.0
1609046859970549345,178,1609046859970549345,-0.004881324348451308,-0.0026225273191256703,0.0017216470594596806,-7.547343339640453e-05,2.9219646730942938e-05,5.261716353126547e-05,0.999999995340669,0.009131986849063484,-0.0017863796964139736,0.0006274526727913601,0.0,0.0,0.0
1609046860070472002,179,1609046860070472002,-0.006979321631582854,-0.0026933990533745005,0.001577071635145249,-8.266108340280604e-05,1.1091298164940384e-05,4.2229023240298946e-05,0.9999999956303847,-0.0019633326343323054,-0.0002777078685256497,-0.0007353470318674003,0.0,0.0,0.0
1609046860170480013,180,1609046860170480013,-0.0068686741148911105,-0.002187694745531272,0.001831194432101397,-6.286688531704014e-05,2.703085634027652e-05,6.930845715317741e-05,0.999999995256678,-0.0004014349654205404,0.0031505117436547475,0.0011041066396006345,0.0,0.0,0.0
1609046860270437241,181,1609046860270437241,-0.006972544254929168,-0.0015571405947167587,0.0018790729948036863,-5.54562662316557e-05,2.724876313872974e-05,3.710891368146786e-05,0.999999997402483,-0.0003393984361059443,0.005652081168653969,5.7409246370279936e-05,0.0,0.0,0.0
1609046860370471954,182,1609046860370471954,-0.005742636930758649,-0.0016608892835206065,0.0013420584784696204,-9.010840467031436e-05,-6.006917496643716e-06,2.571641979518835e-05,0.9999999955914933,0.004428834312237185,0.0040386362712843005,-0.00273499997316218,0.0,0.0,0.0
1609046860470514774,183,1609046860470514774,-0.006855889876135971,-0.002825927462494583,0.0014811898982895443,-8.58089522127517e-05,1.3352050979542418e-05,7.35772744023836e-05,0.9999999935224295,-0.0014900324041109613,-0.002500016218210108,4.419977224135027e-05,0.0,0.0,0.0
1609046860570521593,184,1609046860570521593,-0.007130030765315756,-0.0027038689857053957,0.0014176137595516669,-8.337559747660288e-05,1.1454773938277676e-05,5.470833827493639e-05,0.9999999949621118,-0.001151934045758397,0.0005461592521076686,-0.0005069459414505019,0.0,0.0,0.0
1609046860670571804,185,1609046860670571804,-0.0068209880184854285,-0.0021927971832204412,0.0014928025786245052,-7.976030750025628e-05,1.2921289812239613e-05,6.123798684884263e-05,0.9999999948605856,0.0007402790974066419,0.004543233354470343,9.662402532155455e-05,0.0,0.0,0.0
1609046860770576715,186,1609046860770576715,-0.007531226153649183,-0.0013825510155816207,0.00146732982617219,-7.054402329449931e-05,1.1498982696001972e-05,1.2706675344681882e-05,0.9999999973648912,-0.001649366758396237,0.00770097305740524,-0.00047666478117521237,0.0,0.0,0.0
1609046860870569468,187,1609046860870569468,-0.00828137702093473,-0.001602024056851165,0.0014284627201605262,-7.11742838938556e-05,1.2452509818415168e-06,1.9436553721715996e-05,0.9999999972774093,-0.0031846219358505705,0.0035204652055241324,-0.0011621773945007176,0.0,0.0,0.0
1609046860970562220,188,1609046860970562220,-0.0075854981204872,-0.001291638074815663,0.0014264573426418605,-8.446508332849665e-05,2.2333695594578576e-06,-8.301007548054223e-06,0.9999999963958409,0.001314327191475498,0.00428854276576764,-0.0008919591289410177,0.0,0.0,0.0
1609046861070505381,189,1609046861070505381,-0.007507598319809704,-0.002107513412234942,0.0017641078469168687,-6.813311377004001e-05,4.352299938943585e-05,5.716251922584734e-05,0.9999999950980002,0.001544448217210767,-0.00029527496001025434,0.001703656938657855,0.0,0.0,0.0
1609046861170523405,190,1609046861170523405,-0.008150678320107995,-0.0017736625031997725,0.0017657684762626682,-8.150577567500314e-05,2.8599773236181504e-06,5.9682363558094425e-05,0.9999999948932855,-0.0006246561271107923,0.0032554697259343,0.0009786214317428826,0.0,0.0,0.0
1609046861270543814,191,1609046861270543814,-0.00816643638422202,-0.001793281288601864,0.0015198558497920484,-8.200379153486847e-05,-9.161310431298229e-06,3.3412836283748067e-05,0.9999999960374789,-0.0002269316031773556,0.0031337735514740143,-0.0010816454411862052,0.0,0.0,0.0
1609046861370574713,192,1609046861370574713,-0.0060487157091466725,-0.002163950982672871,0.001524588473899122,-8.108871112973579e-05,1.4357374175307758e-05,-7.402074233113799e-06,0.9999999965818113,0.0078050178826622185,0.001993459218440929,-0.00020636911395553037,0.0,0.0,0.0
1609046861470440149,193,1609046861470440149,-0.007668161381872091,-0.0017669333141340964,0.0016138045266788457,-6.955211124208442e-05,1.7848774113750755e-05,-2.617869187723381e-06,0.9999999974184989,-0.0009304731694996255,0.003577638234225752,-0.00020090671948709224,0.0,0.0,0.0
1609046861570414782,194,1609046861570414782,-0.00730397050726529,-0.00232655105390011,0.0015159388260895035,-7.940828682754527e-05,1.331889215827763e-05,5.200624759599014e-05,0.9999999954061038,0.0008477858885719578,-0.00025958147328846186,-0.00025429831828984443,0.0,0.0,0.0
1609046861670445204,195,1609046861670445204,-0.0071372823188504304,-0.0017786941272913985,0.0016074458416565885,-6.0685232209300934e-05,2.0202114371554315e-05,3.117405666898301e-05,0.9999999974686404,0.0018011995261889872,0.003076045880539065,-0.00045089833806544893,0.0,0.0,0.0
1609046861770515919,196,1609046861770515919,-0.006477959772461936,-0.001966445035720466,0.0015500528728079744,-6.23643545808217e-05,1.5038216130391715e-05,9.149850354736314e-06,0.9999999979003719,0.004215976123204047,0.001571515556598503,-0.0010269330686628634,0.0,0.0,0.0
1609046861870542765,197,1609046861870542765,-0.005939296917245261,-0.0023717174602176567,0.0014729140273800382,-8.498018723087499e-05,6.057619735198538e-06,2.2930148714656338e-05,0.9999999961079024,0.005040322759921946,0.0003233202776377869,-0.00044373632423509973,0.0,0.0,0.0
1609046861970612288,198,1609046861970612288,-0.007243428392489256,-0.0018807067810696506,0.0013682014112370864,-8.485820286005973e-05,1.6786357675091488e-05,4.528631792341058e-05,0.9999999952331884,-0.0013392144582216742,0.0036038443458372964,-0.0006982360170772892,0.0,0.0,0.0
1609046862070580244,199,1609046862070580244,-0.00724603568174608,-0.0015713104649223196,0.0015108959595228,-6.766344248610587e-05,1.1864244618414046e-05,8.666133539591743e-06,0.9999999976028601,-0.00017974867966775174,0.003946855100827885,0.0009245448935280508,0.0,0.0,0.0
1609046862170547247,200,1609046862170547247,-0.00663652080665971,-0.0020161275536188963,0.001742317767834651,-5.908194726270148e-05,6.562797277222948e-06,5.411429521112774e-05,0.9999999967689096,0.0024479074280312294,0.0006095380970445514,0.0018996897322685702,0.0,0.0,0.0
1609046862270538568,201,1609046862270538568,-0.006934220888293904,-0.0020203233250530566,0.0015887800701591787,-9.063747995097835e-05,-7.252361060888828e-06,4.1226123985980806e-05,0.99999999501629,0.0008395391465349411,0.0018556434196102044,-0.000803978405398073,0.0,0.0,0.0
1609046862370561600,202,1609046862370561600,-0.008222471093574222,-0.002200364836085095,0.0014701304589925337,-8.900224984699357e-05,1.8918475420442268e-07,2.6950787796516882e-05,0.9999999956760709,-0.004071382769409406,0.0013901226425676776,-0.0011296428747538199,0.0,0.0,0.0
1609046862470523596,203,1609046862470523596,-0.00809351332453945,-0.001616975511471375,0.0016687366446611167,-8.143056255588778e-05,1.4816843749423284e-05,3.496040706398249e-05,0.999999995963609,-0.0020027409510282846,0.004840912973849108,7.074502582065994e-05,0.0,0.0,0.0
1609046862570523977,204,1609046862570523977,-0.008658080304707067,-0.0013565951433947559,0.0017138711143389468,-7.460466739877206e-05,1.028274356106185e-05,2.2494939968470852e-05,0.9999999969111546,-0.0027894047525733644,0.004768638638973474,-2.086623293631504e-05,0.0,0.0,0.0
1609046862670524836,205,1609046862670524836,-0.007469466085763076,-0.0013141049118255146,0.0016315482110542004,-7.638036430681912e-05,8.944659108336987e-06,2.4156148352194384e-05,0.9999999967512178,0.0027620027567452324,0.004372155867101385,-0.0007077901075331375,0.0,0.0,0.0
1609046862770474434,206,1609046862770474434,-0.00703004434139322,-0.0014257886089324866,0.0015188106962970532,-6.953355817128113e-05,2.3339725109123405e-05,4.888423227670042e-05,0.9999999961152976,0.003655121194401005,0.003032723468084829,-0.0013409839274266973,0.0,0.0,0.0
1609046862870476007,207,1609046862870476007,-0.007050870984025088,-0.0018504269540044278,0.0015901263673958029,-6.412225338921295e-05,2.3452476786106193e-05,6.866327681561343e-05,0.9999999953117971,0.0022882858128012583,0.0006791040186517041,2.1421862883477436e-05,0.0,0.0,0.0
1609046862970512629,208,1609046862970512629,-0.006468029094020634,-0.0019823988910346157,0.001815977190723315,-6.509235299420668e-05,1.8692762668371724e-05,3.106341421609063e-06,0.9999999977019193,0.003576166181485484,0.0011998639413465686,0.0013361041763307595,0.0,0.0,0.0
1609046863070515633,209,1609046863070515633,-0.007043790554349995,-0.0015696934540300955,0.0016464639347279911,-8.589384460269704e-05,9.643862061533495e-06,4.4727455399070715e-05,0.9999999952643097,0.00011425464209861326,0.0036302902773680855,-0.0008561031581646233,0.0,0.0,0.0
1609046863170486212,210,1609046863170486212,-0.006457738026299781,-0.001289952788745109,0.0015542163054838637,-8.403598510222582e-05,7.67081010500837e-06,8.438239483659638e-05,0.9999999928793222,0.0031263216009865726,0.004066973053363137,-0.0008903763763351982,0.0,0.0,0.0
1609046863270509958,211,1609046863270509958,-0.006033347074266245,-0.0013351603689531989,0.0015885659644976566,-9.322395959393067e-05,2.2265592115554912e-05,8.232570653778867e-05,0.9999999920179682,0.004037153200003669,0.0025226273441339084,-0.0007038435766220977,0.0,0.0,0.0
1609046863370521307,212,1609046863370521307,-0.005210445608978765,-0.0012425491982505552,0.0014739544443895004,-9.60142027448329e-05,-1.1153687856653724e-06,3.101122823038583e-05,0.9999999949091269,0.006020495454105667,0.0027038047598113885,-0.0011875265386393323,0.0,0.0,0.0
1609046863470461130,213,1609046863470461130,-0.00478232046156919,-0.001673576552340926,0.0015256431062333035,-8.76768847551157e-05,-3.477725696299022e-06,9.347584950340386e-05,0.9999999917814282,0.005825745650007782,0.0006949723950476828,-6.237900539027394e-05,0.0,0.0,0.0
1609046863570474386,214,1609046863570474386,-0.005471734354588505,-0.0024575912548233034,0.0015778954310537775,-7.549798879347986e-05,1.274802884275757e-05,9.146987469356729e-05,0.999999992885362,0.0009937490175190447,-0.0021119905779940756,-0.00012221308463789,0.0,0.0,0.0
1609046863670590162,215,1609046863670590162,-0.00494330119469226,-0.001659466162239803,0.0018033681362853062,-7.890575784056374e-05,1.7573726731080498e-05,2.2591594588699922e-05,0.9999999964772929,0.002909345974658081,0.0032977267047380604,0.0010643689088572176,0.0,0.0,0.0
