%time,field.header.seq,field.header.stamp,field.pose.pose.position.x,field.pose.pose.position.y,field.pose.pose.position.z,field.pose.pose.orientation.x,field.pose.pose.orientation.y,field.pose.pose.orientation.z,field.pose.pose.orientation.w,field.twist.twist.linear.x,field.twist.twist.linear.y,field.twist.twist.linear.z,field.twist.twist.angular.x,field.twist.twist.angular.y,field.twist.twist.angular.z
1609043643749265671,0,1609043643749265671,-0.0017323320396840896,0.0024794389134520506,-0.0005375073823278875,-0.00011212504050829243,-3.796831087390418e-05,-9.777231484025975e-05,0.9999999882134781,0.0004293484807185762,-0.008203940048626545,-0.00222689934336373,0.0,0.0,0.0
1609043643849327326,1,1609043643849327326,-0.002668476992053397,0.0029268998131002444,0.0001790468647324912,-8.899343039347327e-05,1.1498340039415561e-05,-8.97097760529079e-05,0.9999999919500561,-0.009243079563379079,0.006002499916359044,0.007266952105627274,0.0,0.0,0.0
1609043643950117111,2,1609043643950117111,-0.003090147712690155,0.0028956740285879436,0.0002562200072806385,-7.992491349417183e-05,-1.7372410763559054e-05,-9.644791415359557e-05,0.9999999920040029,-0.006170957506349743,0.0019215921524628416,0.002633048382485332,0.0,0.0,0.0
1609043644049361706,3,1609043644049361706,-0.002640317429068004,0.0026266641613382808,0.0006372878225630934,-9.362365347433409e-05,6.838604850655544e-06,-0.00016228888325370316,0.9999999824250809,0.0004896614851093483,-0.0008480567975117953,0.002917920613368052,0.0,0.0,0.0
1609043644148480892,4,1609043644148480892,-0.00401720734726291,0.0029343025069784555,0.0001014453044937262,-9.922611756853511e-05,-3.4890906762006043e-07,-0.00012012622184482012,0.999999987861873,-0.007508769598921727,-0.0009896474960947336,-0.0026863595606179363,0.0,0.0,0.0
1609043644249224663,5,1609043644249224663,-0.004532358076442686,0.004746905819675006,0.0001696351266641785,-0.00012669961025979872,-2.0042245144290547e-05,-0.00012073835931924947,0.9999999844838837,-0.005575889422223774,0.00836600512698959,-0.0018408542829638605,0.0,0.0,0.0
1609043644349988222,6,1609043644349988222,-0.004874229571110245,0.007050448583155267,0.00047506416939208025,-0.00010630278545753856,3.0875924398788137e-06,-0.00014513427367263625,0.9999999838131147,-0.0037589552595241995,0.016977110915130746,0.0012982386625895164,0.0,0.0,0.0
1609043644448439837,7,1609043644448439837,-0.005028285699105999,0.007068158787279159,0.000562881560653594,-0.00011563437059362524,7.80370889038196e-07,-0.00021240088280781634,0.9999999707569742,-0.002870424849556302,0.010352369433812666,0.001320962336207854,0.0,0.0,0.0
1609043644549291849,8,1609043644549291849,-0.005234149766564004,0.007050203262796057,0.0007207406870551149,-0.00011292604302359973,-2.854201928685747e-06,-0.00014717739556698056,0.9999999827891884,-0.0026197783325148855,0.005829529433589243,0.001173363202228005,0.0,0.0,0.0
1609043644649274111,9,1609043644649274111,-0.004813439106625203,0.007209951068394748,0.0007716300943327821,-0.00010069608215916428,1.911490786070014e-05,-0.0001145730934759658,0.9999999881839632,0.0013335680943968179,0.004579782060818478,0.0009840951986261825,0.0,0.0,0.0
1609043644748466969,10,1609043644748466969,-0.0052667207022064535,0.007427753115150937,0.0004875779750166839,-0.00010819116415292489,-1.065597530663439e-05,-0.0002321276255088533,0.9999999671489439,-0.0015221422437938772,0.0032749129490262756,-0.0007629702279951288,0.0,0.0,0.0
1609043644848397493,11,1609043644848397493,-0.005117705650118515,0.007786337582850908,0.0004588343640998029,-7.818492244211318e-05,-1.6715513212094558e-05,-0.00021376443851623943,0.9999999739562377,0.0005227070016835126,0.0034715285953399815,-0.0005256017911299516,0.0,0.0,0.0
1609043644949186802,12,1609043644949186802,-0.00578404105700412,0.008293432996072485,0.00040865355678928794,-9.782283017941489e-05,2.2313285323428824e-07,-0.00018470033406061087,0.9999999781582152,-0.0026661936218545877,0.004095533700048327,-0.0007400681056138222,0.0,0.0,0.0
1609043645049238443,13,1609043645049238443,-0.004957484538068526,0.0076079542255041484,0.0006062124466989506,-0.00011286182113285853,7.48694581793415e-06,-0.00011514338444442668,0.999999986974078,0.003572063647553493,-9.131650463074315e-05,0.0008613803479340424,0.0,0.0,0.0
1609043645148404360,14,1609043645148404360,-0.005657319366474745,0.006362959861178843,0.0005669407612605875,-0.00012563273806338982,1.5077240448269578e-05,-0.00011980519804481806,0.9999999848179028,-0.0020052487559406784,-0.005792267159604217,7.60873533222449e-05,0.0,0.0,0.0
1609043645248390675,15,1609043645248390675,-0.005595795568629388,0.006809717268421546,0.000688406474687274,-8.805912622045044e-05,-4.670785335567985e-07,-0.0001509992038429058,0.9999999847223059,0.00017418256644284916,0.00022629415805793147,0.0011811859559284525,0.0,0.0,0.0
1609043645349953651,16,1609043645349953651,-0.005292318726630948,0.006786793525446051,0.0006458767297394788,-0.00011238897435980083,-1.9944504689825574e-06,-8.603497755470386e-05,0.9999999899813611,0.001867074025262302,0.0012424318718559889,0.0008184924912083302,0.0,0.0,0.0
1609043645448364258,17,1609043645448364258,-0.00511631735160569,0.0067200349509042925,0.00038768403213628355,-9.095851762732405e-05,-4.275801502680997e-06,-0.0001723769545462301,0.9999999809972248,0.0027450366822446776,0.0012381677940037597,-0.001291959460351589,0.0,0.0,0.0
1609043645549956560,18,1609043645549956560,-0.005967032480235106,0.007699468608210573,0.00023900172484858545,-0.00013968938488136308,9.615977340674252e-06,-0.0001240713758170927,0.9999999825003494,-0.002206766672438971,0.004713325904999961,-0.001381434180395047,0.0,0.0,0.0
1609043645649991751,19,1609043645649991751,-0.006873553235124437,0.008584500521563664,0.0003478565709369219,-0.0001327187647013965,8.073497530663914e-06,-0.00015561915469301495,0.9999999790516113,-0.005783287405220848,0.007219906311972705,6.213840176135833e-06,0.0,0.0,0.0
1609043645749929905,20,1609043645749929905,-0.0056786411921729155,0.007830001804607318,0.0003846518610678924,-0.00014334046837396463,1.816344190263254e-05,-0.00016074378369947928,0.9999999766425154,0.0032844728530942446,0.0026222464392340623,-0.00010616957466455675,0.0,0.0,0.0
1609043645848313093,21,1609043645848313093,-0.004645928123964797,0.007172742732917954,0.0007810432033761199,-8.773970217066773e-05,7.147730051983803e-06,-0.00016958045521029357,0.9999999817465595,0.006875092168498621,-0.00023480056774860536,0.002147529705437609,0.0,0.0,0.0
1609043645949895620,22,1609043645949895620,-0.0049158265168032945,0.0069133826776461935,0.0005794141776359285,-0.00011740474262517285,8.109007299114793e-06,-0.00012566916370299495,0.9999999851788136,0.0024518179021154147,-0.0012038856724662984,-0.00025025098427539387,0.0,0.0,0.0
1609043646049872398,23,1609043646049872398,-0.0058924406795667576,0.006941228877747191,0.0004910246201597126,-0.00012119041807201853,2.0717769561299368e-05,-0.00016656638391990882,0.9999999785696457,-0.0036402339484204846,-0.0005002610180134882,-0.00043802174687972443,0.0,0.0,0.0
1609043646149847031,24,1609043646149847031,-0.00644864511653363,0.007880032338354487,0.0008654615790876821,-0.00012243431584177647,2.826794044534712e-05,-0.00013783153312398654,0.9999999826066126,-0.004186478516961606,0.005002940548298449,0.0016702294885541232,0.0,0.0,0.0
1609043646249860048,25,1609043646249860048,-0.00632342140852493,0.008425881400179337,0.0004988350907675174,-0.00014191544126527665,9.221617377893066e-06,-0.00020535066021016248,0.9999999688030351,-0.0012909108914543827,0.006989441214314612,-0.0014130773371495403,0.0,0.0,0.0
1609043646349919081,26,1609043646349919081,-0.005363438901685237,0.008043123041195668,0.0006843173673824213,-0.0001439895111725311,3.5178192915546284e-05,-0.0001141938708353651,0.9999999824946346,0.004108995338879303,0.0035664535466980777,0.00039033842408075364,0.0,0.0,0.0
1609043646449936867,27,1609043646449936867,-0.006633116618214977,0.008155214510079977,0.0008291010647268479,-0.00011700846933673865,5.521423498657537e-06,-0.00015940194860668944,0.9999999804347723,-0.004355924266747193,0.0020085593641835683,0.0008944883999424496,0.0,0.0,0.0
1609043646548340321,28,1609043646548340321,-0.00726327866875908,0.008975485166106516,0.0007004624779867329,-0.00012498662648789148,2.6869715214462954e-05,-0.00018517791735956162,0.999999974682748,-0.00510819607332513,0.005100574675590587,-0.0004434585411670193,0.0,0.0,0.0
1609043646649939537,29,1609043646649939537,-0.007395357113360912,0.00850008669409941,0.0006683772966424239,-0.00012919426416582283,-1.1663277950046381e-05,-0.0001322101209220577,0.9999999828466443,-0.0036590032673011193,0.002048540925134469,3.5092716529506e-05,0.0,0.0,0.0
1609043646749149323,30,1609043646749149323,-0.0068276793233778485,0.008210501921340586,0.0007288314053179643,-0.00011030117096639508,7.3992252595965895e-06,-0.00019496382945337595,0.9999999748840012,0.0010093851776539916,0.001475349970759732,0.00114871915316267,0.0,0.0,0.0
1609043646849887371,31,1609043646849887371,-0.0072245518502999555,0.00970564660640438,0.00045551103692714637,-0.00010976925398126179,-1.8300170960436804e-05,-0.00017880808613840037,0.9999999778217386,-0.0009830087477843126,0.008014703072326929,-0.000936134406696771,0.0,0.0,0.0
1609043646949896812,32,1609043646949896812,-0.007032982951999524,0.009170635177057015,0.0002327995449660221,-0.0001453247587327526,3.955336242216631e-06,-0.0002023321894529549,0.9999999689633742,-0.00020909317652070662,0.003282386062431358,-0.002354923005643583,0.0,0.0,0.0
1609043647049867392,33,1609043647049867392,-0.006066814967017623,0.00979441131524802,0.0001444759053882455,-0.00011442592805618327,4.177142706779718e-06,-0.00014272871591097555,0.9999999832588825,0.005587502180309624,0.005875297756409468,-0.000663220539324694,0.0,0.0,0.0
1609043647149114847,34,1609043647149114847,-0.006869939315846958,0.008796555233204913,0.0003729739049499639,-0.00011795078118040229,1.1941519358673988e-06,-0.00018676970967034358,0.9999999756016279,-0.00214386033258869,-4.5748823737095e-05,0.0014462140259122597,0.0,0.0,0.0
1609043647248377085,35,1609043647248377085,-0.006435607419230765,0.007894585358837186,0.0005580472648838858,-9.865532334811147e-05,5.1532841437557635e-06,-0.00016236927368976675,0.9999999819383917,0.0008097950141640075,-0.0018563445661076337,0.0022414862552777963,0.0,0.0,0.0
1609043647349137545,36,1609043647349137545,-0.005564442903429003,0.008295093956995823,0.0007610191742559673,-0.00011427987149923082,-5.86420164567017e-06,-0.00018684735278142676,0.9999999759968913,0.0051996840870586454,0.0021901403358137498,0.0019906847258372986,0.0,0.0,0.0
1609043647449087381,37,1609043647449087381,-0.005926078084693984,0.00883930225482069,0.0006028324477623706,-0.00011952254820031777,9.177848790045318e-06,-0.00017754654796806952,0.9999999770536724,0.0012229743931728137,0.0035467549757897073,-7.178226359747311e-05,0.0,0.0,0.0
1609043647549005747,38,1609043647549005747,-0.005712419429592117,0.007607595066880722,0.0006132062278747949,-9.742761386774875e-05,1.0650695844467633e-05,-0.0001461314316368884,0.999999984520011,0.0013437072818684496,-0.0015521916200916083,0.000625249266991583,0.0,0.0,0.0
1609043647649821281,39,1609043647649821281,-0.006171865209092316,0.008220741313264055,0.0006226627968023688,-0.00012144200202079398,1.4378804650924321e-05,-0.00022373422696593493,0.99999996749404,-0.0012588803956231397,0.002878205165183922,0.00028671989706136037,0.0,0.0,0.0
1609043647749822617,40,1609043647749822617,-0.006835853953410485,0.010084100592086975,0.0006979323309265769,-0.00013467247338502051,1.9570556076845155e-05,-0.00024344211494713028,0.9999999611081245,-0.0031989037024901202,0.010364335075274355,0.0005703054316775763,0.0,0.0,0.0
1609043647849789143,41,1609043647849789143,-0.007508626856408272,0.009988834085295401,0.0005896911207754962,-0.00012225270049535817,2.760134601922995e-06,-0.00015371327888788827,0.9999999807094405,-0.00564859192667295,0.006978129571600333,0.00018557693734519833,0.0,0.0,0.0
1609043647949795723,42,1609043647949795723,-0.007334764875241355,0.010705197609666506,0.0006782377000027363,-0.0001400341696029026,1.6602231827928465e-05,-0.00019535157125068404,0.9999999709762771,-0.002044134211171563,0.009037027519045804,0.0012947485756349118,0.0,0.0,0.0
1609043648049816132,43,1609043648049816132,-0.0068400204185439665,0.010766494076084309,0.0005968370964287233,-0.00013827676950283317,3.854042934753169e-06,-0.00024341299133782908,0.9999999608073956,0.0014761983351513379,0.00705647169514757,9.145635668499693e-05,0.0,0.0,0.0
1609043648149823904,44,1609043648149823904,-0.006933831509312569,0.010854336917842999,0.00042719291968840005,-0.00013514460784147875,-4.223658600642993e-06,-0.0002106276064185476,0.9999999686770514,0.00038465545216632806,0.006140617291469225,-0.0001417300876730991,0.0,0.0,0.0
1609043648249811172,45,1609043648249811172,-0.006792417234294399,0.010145670429334735,0.0004473778013818,-0.00012149828249685294,9.533593071986366e-06,-0.0002125197896446678,0.9999999699913062,0.0008060342846810636,0.0008824906957549958,-0.00019824782856646937,0.0,0.0,0.0
1609043648349055767,46,1609043648349055767,-0.0070195711991189015,0.00948952771802592,0.0006850492898870941,-0.00011229621545147377,1.5929512039081938e-05,-0.00019686587080760984,0.9999999741898173,-0.0008880048636560429,-0.0017042312845940905,0.001927272421999605,0.0,0.0,0.0
1609043648449815750,47,1609043648449815750,-0.006804368357834854,0.008893984987836967,0.0007087482559890142,-0.00011336602087111237,5.4030826101662135e-06,-0.00012162745943387554,0.9999999861628548,0.0009825072006439954,-0.003053039381303705,0.0010534783849329554,0.0,0.0,0.0
1609043648549771786,48,1609043648549771786,-0.007518611989380004,0.00784888910532442,0.0007344018883341828,-0.00010921411767158259,-6.995584697495167e-06,-0.00014617804034480807,0.9999999833276574,-0.0034250069633739114,-0.004735185274805721,0.000705414048379153,0.0,0.0,0.0
1609043648649788857,49,1609043648649788857,-0.007221334098200772,0.0074485780857557445,0.0006454587089022813,-0.00010411019506522198,7.578955086481937e-06,-0.00014821710637915748,0.9999999835676564,1.507597393241196e-06,-0.0033565787161692028,3.9379689080403174e-05,0.0,0.0,0.0
1609043648749777794,50,1609043648749777794,-0.006139736005604641,0.007693775968742677,0.0006516465824938577,-0.00010069106066390317,-9.01293308350324e-06,-0.00018626598180249102,0.9999999775425286,0.005656515447694757,0.0010845284407049209,9.916955437305668e-05,0.0,0.0,0.0
1609043648849748850,51,1609043648849748850,-0.006754428518231858,0.00872836107130966,0.0007167825880771562,-0.00011150812999645464,1.14082074173401e-05,-0.00015577584160644123,0.9999999815848368,0.00012988936120387866,0.005284601350980429,0.00058148570488993,0.0,0.0,0.0
1609043648948194742,52,1609043648948194742,-0.006794452807480776,0.009546063586841683,0.0006477729113328005,-0.00010750585498704572,5.3917395728569826e-06,-0.00014307392425275603,0.9999999839716347,0.00019052873746358578,0.008631339874122181,0.00018121223488758162,0.0,0.0,0.0
1609043649048983335,53,1609043649048983335,-0.0065525070378743,0.009977429036958186,0.000742684807878966,-0.00010762435952816627,9.568597319759275e-06,-0.00019118067835232524,0.9999999758876923,0.0010418202449479523,0.008114575867120683,0.0008110982888513821,0.0,0.0,0.0
1609043649149759531,54,1609043649149759531,-0.007351828742851369,0.009243110190668397,0.0007856136272467717,-0.00010893740663052326,1.4931505569291043e-05,-0.0001641727855049871,0.999999980478493,-0.00388967071453342,0.0023146105852507835,0.0005411676146465495,0.0,0.0,0.0
1609043649249773979,55,1609043649249773979,-0.00831870071162633,0.00965418926312009,0.0006578077586653426,-0.00013059130637199063,-2.9813359002243667e-06,-0.00016715563163062746,0.9999999774980072,-0.006651468138977771,0.004250084299468415,-3.25644113669042e-06,0.0,0.0,0.0
1609043649349737406,56,1609043649349737406,-0.008184806025182905,0.01071549603431955,0.0006305128805956273,-0.00013925933974408354,8.501994232106993e-06,-0.000165287904210589,0.9999999766072288,-0.0024312522933182404,0.008497033682319957,6.752218419044432e-05,0.0,0.0,0.0
1609043649448188066,57,1609043649448188066,-0.007329366515967022,0.010136360720621556,0.0005075290574688734,-0.00011997016945172107,9.409440110466433e-06,-0.0002102286195630207,0.9999999706612728,0.0024308600114938115,0.003892506635300881,-8.617555561856057e-06,0.0,0.0,0.0
1609043649549730062,58,1609043649549730062,-0.007326005086706836,0.011168402224818486,0.0005662880980003863,-0.00012186157609808992,6.370451677877291e-06,-0.00024077006414540227,0.9999999635694727,0.0016053015876647653,0.00769954088457412,0.00013759013910967966,0.0,0.0,0.0
1609043649649632454,59,1609043649649632454,-0.00790240681012905,0.011964490058173217,0.0006545702879359586,-0.00012805083545397564,9.936925754084649e-07,-0.00018048779376607973,0.9999999755130745,-0.0017973265924267742,0.009499439035479753,0.0016831896200778505,0.0,0.0,0.0
1609043649749647379,60,1609043649749647379,-0.008560195432601276,0.011484176918084656,0.0008568245303440303,-0.00011845555294950468,7.854055883386334e-06,-0.00019894832410611882,0.9999999731630786,-0.005011423527001587,0.003911314767187975,0.0024605829026688518,0.0,0.0,0.0
1609043649848917007,61,1609043649848917007,-0.007927485985622726,0.010618066975374412,0.0006696010546996912,-0.00013399160509787144,-2.196059922674467e-06,-0.00016208309164760326,0.9999999778852479,4.0677517839056605e-05,0.0003380848443229,0.000198104458139922,0.0,0.0,0.0
1609043649948906422,62,1609043649948906422,-0.007949060279291244,0.011973459408603778,0.0008362793596160222,-0.00011931406958255458,1.3204591553622422e-06,-0.00023149509386778924,0.9999999660862127,0.0008841389980530919,0.007149416431279452,0.000995245977066031,0.0,0.0,0.0
1609043650048177958,63,1609043650048177958,-0.00728839218231808,0.011805027140538082,0.0007706022310955869,-0.00010496810649076991,6.844833120121745e-07,-0.00021348878646644745,0.9999999717018804,0.0035253071349700487,0.006275064497803216,0.0007758181501013391,0.0,0.0,0.0
1609043650148972511,64,1609043650148972511,-0.00733860982976858,0.010773590037057463,0.0006197156004738259,-0.00012917651383073005,-7.674824948531972e-06,-0.00018729221843129793,0.9999999740880727,0.0010819004131263099,0.0006051629972646105,-0.000318668661727487,0.0,0.0,0.0
1609043650249700785,65,1609043650249700785,-0.008437440794822995,0.010982119132496118,0.000527089188967784,-0.00013828752641572724,8.750196242611385e-06,-0.00016962869278838152,0.9999999760130485,-0.004755508230638811,0.0016713502825303002,-0.0007585067062846115,0.0,0.0,0.0
1609043650348896027,66,1609043650348896027,-0.008062300555273684,0.0111384340198684,0.0004902982253800244,-0.0001415816778937339,1.4057276766288528e-05,-0.00018733237862064952,0.9999999723317986,-0.0007551299064939305,0.003181488808918131,-0.00030487658059947566,0.0,0.0,0.0
1609043650448890448,67,1609043650448890448,-0.008525247712253572,0.01033083206791892,0.0004829295270397546,-0.00013437455258185816,1.3109558753704913e-06,-0.00013495442028815935,0.9999999818645312,-0.0028514615297461667,-0.00037279734352659846,-0.0002744302984509431,0.0,0.0,0.0
1609043650548893213,68,1609043650548893213,-0.008472977394591071,0.010957092014225523,0.0006807478926798773,-0.00010968922675400418,-3.474945847547407e-06,-0.0001910070883577765,0.9999999757362436,-0.0006333675941085626,0.0029923751265269775,0.0014210085739499233,0.0,0.0,0.0
1609043650648902178,69,1609043650648902178,-0.00796561527192796,0.009268765618756605,0.0007212985900925246,-0.00010557722422330532,-4.468490315821421e-06,-0.00013486541506273317,0.9999999853223994,0.001664094116107668,-0.0032912986882858344,0.0008171622793128176,0.0,0.0,0.0
1609043650748888254,70,1609043650748888254,-0.007753917987988789,0.008457810516580466,0.0008956290464710429,-0.00010345008209508496,3.256844856434538e-06,-0.00017716127355515385,0.9999999789506766,0.0013948535928222407,-0.003869475763134014,0.0011917511493081915,0.0,0.0,0.0
1609043650849593639,71,1609043650849593639,-0.0077616644870729026,0.00783697306236692,0.0008726871706653953,-0.000127363685944409,1.0999233957745115e-05,-0.00019926822813742427,0.9999999719748389,0.0005324474486903569,-0.0042313919322397,0.00038738900798777177,0.0,0.0,0.0
1609043650949608803,72,1609043650949608803,-0.008240636929427187,0.00867904077081199,0.0007205116235698113,-0.0001189778161200433,1.8533294177373333e-06,-0.00014420171560623778,0.9999999825233522,-0.0008864394333760266,0.0006108907488251514,-0.0005166766754998107,0.0,0.0,0.0
1609043651048833609,73,1609043651048833609,-0.008472147883886512,0.010107916816502067,0.000693570526033294,-0.00010712251720462155,-5.387299643645206e-06,-0.00018162949914115527,0.9999999777532309,-0.0013896130810653901,0.007536205445529738,0.00010441139898289327,0.0,0.0,0.0
1609043651148894787,74,1609043651148894787,-0.007677667690167651,0.009682670440011146,0.0004668892530791354,-0.00012888349617503128,1.6872066443629004e-05,-0.0001726415249950867,0.9999999766496372,0.0030954632413131393,0.004342476544043978,-0.001676796733264511,0.0,0.0,0.0
1609043651249674797,75,1609043651249674797,-0.006592493935732759,0.010281203014377856,0.000596405040145313,-0.00011461095037657165,-7.969711213722965e-06,-0.00019177189017319086,0.9999999750121742,0.007537189212970389,0.006643371417301999,0.0010360904861818011,0.0,0.0,0.0
1609043651349647522,76,1609043651349647522,-0.006759107609555921,0.010606470880600832,0.0007496673877869548,-0.000127794430638994,5.973516315476708e-06,-0.0001983240656567184,0.9999999721502292,0.0028961991371939076,0.006696860100843174,0.0019488982472436122,0.0,0.0,0.0
1609043651449622393,77,1609043651449622393,-0.006889263150194948,0.010862858325861051,0.0010147688594236998,-0.00010642216332750716,1.040268331359791e-05,-0.00020375976880755174,0.9999999735240279,0.0003718539406901899,0.005965794575520359,0.003295496165982539,0.0,0.0,0.0
1609043651549555779,78,1609043651549555779,-0.0069114731577695045,0.00964234481221125,0.0009542885041075803,-0.00010651231155354724,2.738529916648561e-05,-0.0001706579936842196,0.9999999793905076,-0.0007282605665007013,-0.00017963207766076399,0.0009776584122212805,0.0,0.0,0.0
1609043651649546385,79,1609043651649546385,-0.008392584785330377,0.011100928451366641,0.0009237460560408823,-0.00012312662391277015,1.061849703088639e-05,-0.0001667242996322329,0.999999978465041,-0.006650832373378009,0.005984631568386815,-8.505314404604186e-05,0.0,0.0,0.0
1609043651749549150,80,1609043651749549150,-0.00937834363336289,0.011587199413671844,0.0007079447864510103,-0.00013327603109398683,-2.4002726149956796e-08,-0.00019456854236741465,0.9999999721902864,-0.008059952144456657,0.005776812542554387,-0.0011654127657683027,0.0,0.0,0.0
1609043651849535227,81,1609043651849535227,-0.009399164793649994,0.010730344960137868,0.0006549782081916152,-0.00013287305379921146,4.453262520815163e-06,-0.0001718093575817391,0.9999999764032274,-0.004525893045726194,0.001264445452005514,-2.573391228020321e-07,0.0,0.0,0.0
1609043651949546099,82,1609043651949546099,-0.009268735963438544,0.011156801226767628,0.0005232766178482826,-0.00013830119311095525,-3.606172464842628e-08,-0.0002005107742269101,0.9999999703340982,-0.0014345332929942547,0.004500505640971317,-0.0002285602519166638,0.0,0.0,0.0
1609043652049604654,83,1609043652049604654,-0.007913162591299353,0.01110521855068877,0.0007354230104728041,-0.00010048161088948249,-6.976468129577147e-06,-0.00021091208858876572,0.9999999726854272,0.005689532668100742,0.005229425166711656,0.0004687284387491339,0.0,0.0,0.0
1609043652149615526,84,1609043652149615526,-0.007438811253383032,0.011538625931375885,0.0007622760279849976,-0.0001519833129015582,-4.758869151218703e-06,-0.00020004670150012925,0.9999999684298653,0.005686297517934785,0.006581846304489677,0.0017375635811246743,0.0,0.0,0.0
1609043652248080254,85,1609043652248080254,-0.007376787553804378,0.012860811913000526,0.0009358053546975301,-0.0001191930424619175,7.419370695779018e-07,-0.0002334153134087669,0.9999999656548733,0.0031132501418794714,0.011334525515327478,0.0019843714569794117,0.0,0.0,0.0
1609043652349651814,86,1609043652349651814,-0.007538874319887015,0.013679371030862987,0.0009849502670450786,-0.00011804605688944265,-6.909991734157094e-07,-0.00020444555056243664,0.999999972133328,0.00046198459956833674,0.010677534501255824,0.0019835557374857215,0.0,0.0,0.0
1609043652449633121,87,1609043652449633121,-0.007928507687381152,0.013296843349363012,0.0010280813532350594,-0.00013073328606645962,-4.180825952335612e-06,-0.00022601371086317947,0.9999999659045594,-0.001963105885955803,0.00630083885115353,0.0011984431221221813,0.0,0.0,0.0
1609043652549579144,88,1609043652549579144,-0.007682786833795916,0.011559214596114042,0.0010794041689671603,-0.00010691040264675495,8.84198208852229e-06,-0.00022003896316786614,0.999999970037413,-0.0003147895569301397,-0.0024631776862785084,0.0012802879360239846,0.0,0.0,0.0
1609043652649571896,89,1609043652649571896,-0.007575832268828489,0.01097541290389041,0.001059976339490774,-0.00013123597357088667,2.7969362045165528e-06,-0.0001749914600092978,0.9999999760736359,0.0002594099410921317,-0.0025710144309696683,0.0011472867063108071,0.0,0.0,0.0
1609043652749566317,90,1609043652749566317,-0.008124643173154955,0.010745316196114435,0.0010760080876938238,-0.00011806411555601051,1.1951223767336464e-05,-0.000213932035192655,0.9999999700755515,-0.002087432035453108,-0.0018952642882261019,0.0015566376685759204,0.0,0.0,0.0
1609043652849474430,91,1609043652849474430,-0.008817395759166043,0.0112937205078597,0.00099173648512993,-0.00010273041743378193,-5.684184606114945e-06,-0.00018868457196576753,0.9999999769061341,-0.004255801468684566,0.0016106123666114955,-1.4374390444846859e-05,0.0,0.0,0.0
1609043652949413061,92,1609043652949413061,-0.008121030799546508,0.00979260245595464,0.0008889666843031126,-0.00011699746013043239,-1.2935579677642419e-05,-0.00017841181713841236,0.9999999771567364,0.00020997831856907085,-0.00412803084974664,-0.0006500563155897826,0.0,0.0,0.0
1609043653047894001,93,1609043653047894001,-0.007972671890413814,0.009562976315867961,0.0006395768760160919,-0.00011245068069107845,7.510464982353473e-07,-0.0001614740945193539,0.9999999806401904,0.0005857234936221318,-0.0025492108358089634,-0.0014187255295866606,0.0,0.0,0.0
1609043653149451017,94,1609043653149451017,-0.007101288858256345,0.01011714568444613,0.0007419101366613995,-0.000103193072854285,1.6838220006478145e-06,-0.00020861559165669816,0.9999999729139356,0.005294313111210693,0.001601834788646156,0.00037058416580307524,0.0,0.0,0.0
1609043653247955561,95,1609043653247955561,-0.007834241785870383,0.009680789135587063,0.0007773039385454643,-0.00011017934327564373,2.1343897300345433e-06,-0.00016205383938215742,0.9999999807972457,-0.0010491836132229598,-2.6775175837116067e-05,0.0003840781567792475,0.0,0.0,0.0
1609043653349524021,96,1609043653349524021,-0.008397362092159587,0.010518252291388324,0.0009301078902527976,-0.00013620310242717137,1.3677458969550597e-05,-0.00021606519668530984,0.999999967288726,-0.0029586479342673675,0.004797870980171575,0.0009198596049422451,0.0,0.0,0.0
1609043653447958231,97,1609043653447958231,-0.009106768361657082,0.011089730009948643,0.001018966158579443,-9.004244440153604e-05,-9.615400073482548e-07,-0.00019666400552340385,0.9999999766073407,-0.0053027319057058,0.006227496818345514,0.0014840287857511413,0.0,0.0,0.0
1609043653548684359,98,1609043653548684359,-0.008504069555955696,0.010012262088595797,0.0009606627126853906,-0.00013182447414395143,6.104395322970526e-06,-0.0001753907837004255,0.9999999759115487,-0.0006391404204540273,0.0006990187174616387,0.0003975407765545141,0.0,0.0,0.0
1609043653649473429,99,1609043653649473429,-0.007999377253010805,0.010688037139973593,0.0008845819168588011,-0.00011369669663807354,-5.359745559005811e-06,-0.00016606178526481222,0.9999999797338982,0.002705847486062742,0.004876710977836523,-0.0009549379408691366,0.0,0.0,0.0
1609043653748713493,100,1609043653748713493,-0.007737386704057455,0.011159919304364078,0.0007607448509377074,-0.0001244354854180541,7.64673810414505e-06,-0.00018891944646257458,0.9999999743833786,0.0028192595135496127,0.005693848470620202,-0.0004022582126304713,0.0,0.0,0.0
1609043653849478245,101,1609043653849478245,-0.008441451508370527,0.01268016699231035,0.000890404551346912,-0.00013750280700440234,1.9285209513236166e-05,-0.00020477311713487894,0.9999999693945034,-0.0018993828447044841,0.010225934179311693,0.000855849173874339,0.0,0.0,0.0
1609043653947903633,102,1609043653947903633,-0.008728990991734005,0.011728820403463564,0.0007970431451801564,-0.00010819438605898688,-2.7401423531378305e-06,-0.0002347483889901135,0.999999966589819,-0.0027329915922701038,0.00371040910586905,0.0003746320423146205,0.0,0.0,0.0
1609043654049443960,103,1609043654049443960,-0.009195621541554167,0.012103852244743061,0.0009818973917131524,-0.00010480021438208234,-1.3111966848390263e-05,-0.00016316307592548326,0.9999999811113903,-0.0031078790613062405,0.0052230016543880296,0.0019968234955359447,0.0,0.0,0.0
1609043654148656130,104,1609043654148656130,-0.009015157019339913,0.011096216532312624,0.0009122602030720881,-0.00013508558982711365,2.9263510589461724e-06,-0.0001828269562589756,0.9999999741588013,-0.0012972276677012664,0.0003985964908300504,0.0012553465477806143,0.0,0.0,0.0
1609043654249510765,105,1609043654249510765,-0.008764586993742128,0.011389040325619926,0.0009049508204168425,-0.0001354343914653836,1.2470001530556686e-05,-0.00016618620564377065,0.9999999769420739,0.00016716665948347267,0.0032296410490643994,0.001239569050645315,0.0,0.0,0.0
1609043654349501371,106,1609043654349501371,-0.007831512855537638,0.0114645277065691,0.0010366415066106432,-0.00010189124239104501,-2.922081711786864e-06,-0.00021476059490450737,0.9999999717437504,0.004936321754134932,0.004056681908772603,0.0013140344119919366,0.0,0.0,0.0
1609043654449480057,107,1609043654449480057,-0.007897750302847216,0.010286583288222094,0.000860814335336722,-0.000129606650346971,7.46337394532951e-06,-0.000161979777627604,0.9999999784544721,0.0013351462579960695,-0.0010324742219523708,0.00020382662166915436,0.0,0.0,0.0
1609043654547889471,108,1609043654547889471,-0.008582024097982215,0.01053853618050724,0.0007818830050710202,-0.00012276374836117253,-1.2038716928814762e-07,-0.00021348825674065777,0.9999999696758947,-0.002296492366190408,0.001719650203057383,5.186116447268373e-05,0.0,0.0,0.0
1609043654647796154,109,1609043654647796154,-0.007678790394402811,0.0098979401450014,0.0008449761360812319,-9.853097477761276e-05,-7.839530030850499e-06,-0.00022211756749538014,0.9999999704469763,0.0030769135102943607,0.00032500436698423385,0.0009899630347487542,0.0,0.0,0.0
1609043654747781277,110,1609043654747781277,-0.007326794882953794,0.010547890124016315,0.0009574260651634622,-9.720254150491241e-05,-1.22544491499548e-06,-0.00022825266400880806,0.9999999692254316,0.003804266505771431,0.004124535803233276,0.0012172316751757552,0.0,0.0,0.0
1609043654849348545,111,1609043654849348545,-0.007857962059886314,0.010348012201451522,0.0010553223893713217,-0.00012440617355101137,1.05544381231157e-05,-0.00018612901278087507,0.9999999748838385,-0.00032978900230183194,0.0020245324734798663,0.0013463651324135924,0.0,0.0,0.0
1609043654948576689,112,1609043654948576689,-0.008025591047813543,0.012262853905600366,0.0010581781550824828,-0.0001285695175889527,1.2553563313440195e-05,-0.00020328993907526465,0.9999999709927333,7.088284070931556e-06,0.009430058444291864,0.0011706730827443564,0.0,0.0,0.0
1609043655047832251,113,1609043655047832251,-0.008193234136168844,0.011138244343649236,0.0009705875755371098,-0.00011307425365758808,1.2510375281673105e-06,-0.0001476631125059351,0.9999999827041163,-0.0014464439464831017,0.001862599663566395,0.00014983812844204607,0.0,0.0,0.0
1609043655149371386,114,1609043655149371386,-0.007834147963290496,0.010977602631047231,0.0011098936465061087,-0.00011033339838257827,-3.525019988361771e-06,-0.000183873716102781,0.9999999770022753,0.0013448916217735506,0.001174076462771856,0.0013617902918103084,0.0,0.0,0.0
1609043655248605490,115,1609043655248605490,-0.007833848514005478,0.010759558432200724,0.0012170778728463351,-0.00012263161558086913,7.195357579143008e-06,-0.000169324213253451,0.9999999781195014,0.000528583186854043,0.00028247909192199137,0.0013212799256263122,0.0,0.0,0.0
1609043655349396944,116,1609043655349396944,-0.007666920437690345,0.010015698557880048,0.0009438646882061482,-0.00014448736420280008,2.8205735750676573e-06,-0.00016681225563948852,0.9999999756445473,0.0007014937074809238,-0.0012660050366944025,-0.0003941074493754315,0.0,0.0,0.0
1609043655449408531,117,1609043655449408531,-0.0076977082375948615,0.00950199949273041,0.0009312191757475788,-0.00012900748457163108,2.2051175315480367e-06,-0.00012554928838032851,0.9999999837947797,0.00018547594337546232,-0.001481417800629499,0.000917524589900855,0.0,0.0,0.0
1609043655549441814,118,1609043655549441814,-0.007812209504510297,0.009252279527269038,0.0009675641627447996,-0.00012608343778516156,2.7193573718543617e-06,-0.00018859545279127236,0.9999999742636515,-0.0008146828882600382,-5.983394552015037e-05,0.001283366698170804,0.0,0.0,0.0
1609043655647859812,119,1609043655647859812,-0.008167237956824431,0.010145179288018075,0.0009426650147755966,-0.0001264481966182159,1.0871010407349097e-05,-0.00018976877038835529,0.9999999739402323,-0.001696944623575143,0.0052393071524245586,0.0011720466564299349,0.0,0.0,0.0
1609043655749380112,120,1609043655749380112,-0.007823549602076568,0.010622764656291998,0.0008943040703128001,-0.00012444124253650283,-3.3367085636478265e-06,-0.00021140865941455929,0.999999969904799,0.0008760578864828688,0.006612488511928483,0.000545631716626144,0.0,0.0,0.0
1609043655849360228,121,1609043655849360228,-0.007291553841751324,0.011283072088850153,0.0006200330619598574,-0.00015319080984412082,-5.860317401486073e-06,-0.00026467408566336644,0.9999999532229173,0.0031797095074503168,0.008551214825184308,-0.000984488043120171,0.0,0.0,0.0
1609043655949323416,122,1609043655949323416,-0.006973075244910604,0.012457030163459221,0.0009314176260396947,-0.00011358252846940795,9.026318038847204e-06,-0.00018498576447045995,0.9999999763988888,0.003390523071920632,0.01059317041393042,0.00175132176084124,0.0,0.0,0.0
1609043656049363136,123,1609043656049363136,-0.0075406813998346945,0.012442758243146211,0.0009806930895076347,-0.00014283315318235713,2.424430234081842e-06,-0.00017942092567883405,0.9999999737004598,-0.001834229995311575,0.0068249190628787435,0.0009645023542440834,0.0,0.0,0.0
1609043656149344444,124,1609043656149344444,-0.007710592243741921,0.011743659397898605,0.0008115210475148111,-0.00014542563211139106,-3.6137355973375635e-06,-0.0001624643793464932,0.9999999762218137,-0.002380097784081129,0.002897611454673059,-0.00025193357870484845,0.0,0.0,0.0
1609043656249359846,125,1609043656249359846,-0.008637048091647517,0.012494645678453254,0.0008096836778102528,-0.00012616583208824083,5.531671609243349e-06,-0.00020411230717898513,0.999999971194862,-0.005544010654617355,0.0059616156468710445,-0.00047632789251930675,0.0,0.0,0.0
1609043656347746134,126,1609043656347746134,-0.008322001485301898,0.012224853250124366,0.0008643851233162595,-0.0001143983640839931,9.523327699120049e-06,-0.0002080485826810222,0.9999999717690417,-0.0015196632826423363,0.004426090557222608,0.00036975649032695683,0.0,0.0,0.0
1609043656449317217,127,1609043656449317217,-0.007958727113148167,0.010912397722126353,0.0008212248092725035,-0.00013952978530954634,8.228447397252388e-06,-0.00018625264167321405,0.9999999728868304,0.00019044525934760938,-0.0018042675717182231,0.00012797890827288832,0.0,0.0,0.0
1609043656549298048,128,1609043656549298048,-0.007838359392315038,0.011718686918316587,0.0008820700510479179,-0.00013090983077588384,1.0402735684063988e-05,-0.0002162824528559713,0.9999999679881381,0.0013527659793115758,0.0029921731465287894,0.0006509902135792228,0.0,0.0,0.0
1609043656648549318,129,1609043656648549318,-0.008967149290050925,0.012749636017318204,0.0008810442383437486,-0.0001304157441305416,1.2605691669840582e-05,-0.00022358819047471165,0.9999999664205632,-0.004655114386993111,0.0066099507811467305,0.0005529062081418636,0.0,0.0,0.0
1609043656748527288,130,1609043656748527288,-0.008346221187241357,0.01190509145309686,0.001042126636337002,-0.00012744214520203154,8.518593141153728e-06,-0.0002143420967162137,0.9999999688716873,0.00044995229101872994,0.002397601938469279,0.001790780645247758,0.0,0.0,0.0
1609043656849294186,131,1609043656849294186,-0.00749799076169444,0.012060636065380444,0.0009888867998951226,-0.00012653083360298343,-2.1119024209311983e-06,-0.00021274071226566916,0.9999999693634269,0.004684657094841818,0.003026271315018751,0.0008186898176122147,0.0,0.0,0.0
1609043656947771072,132,1609043656947771072,-0.008478959755657725,0.012988951248126773,0.0008193805625135379,-0.00011949792632736499,4.988537239321044e-06,-0.00022048416495545117,0.9999999685410343,-0.0018209931069643843,0.006726147669102867,-0.0006452838562178986,0.0,0.0,0.0
1609043657047723055,133,1609043657047723055,-0.007390565665682597,0.012590822806662877,0.0007308762593718579,-0.00013937729783983886,5.365234813172742e-06,-0.00021808297196771316,0.9999999664924877,0.003929082160722602,0.004518401618458157,-0.0001002754887889773,0.0,0.0,0.0
1609043657149266005,134,1609043657149266005,-0.007583399930120851,0.012521263856260052,0.0009394811412471919,-0.000132917026965625,3.249331718812121e-06,-0.00021898993527868168,0.9999999671829445,0.0007821921562409548,0.0030795212850335723,0.0016378942641842387,0.0,0.0,0.0
1609043657249243259,135,1609043657249243259,-0.007144927443273172,0.011209115466340498,0.0011295487543363006,-0.00011370392793378648,1.1106326779246125e-05,-0.00024330519948962076,0.9999999638753103,0.0015706910331970158,-0.001754201820830763,0.002225460146277155,0.0,0.0,0.0
1609043657347702026,136,1609043657347702026,-0.006805573792294113,0.01169901312534962,0.0011290489049524694,-0.00010124937066818787,6.981275470578695e-06,-0.00018452563770426217,0.9999999778250455,0.002930315509100144,0.0018084858801027275,0.0011304767077528085,0.0,0.0,0.0
1609043657449279308,137,1609043657449279308,-0.007444119611755154,0.010600653815495974,0.0009486920653244347,-0.00014072059153032008,8.69858965118334e-06,-0.00022525573367872083,0.9999999646909383,-0.0024321077275982557,-0.0028032668781078013,0.0007642975986420387,0.0,0.0,0.0
1609043657549335480,138,1609043657549335480,-0.007283522338881337,0.009774971353064352,0.001005457093093429,-0.00011713195614849886,1.3626903970191709e-05,-0.0002216814300371032,0.9999999684758637,-0.0006050355329088794,-0.004641504330292458,0.0008540825817799098,0.0,0.0,0.0
1609043657648470640,139,1609043657648470640,-0.006714768958432781,0.009770698701727197,0.0010576464831734758,-9.791572834226638e-05,2.4915282265932e-06,-0.00018970121396082333,0.9999999772098622,0.002879266031724742,-0.0016579930055974647,0.0011941928300694675,0.0,0.0,0.0
1609043657749243736,140,1609043657749243736,-0.00712823763778914,0.009498332297840547,0.0008219122329190831,-0.00012553590750421836,7.384196771518463e-06,-0.00017694202766165641,0.9999999764388506,-0.0003519094987457249,-0.0008927701539757179,-0.0010289434948903082,0.0,0.0,0.0
1609043657849222660,141,1609043657849222660,-0.0072137672035060005,0.01046665322829622,0.0007819586954554541,-0.00012185637148022404,-3.2022364046547403e-06,-0.00020353138662874805,0.9999999718578583,-0.00011511346033507032,0.005364771378233936,-0.00043401301138390534,0.0,0.0,0.0
1609043657948506355,142,1609043657948506355,-0.007530734827334738,0.011154388909983024,0.0007564584039229362,-0.00014099888172303533,1.569757012560442e-05,-0.00015953448532441102,0.9999999772108108,-0.001656930515752377,0.00800800253592679,0.00020631117625567535,0.0,0.0,0.0
1609043658049246788,143,1609043658049246788,-0.008415420547381256,0.011717153393223463,0.0007123502952697279,-0.0001127412008942456,1.0600553345200571e-05,-0.00023398827881616059,0.9999999662132528,-0.005360076084738788,0.008426726497265766,-0.00040415726468636456,0.0,0.0,0.0
1609043658149199486,144,1609043658149199486,-0.008206427448768717,0.011904424691412997,0.0009107699012214203,-0.00010031561820003301,-1.8545268655893583e-06,-0.0001778914533992178,0.9999999791439695,-0.0017551864197304689,0.006786393174779935,0.0014642587088098888,0.0,0.0,0.0
1609043658247608185,145,1609043658247608185,-0.00806254232283209,0.010728255917862367,0.0009195851643683018,-0.0001008383389119828,9.167347628606923e-06,-0.0001988836917154923,0.9999999750964182,-0.001340328213179791,0.0012299846799782785,0.0013017281402079267,0.0,0.0,0.0
1609043658348373175,146,1609043658348373175,-0.00772208427041141,0.010591943707225873,0.0008717805448438351,-0.00012648681682514396,1.906931452145243e-05,-0.0001780734946562904,0.9999999759636242,0.0009393078519853017,0.001973854103696525,0.0002808546791679777,0.0,0.0,0.0
1609043658448398590,147,1609043658448398590,-0.007788567254700665,0.010846562787759837,0.0009720023574799392,-0.00010549282522731672,1.0950412539923475e-05,-0.0002015062914041863,0.9999999740732687,0.00012886381023804604,0.003294731337025617,0.0013763988492840073,0.0,0.0,0.0
1609043658547624826,148,1609043658547624826,-0.007422972256630409,0.011380030816110099,0.0008936912882686385,-0.00011830598954686226,1.1481723293709027e-05,-0.0001636882843110116,0.9999999795389898,0.0017822657745263577,0.006004503797658143,0.0009120602850935348,0.0,0.0,0.0
1609043658648339033,149,1609043658648339033,-0.007632689104101305,0.011187743860199967,0.0009042136390586135,-0.00012472043103726899,7.5233832545936425e-06,-0.00020100112534381648,0.9999999719933653,-0.0001563698743730739,0.005114103483157253,0.001507626362838746,0.0,0.0,0.0
1609043658749153852,150,1609043658749153852,-0.006761881378946323,0.010434871321065181,0.0009871959599183145,-0.00012412636605015778,1.3404671204327589e-05,-0.00020948116224558068,0.9999999702652865,0.0036320947616834123,0.001877194753889188,0.0015704850380720595,0.0,0.0,0.0
1609043658848412991,151,1609043658848412991,-0.007048178571617791,0.010487365289932212,0.0008172394014032599,-0.00011021371226066551,-2.620623344921293e-06,-0.00021424197431473986,0.9999999709732087,8.059426187699862e-05,0.0030736298364498218,0.0004646288534821794,0.0,0.0,0.0
1609043658949207544,152,1609043658949207544,-0.006457265959673285,0.010751733125820312,0.0009031715254489019,-0.00010568891722923806,9.74298612474175e-06,-0.00019205390573120808,0.9999999759250979,0.00277046274335899,0.004585359784498444,0.000812425177029767,0.0,0.0,0.0
1609043659048398018,153,1609043659048398018,-0.005276291309072197,0.010242814198869474,0.0008232681016335882,-0.00012212588909244138,1.2798530766678211e-05,-0.0001837011627435446,0.9999999755876593,0.006535983808049574,0.0027327006033379584,-0.00045959616911871924,0.0,0.0,0.0
1609043659148364544,154,1609043659148364544,-0.005710205751350653,0.010863809028319578,0.0006879207749690304,-0.00012371457312353618,6.3283117375632445e-06,-0.00020495917826205578,0.9999999713231814,0.0014445901204693662,0.005465122169500541,-0.0011118472998225752,0.0,0.0,0.0
1609043659249121428,155,1609043659249121428,-0.007319948576222053,0.01113774785741726,0.0006107294766532293,-0.00013656622641401508,1.871553138970797e-05,-0.0001874298918541859,0.9999999729347003,-0.007346741259717707,0.004070256697340744,-0.0004993360349117569,0.0,0.0,0.0
1609043659347587109,156,1609043659347587109,-0.00840222246441882,0.012480801354135995,0.0006401004961003836,-0.00014007431397494924,2.0334115170521915e-05,-0.00015761032040676945,0.9999999775623339,-0.008908684482506082,0.008734007635044897,0.0004903104897141636,0.0,0.0,0.0
1609043659449136019,157,1609043659449136019,-0.008059329773471253,0.013080571540725021,0.0008917188211895302,-0.00012102679693674987,1.3424523754420978e-06,-0.00023932165274460419,0.9999999640379141,-0.0028910655909444834,0.009402312787051696,0.0017892932651671868,0.0,0.0,0.0
1609043659549087763,158,1609043659549087763,-0.007696038394832134,0.01310255446737557,0.0007050717642853001,-0.00014880456738203778,7.697762852560656e-06,-0.00020389877421510307,0.9999999681116025,-0.000425413353597743,0.007545678549721402,3.369881999948582e-06,0.0,0.0,0.0
1609043659647534370,159,1609043659647534370,-0.00790178876407398,0.012487049910431366,0.0007235194265343789,-0.00013443722867729184,7.778372845875712e-06,-0.0002329432060736828,0.9999999638017806,-0.001569968351665784,0.0030521238831231765,0.001249867271141973,0.0,0.0,0.0
1609043659747555494,160,1609043659747555494,-0.007704995866739645,0.012860810959709227,0.0007766729275181977,-0.0001179244204381131,2.1579272122095167e-06,-0.00019663598027987457,0.999999973711718,0.00011867664988633318,0.0044893199942939825,0.001252104915306695,0.0,0.0,0.0
1609043659849138975,161,1609043659849138975,-0.008688097942070632,0.012356336353066894,0.0010091379015123058,-0.00011991152403976633,6.503986146393933e-06,-0.0001943727962362025,0.9999999738990554,-0.0049351259734083715,0.0006385575520712048,0.0025915535634386646,0.0,0.0,0.0
1609043659947551489,162,1609043659947551489,-0.0076036672499050365,0.011365019632532856,0.0010953668054987432,-0.0001230156612848679,1.271510398424013e-05,-0.0002143712245840492,0.99999996937521,0.002240910118463996,-0.0013177685501154187,0.0018454173878414595,0.0,0.0,0.0
1609043660049129963,163,1609043660049129963,-0.008545861032770862,0.010791291278638569,0.0010345977629318064,-0.00013595688142486618,1.5452154128713668e-05,-0.00017081066430939772,0.9999999760503212,-0.0038025021691786903,-0.0020822772736139175,0.0010582123919123164,0.0,0.0,0.0
1609043660148376942,164,1609043660148376942,-0.0077429830239605195,0.010482332671068037,0.0007611059548261296,-0.0001345978591049721,2.4036157703703393e-05,-0.00017299954494053875,0.9999999756884023,0.0020823819475955865,-0.0008453146379656846,-0.0007868888722843742,0.0,0.0,0.0
1609043660249565125,165,1609043660249565125,-0.007167226518508933,0.010531751758722497,0.0007091820353752422,-0.00013007479581347828,1.1839855134293167e-05,-0.0001860101845226321,0.9999999741702719,0.004386098309466202,0.00045233855252967744,-0.000568628547028081,0.0,0.0,0.0
1609043660349072218,166,1609043660349072218,-0.008534019835689466,0.011500963786842223,0.000914717444231347,-0.0001241854096671318,7.883014449643085e-06,-0.0001862223050702646,0.9999999749185307,-0.004054779150653649,0.005332151254957163,0.0012212394358388147,0.0,0.0,0.0
1609043660448291779,167,1609043660448291779,-0.007671642099763423,0.010541625499084373,0.0009045299697321861,-0.00012324602013103858,1.2669261784378151e-05,-0.00014236301822343787,0.9999999821913226,0.001408980764724275,0.0005043609559453911,0.0010115444108210712,0.0,0.0,0.0
1609043660547450542,168,1609043660547450542,-0.007735711365669211,0.011658869378176184,0.0007413047159358598,-0.00013374748975113264,1.5187993330643872e-05,-0.0002384518992530528,0.9999999625107949,0.0008963415493223268,0.006035301641063804,-0.0007752313738217792,0.0,0.0,0.0
1609043660647512913,169,1609043660647512913,-0.008124139627612484,0.012433851602850229,0.0007969063660001358,-0.00011779704638114229,-2.835505852570959e-06,-0.00023419448800815856,0.9999999656343614,-0.0017430242207969705,0.007883341902545683,0.0006508477270480853,0.0,0.0,0.0
1609043660747556686,170,1609043660747556686,-0.008336238897713876,0.012355179461539386,0.000981243565787459,-0.00010593633254115122,3.3038613619682213e-07,-0.00021912256904972434,0.9999999703813247,-0.0020164183340264465,0.005467178428658541,0.0016848648435671134,0.0,0.0,0.0
1609043660849076271,171,1609043660849076271,-0.008950206594021955,0.011414932562638425,0.000969217435675188,-0.00013311075997886552,7.687196404104017e-06,-0.0001878029761900845,0.9999999734762194,-0.00447710812454506,-0.00029906379069559366,0.0007445090356626679,0.0,0.0,0.0
1609043660948253155,172,1609043660948253155,-0.008428149682830378,0.011317662430201303,0.0008582804284350678,-0.00013211605284194436,8.175900446376965e-06,-0.0002033432115895223,0.9999999705650021,-2.214608390893602e-06,0.0014665800416769857,-0.0005824900427945297,0.0,0.0,0.0
1609043661049013853,173,1609043661049013853,-0.008044898291054713,0.011162848847236083,0.0007394172565360307,-0.0001420923698653282,2.645557230526162e-06,-0.00011019015946228398,0.9999999838304254,0.0018340023091976817,0.00233072634152477,-0.0005113686953861256,0.0,0.0,0.0
1609043661149021387,174,1609043661149021387,-0.008116288323912244,0.011879797145378266,0.0008041442949256903,-0.00013682333023994525,2.068965928096708e-05,-0.00019444365272398595,0.9999999715214708,0.0007842150304741202,0.004590657446901625,0.0006311852411268305,0.0,0.0,0.0
1609043661249065876,175,1609043661249065876,-0.008145659136058674,0.01169782517276183,0.0008035497670434498,-0.00013021264738159022,-8.661418511177466e-06,-0.00019870795855984116,0.9999999717423771,0.00014482658894792626,0.0027779575285195183,0.0012501505941389596,0.0,0.0,0.0
1609043661349044085,176,1609043661349044085,-0.00770921223708282,0.010676888356971618,0.001022684381772369,-0.00012899385932453846,1.4391733386713626e-05,-0.0002059102023126495,0.9999999703772052,0.0020707311009327007,-0.0005693679871009113,0.0019024716837638652,0.0,0.0,0.0
1609043661447478056,177,1609043661447478056,-0.0077562489917844145,0.010077228858155549,0.0008935387434989509,-0.00012968147826666822,1.619341674027607e-05,-0.00014110146349723184,0.9999999815054125,0.0005484165891975745,-0.0018365277517157514,0.00097720893192797,0.0,0.0,0.0
1609043661547459364,178,1609043661547459364,-0.007405560504291701,0.007916758252058726,0.0007569495739774426,-0.00012402734107136302,7.4169200718411644e-06,-0.0001846260407344719,0.9999999752376965,0.0013197243860646178,-0.008218083793412385,0.0007313609914144662,0.0,0.0,0.0
1609043661648280382,179,1609043661648280382,-0.007350072188594856,0.007369142477481089,0.0008347081440362676,-0.00012439312067819117,1.4762899247402145e-05,-0.00014639189145712833,0.9999999814388912,0.0010092579758031683,-0.005503938709296588,0.0014986833386863509,0.0,0.0,0.0
1609043661749056339,180,1609043661749056339,-0.006839987497080718,0.00799765287547439,0.0008426816569933582,-0.0001234664197886316,1.7957865158964134e-05,-0.00011865979432173252,0.9999999851766859,0.0037419327186217293,0.00038763491585838694,0.0007065054089646024,0.0,0.0,0.0
1609043661849058390,181,1609043661849058390,-0.0066127108358946755,0.00897413701628637,0.0007079086256075795,-0.00014680611585615795,2.162375165814046e-05,-0.0001452973013351191,0.9999999784345157,0.003596207159860225,0.005227925628629781,-0.00036259663865402845,0.0,0.0,0.0
1609043661947411776,182,1609043661947411776,-0.007483698064186373,0.010049840941092894,0.0007447230078403646,-0.00011201812322139947,1.587646856402703e-05,-0.00020869182150589938,0.9999999718237803,-0.0020132125229524083,0.008507364879825889,0.0010247927914476445,0.0,0.0,0.0
1609043662048198223,183,1609043662048198223,-0.008144683661589144,0.010857545287224494,0.0007707800934302712,-0.00013507210565441813,1.1643830135248538e-05,-0.00021045926154817204,0.9999999686634023,-0.004244624185302906,0.00956566900741166,0.0009771846369035623,0.0,0.0,0.0
1609043662147403479,184,1609043662147403479,-0.008580049823970102,0.010262627485350164,0.0007577853683878925,-0.00012442341623806,-1.3453176787749644e-06,-0.00014257023943743514,0.9999999820953448,-0.004789732963306589,0.004622068353939693,0.0004906273693051083,0.0,0.0,0.0
1609043662248131752,185,1609043662248131752,-0.008537773242280701,0.011497558113256453,0.0010574242270598735,-0.00011663638170892559,5.304076550285231e-06,-0.00022683415592943105,0.9999999674570229,-0.0019401920121946367,0.008900212404688024,0.002492797305786402,0.0,0.0,0.0
1609043662348929167,186,1609043662348929167,-0.008171649371533937,0.011815854796694414,0.0011257942858146997,-0.00012730796200151152,1.968638332642299e-05,-0.0001976772859502716,0.9999999721643889,0.00038012084551939523,0.007957186148259753,0.0017303110531712307,0.0,0.0,0.0
1609043662447353840,187,1609043662447353840,-0.00843081692639937,0.01250170835515509,0.00120307654626566,-0.00011627593020398793,6.83470432371139e-06,-0.00021492842755718245,0.9999999701194621,-0.0009091978913337224,0.008753139909129449,0.0013416888445184098,0.0,0.0,0.0
1609043662548205376,188,1609043662548205376,-0.008062378823704076,0.011828958941634698,0.0008968493728477892,-0.00014929608433872718,2.418835037327996e-05,-0.0001795489595036945,0.999999972443866,0.0008258421804458542,0.004394489390856295,-0.0010456600315769521,0.0,0.0,0.0
1609043662649011374,189,1609043662649011374,-0.007847675578884489,0.011407971182483373,0.0009473825936486859,-0.00012198516917097576,8.412414116350029e-06,-0.00021526684784055358,0.9999999693544956,0.0011841761836590867,0.001019091073666428,7.759650340270741e-05,0.0,0.0,0.0
1609043662747460842,190,1609043662747460842,-0.008296366532758358,0.010230944298799801,0.0008511170949379314,-0.00012746142184232045,1.7998592390778124e-05,-0.00019444284329432052,0.9999999728107873,-0.002135778873971665,-0.003534388317314857,0.0004965454027523133,0.0,0.0,0.0
1609043662848183632,191,1609043662848183632,-0.0073636861853050555,0.009028629217863222,0.0008313767207771491,-0.00011575827547637259,5.535950749298125e-06,-0.00019843370038115054,0.9999999735966997,0.0032474846322540375,-0.005920608340493598,-0.0003617952981018028,0.0,0.0,0.0
1609043662948132515,192,1609043662948132515,-0.006593274346065262,0.008628653235586597,0.0007312007799118993,-0.00012798937245971,1.0087619869042624e-05,-0.00016454851190320424,0.9999999782203528,0.005788493569189467,-0.003421749335654083,0.00012199909595916533,0.0,0.0,0.0
1609043663048962355,193,1609043663048962355,-0.006789123535764617,0.00923722797422375,0.0007840363592224104,-0.00013788801857423792,1.3650688029905427e-05,-0.00017105467746156175,0.9999999757704042,0.002667862523635608,0.0009886136770603775,9.423037462923535e-05,0.0,0.0,0.0
1609043663147355795,194,1609043663147355795,-0.007590131425322529,0.00905899389285858,0.0008023941534553966,-0.0001291707351152097,1.403957979748475e-05,-0.00017231407078654328,0.9999999767128153,-0.0031601187891768146,0.0011679811926848683,0.0004174818967277018,0.0,0.0,0.0
1609043663248150826,195,1609043663248150826,-0.008393690272029177,0.010280862479345431,0.0009667909485580914,-0.00010618725545632386,5.367582090754451e-06,-0.00018339225295390014,0.9999999775313484,-0.005448145575125961,0.006323589527227439,0.002335087039052006,0.0,0.0,0.0
1609043663348181009,196,1609043663348181009,-0.008247519557006944,0.010599877271953094,0.001017261942855796,-0.00011475522881902783,1.0906838116898395e-06,-0.00020539172073593719,0.9999999723221237,-0.0020937345174057197,0.006913844254362771,0.0026159756893945705,0.0,0.0,0.0
1609043663448165417,197,1609043663448165417,-0.00766096573220442,0.009560968217885421,0.0009528426798197023,-0.00013032379770419228,1.2709800698144686e-05,-0.0001609117164015998,0.999999978480773,0.0012681221537742616,0.0010621168238655176,0.0012457862277369055,0.0,0.0,0.0
1609043663548936844,198,1609043663548936844,-0.007967813579123918,0.009752133380855033,0.0010813824174700872,-0.00011727891212783063,1.0291905640332733e-05,-0.00018406990690817437,0.9999999761289806,-0.00012333109783433912,0.001405567628956874,0.002208321162902448,0.0,0.0,0.0
1609043663648944616,199,1609043663648944616,-0.008528651955167523,0.011088035329229669,0.0010694073072050727,-0.00014061922690100632,1.3620434391845734e-05,-0.00020604470339194425,0.9999999687931272,-0.0023041086693693746,0.007134263849358788,0.0011715066605784536,0.0,0.0,0.0
1609043663748957396,200,1609043663748957396,-0.007812257160808702,0.011977589575500654,0.0010318341923373248,-0.00012626856594370706,8.978026406204354e-06,-0.0002270070027568719,0.9999999662217108,0.0024553747377847974,0.009699528158325196,0.0010301081181261409,0.0,0.0,0.0
1609043663847368479,201,1609043663847368479,-0.007258091762763276,0.010593943268953765,0.000970293762435447,-0.00011589052313522529,5.72341895276385e-06,-0.00017228498360993046,0.9999999784272354,0.0028615441329011572,0.0014382123008291024,0.0002590811982075643,0.0,0.0,0.0
1609043663948937654,202,1609043663948937654,-0.008169673852102826,0.01048940948565031,0.0009212437338682075,-0.00012322690645495704,1.0024205871268742e-05,-0.00017745573251172652,0.9999999766120327,-0.0030398972282133264,0.0002840803897184017,0.0003730158345123008,0.0,0.0,0.0
1609043664048860312,203,1609043664048860312,-0.007361085531582906,0.009437068169841916,0.0008017548972639277,-0.00013440589087341273,1.8167138858172215e-05,-0.0001746198563782788,0.999999975556437,0.001749997574503624,-0.0032908946614546362,-0.0003149682880942517,0.0,0.0,0.0
1609043664148026705,204,1609043664148026705,-0.006878933561269589,0.008116550901567812,0.0008145027163841757,-0.0001246511742822468,1.5018454353333991e-05,-0.0001822421055401986,0.9999999755121509,0.0026282141308963444,-0.005795368310555068,0.00041858624920224595,0.0,0.0,0.0
1609043664248782396,205,1609043664248782396,-0.006382909970041698,0.007668579861903372,0.0008374869049045084,-0.0001241733033163604,9.300818911075731e-07,-0.0001819081539456649,0.999999975744752,0.003517069378785111,-0.0033657585261347833,0.0011739093945984697,0.0,0.0,0.0
1609043664348836660,206,1609043664348836660,-0.006721264226864566,0.008981413383805608,0.0008950667909006546,-0.00012113134034468378,1.4075379562726632e-05,-0.0001657790203482067,0.9999999788231763,0.0010290776796357923,0.0044570028252267505,0.0009228900146293794,0.0,0.0,0.0
1609043664448866367,207,1609043664448866367,-0.006416739244843381,0.009301308954647829,0.0008797946362336649,-0.00013570105477006555,1.2988382205765531e-05,-0.0001405252871401231,0.9999999808345614,0.0017746054864783245,0.00538215703055022,0.0008212349794580372,0.0,0.0,0.0
1609043664548091173,208,1609043664548091173,-0.007074557117610848,0.01048034110029603,0.0011594961107727411,-0.0001016180966753791,1.6742362887415694e-05,-0.00021964481382048072,0.9999999705747821,-0.0019350050506811533,0.009243955270547624,0.002665300210860491,0.0,0.0,0.0
1609043664648904085,209,1609043664648904085,-0.007505209886650215,0.010416166402728983,0.0009912047503127762,-0.0001423521401307974,1.4956131825783395e-05,-0.00022179428441523085,0.9999999651597148,-0.003329412478887275,0.006524560249186271,0.00041612182376667053,0.0,0.0,0.0
1609043664748880625,210,1609043664748880625,-0.0070271644209310416,0.010231565799551898,0.0008067820092338222,-0.00013216909929198808,1.7249522036763522e-05,-0.0001712928289059426,0.9999999764462508,6.591293789326696e-05,0.00430497684324685,-0.00016427406705514188,0.0,0.0,0.0
1609043664847347736,211,1609043664847347736,-0.007409385917919783,0.010882065675440634,0.000976845149006827,-0.00010786799598314145,2.126262602862699e-05,-0.0002416592561820006,0.9999999647565753,-0.001629516065374543,0.0063474483054374005,0.0010003693210026963,0.0,0.0,0.0
1609043664947278023,212,1609043664947278023,-0.006662473353288017,0.010348322001271863,0.0011157878014003838,-0.00010471373498815791,2.0055979346674263e-05,-0.0002262927316309437,0.9999999687121707,0.00210793275606624,0.0034521502864203633,0.0017955014126860018,0.0,0.0,0.0
1609043665049219131,213,1609043665049219131,-0.00641984124523079,0.00964576458973412,0.001047076842673312,-0.0001141159605338441,1.6827839479011065e-05,-0.000205247929757334,0.9999999722838048,0.002253312434889249,0.00017293550352085602,0.0005748486680603052,0.0,0.0,0.0
1609043665148778200,214,1609043665148778200,-0.006697671005449706,0.008987070532528826,0.000996011053283909,-0.0001350988890042007,2.25712335644148e-05,-0.0001792601885072273,0.9999999745522825,-0.00031819919273537965,-0.0010078168749648854,3.480569076659101e-05,0.0,0.0,0.0
1609043665247183800,215,1609043665247183800,-0.006473423067279288,0.00838569167439533,0.0008846603570582967,-0.00010580801582992425,2.1332381154680858e-05,-0.0001844799866612726,0.9999999771583394,0.0005842736372572087,-0.0014725548125413958,-0.00030344901947100815,0.0,0.0,0.0
