%time,field.header.seq,field.header.stamp,field.pose.pose.position.x,field.pose.pose.position.y,field.pose.pose.position.z,field.pose.pose.orientation.x,field.pose.pose.orientation.y,field.pose.pose.orientation.z,field.pose.pose.orientation.w,field.twist.twist.linear.x,field.twist.twist.linear.y,field.twist.twist.linear.z,field.twist.twist.angular.x,field.twist.twist.angular.y,field.twist.twist.angular.z
1609059607730057001,0,1609059607730057001,-0.0022951978269204073,-0.002163386029294713,-0.0005834056304211851,-5.0517231085209213e-05,3.241649787953409e-05,-0.00018091231100974796,0.999999981833958,-0.0020119833046799095,0.0006836508256275433,-0.001277997583648002,0.0,0.0,0.0
1609059607830062628,1,1609059607830062628,-0.0005147371764995557,-0.0017776882401732744,0.0004504121779470084,-4.871744026777237e-05,1.807258728317003e-05,-0.000117049891106459,0.9999999917996579,0.017240143297614117,0.005856325403415991,0.011377057749076016,0.0,0.0,0.0
1609059607930003643,2,1609059607930003643,-0.0022686658047190835,-0.004347393953587893,0.0011539205235981738,1.7219785852797406e-05,6.142039226388202e-06,-0.00011822590828166733,0.9999999928441943,-0.004825630252292563,-0.013167855912030258,0.009634415856872641,0.0,0.0,0.0
1609059608030048370,3,1609059608030048370,-0.0031588562151466447,-0.005435566369849895,0.0008743039679588872,-1.8586439010318625e-05,1.2454462296190676e-05,-3.64194340457654e-05,0.9999999990865277,-0.007633551236084004,-0.01076007967185138,0.0024367753475066983,0.0,0.0,0.0
1609059608130061388,4,1609059608130061388,-0.00361691246766165,-0.004563858647279227,0.0006901994998543147,-3.075424525103933e-05,8.394511716929199e-06,-0.00014856012719063183,0.9999999884567985,-0.0065073973766557386,0.0024086485683655016,-0.000127099511925434,0.0,0.0,0.0
1609059608231574774,5,1609059608231574774,-0.003340070309818776,-0.004340994035456514,-0.00011581187616240789,-6.730850539308282e-06,-3.986481870838375e-06,-0.0001227766161905591,0.9999999924323533,-0.0020533775559742453,0.005117019876761667,-0.005406132700666975,0.0,0.0,0.0
1609059608329996109,6,1609059608329996109,-0.0031577884906314386,-0.004258656076515438,-0.00035852525020903773,-2.2107662968852583e-05,1.2173703345371751e-06,-8.265226107472164e-05,0.9999999963391862,0.00010703735418813838,0.005551809810442353,-0.0035401306417016127,0.0,0.0,0.0
1609059608431553841,7,1609059608431553841,-0.0012855466954237692,-0.006302949057520794,-0.00035053666654263357,2.4806758680266044e-06,-3.92439804810761e-06,-0.000111962790840892,0.999999993721389,0.010250121180558933,-0.006001721506606042,-0.002152187295582985,0.0,0.0,0.0
1609059608529991150,8,1609059608529991150,-0.0012311853296877325,-0.006738135341824563,-0.00014555134385446463,-4.091379296175792e-05,7.222250236785714e-06,-0.00015097008508774571,0.9999999877409661,0.0065660135788618455,-0.0037888407601310153,-0.00010093308219087833,0.0,0.0,0.0
1609059608630049706,9,1609059608630049706,-0.0013295112155049314,-0.007224673805911295,-2.8672775333931985e-05,-3.8114746115497654e-05,7.9654068666654e-06,-0.00010557174269445091,0.9999999936692117,0.0034647694315488244,-0.0032982154945346083,0.00042806936926161423,0.0,0.0,0.0
1609059608730027914,10,1609059608730027914,0.0005468296631450417,-0.007924949321130253,-0.0001574417024849845,-1.9666358250523435e-05,-1.5393355283032672e-05,-9.371220150224836e-05,0.9999999952971504,0.010962026122883951,-0.004086131695204394,-0.0003995533634984675,0.0,0.0,0.0
1609059608831564188,11,1609059608831564188,4.577940134581479e-06,-0.008223871955317218,0.00013798919436532333,-2.6526678899035513e-05,-1.7222313079944604e-05,-4.359657534578872e-05,0.9999999985495318,0.004411029008271018,-0.002190613483248105,0.0019964600984713394,0.0,0.0,0.0
1609059608929995298,12,1609059608929995298,-0.0005256130745043703,-0.0072623145192788,9.947660097397735e-05,-2.9898905756772967e-05,2.622321381034998e-07,-0.00013513142701626797,0.9999999904227409,0.0006470002673387388,0.0055111192403463185,0.00030034488223065195,0.0,0.0,0.0
1609059609031529188,13,1609059609031529188,-0.0003764206305612367,-0.00792500543015553,0.00016431542356517583,6.336333346911001e-06,3.515788417010592e-06,-8.448398753077464e-05,0.9999999964049717,0.0010309641465395215,0.0010942642304024473,0.0006523524373522565,0.0,0.0,0.0
1609059609131595612,14,1609059609131595612,-0.002050419350999859,-0.007740496313768497,-0.00010410173127258651,-1.3558768875777502e-05,4.9866690583207284e-06,-0.00010333313032824813,0.999999994556777,-0.006921081685131241,0.0026715754000430974,-0.0010916047453297648,0.0,0.0,0.0
1609059609230046272,15,1609059609230046272,-0.0018331289438373944,-0.008063446450697166,-8.767333770702955e-05,-1.9907249451574568e-05,-9.979330902206813e-06,-4.920224747240521e-05,0.9999999985416249,-0.0033310866709816483,0.0012282357194679443,-7.91851568456728e-05,0.0,0.0,0.0
1609059609331620455,16,1609059609331620455,-0.002101579877025225,-0.00868093584311115,2.82626431306818e-05,-2.524043325188645e-05,-3.967290955320259e-06,-0.00010892383843415987,0.9999999937413877,-0.0036217375542703456,-0.0007463935281222527,0.0009307864922225794,0.0,0.0,0.0
1609059609430005074,17,1609059609430005074,-0.00013835782458255803,-0.006114585570206388,0.00019658449981214293,-4.297444731418371e-05,4.900085168369631e-06,-0.00011601290629814081,0.9999999923350935,0.007013037670222114,0.013538801108511037,0.002540461743321874,0.0,0.0,0.0
1609059609529968739,18,1609059609529968739,0.0006280991801720299,-0.00588743083271609,0.0005559354559299609,-3.245475946003972e-05,-3.0216025858952244e-06,-0.00010861987402576249,0.9999999935696388,0.007931227114842022,0.009885215573692381,0.004362316959672461,0.0,0.0,0.0
1609059609629963875,19,1609059609629963875,0.00057968783315264,-0.00662107980295692,0.00046626703863731435,-3.3306592354087726e-05,-3.899756015434856e-06,-9.098367588735988e-05,0.9999999952987144,0.004647116113191786,0.0025589182525853306,0.0014288554384798832,0.0,0.0,0.0
1609059609731520653,20,1609059609731520653,-0.0005256232001795854,-0.00813609338526644,0.00018322332300521504,-3.1846256932218936e-05,-9.087991561329956e-06,-0.0001267855991624954,0.9999999914143153,-0.0018647711474441015,-0.004742617717900899,-0.0007852543372551223,0.0,0.0,0.0
1609059609831596851,21,1609059609831596851,-0.0002010011058552306,-0.007794648663194264,0.0002401155387796383,-5.825362142592541e-06,1.6971198409648897e-06,-0.00015759345032394418,0.9999999875637415,0.0006026973576864622,-0.0001494737876403182,-0.000304962140614587,0.0,0.0,0.0
1609059609930044651,22,1609059609930044651,0.0010086631426538275,-0.00819018929067022,7.256300449231271e-05,-1.2117085407945669e-05,5.1280754676815915e-06,-0.00011556183792402467,0.9999999932361668,0.005359485942361564,-0.0007318394751816422,-0.0014584408632689469,0.0,0.0,0.0
1609059610031643867,23,1609059610031643867,0.00011095823637956851,-0.009405419064884197,0.00019699184701288104,-1.2971719306973735e-06,5.101425714417701e-06,-0.00013131441277731105,0.9999999913644058,-0.0007529459666062331,-0.005074469034398534,0.0009414479666695059,0.0,0.0,0.0
1609059610129999876,24,1609059610129999876,0.0021468893214283283,-0.009257130254201692,0.00037932287960463324,-1.823658927663371e-05,1.5429034119260942e-05,-9.187331466484307e-05,0.9999999954943298,0.008715482783187114,-0.0005220151576714443,0.001608283666592274,0.0,0.0,0.0
1609059610229964256,25,1609059610229964256,0.0023746709121976813,-0.01103575317800153,0.00039225096424205303,-3.77272059294728e-07,2.1107980050208068e-05,-3.739948208519966e-05,0.9999999990777918,0.006300636204634644,-0.007908442218648497,0.0013672861634127789,0.0,0.0,0.0
1609059610331552505,26,1609059610331552505,0.0012186152557882028,-0.009724199468680717,0.00024832321730081883,-6.898420243256228e-06,-2.9001950614200207e-06,-4.751324983423354e-05,0.999999998843243,-0.0013772412040701518,0.003474103801393528,-0.00046277900384430104,0.0,0.0,0.0
1609059610431529284,27,1609059610431529284,0.0008957872251764251,-0.009357200058785629,0.0002827825328393244,-1.2389169912888805e-05,6.784158211738988e-06,-9.570734336169167e-05,0.9999999953202913,-0.0021845359005170425,0.004604530689441249,0.0009692901482775009,0.0,0.0,0.0
1609059610529954195,28,1609059610529954195,-0.0003638191857188495,-0.008278297294437296,0.00021130555143967827,-2.400657383631042e-05,2.55798612024443e-06,-8.161440250128622e-05,0.999999996378112,-0.0069432317037289755,0.009194089069523955,0.0010290940237413259,0.0,0.0,0.0
1609059610631906271,29,1609059610631906271,-0.0024785565074789554,-0.009510404026248725,0.00019620229539486021,-2.8310714322836926e-05,-6.225227598397486e-06,-0.00014183854763717577,0.9999999895207848,-0.01329370610788196,0.00042985682473083153,0.0003237478554107726,0.0,0.0,0.0
1609059610730012894,30,1609059610730012894,-0.0007659139825956728,-0.009565134176657986,0.00015195691053853814,-1.0328139593976803e-05,-7.950060262675757e-06,-0.00011358600210718912,0.9999999934641692,-0.0003640622442002677,0.0010333635217836482,0.0002754432675234303,0.0,0.0,0.0
1609059610830067158,31,1609059610830067158,-0.0004478906829103399,-0.009982730611791703,0.00032091168147276337,-4.149004132968852e-06,6.142551303362698e-06,-0.00010251088042542036,0.999999994718283,0.0014222365687380758,-3.22496401141039e-05,0.0018425522030811423,0.0,0.0,0.0
1609059610931636095,32,1609059610931636095,-0.0005411020862019062,-0.009919702319772478,0.000252361570408854,-1.358554501591084e-05,1.5095222517502383e-06,-2.312297551549717e-05,0.999999999639237,0.0006750975888698352,0.0013551443490586528,0.0012021667375641072,0.0,0.0,0.0
1609059611030077696,33,1609059611030077696,0.0008418330975618906,-0.009770528226513609,9.893226215545042e-05,-1.4556801045776038e-05,8.093711711753744e-06,-9.926665673540703e-05,0.999999994934357,0.006478113206131746,0.0026953312815354855,-0.0005077617406195312,0.0,0.0,0.0
1609059611130042315,34,1609059611130042315,-0.0003229694831168163,-0.00935071495920168,9.68131007577786e-06,3.577245001041804e-06,-5.824491281670825e-06,-5.544631941697783e-05,0.9999999984394883,-0.0009064335121918305,0.003995007231315794,0.00019834616186831987,0.0,0.0,0.0
1609059611230035782,35,1609059611230035782,0.0012650545801605399,-0.007861866816908864,0.00023415173173769495,9.91619888113224e-06,3.594414635721943e-06,-0.00012465272601287216,0.9999999921752196,0.0064246359935223925,0.009651780687432002,0.001905285221074717,0.0,0.0,0.0
1609059611331568241,36,1609059611331568241,0.0006222359897299788,-0.008127662150726668,0.00015588043047559338,4.492036292720877e-06,1.0807951535125109e-05,-6.848839478866588e-05,0.999999997586171,0.001339213780192917,0.004943717029567261,0.0009679983957841289,0.0,0.0,0.0
1609059611431554317,37,1609059611431554317,0.0018053346056523193,-0.009588050607417771,-0.00011940269420531894,-9.018008317773463e-06,9.373825650384613e-06,-0.00010764527699777552,0.9999999941216465,0.006018468581028879,-0.002881781375008015,-0.00115177663669534,0.0,0.0,0.0
1609059611529950142,38,1609059611529950142,0.0028756560333731995,-0.011514182103862939,-2.9263881344489832e-05,-4.295092517405281e-06,2.992074775496625e-06,-0.00010680730150344695,0.9999999942823964,0.008169105327325666,-0.00931615278817641,0.0009254526628216527,0.0,0.0,0.0
1609059611629879713,39,1609059611629879713,0.00221410286948371,-0.00994252618662115,4.146150865392197e-05,-2.059228112574675e-05,4.343773423180976e-06,-9.84548885812584e-05,0.9999999949318584,0.002494051159120517,0.0029637479029176166,0.001642542104435273,0.0,0.0,0.0
1609059611729901552,40,1609059611729901552,0.0021878583697577552,-0.010355571618980304,0.00011771682443441448,-1.155848201952287e-06,1.67843217746765e-05,-0.00011095973187561043,0.999999993702441,0.0013396266214962533,0.0008966425333309445,0.0015594502716561394,0.0,0.0,0.0
1609059611829965115,41,1609059611829965115,0.0006676004640913505,-0.009792868618911946,3.4581270630820144e-06,-9.55686921188816e-06,1.1719115217312097e-05,-0.00010553035342508472,0.999999994317333,-0.005309938564027729,0.004471317578137811,0.0006508099981808757,0.0,0.0,0.0
1609059611931509495,42,1609059611931509495,-0.002048536655304044,-0.010355669755270894,9.047713950606118e-05,-7.978180682018908e-06,-3.1342420823753774e-06,-8.112055056672788e-05,0.999999996672987,-0.014229950393373233,0.0001943990568969915,0.0013505059420092509,0.0,0.0,0.0
1609059612031512260,43,1609059612031512260,-0.0012126218157286017,-0.011136575794149778,2.214380574654962e-06,-1.956943989854463e-05,-2.7183643367459805e-06,-8.055558480055537e-05,0.9999999965602191,-0.004988793885437295,-0.00247047812022645,3.881777431314563e-05,0.0,0.0,0.0
1609059612129992962,44,1609059612129992962,0.0007935508933017395,-0.012811844126162309,-1.3887509827495534e-05,-1.3904918419238087e-05,9.956164584858159e-06,-5.5820990284028916e-05,0.9999999982957694,0.006223750874692733,-0.008471974353620793,0.000183769291355682,0.0,0.0,0.0
1609059612231550694,45,1609059612231550694,-0.0007951065582855212,-0.01181777780487397,0.0002750933960008566,-2.224733015657739e-06,-1.572334315353471e-06,-5.9790794804018074e-05,0.9999999982088162,-0.003659464048603375,0.001523320499614931,0.0020546750464434946,0.0,0.0,0.0
1609059612329965115,46,1609059612329965115,-0.0006834498863656984,-0.01095048418372634,0.0002321767853873007,-1.424585602945355e-05,1.3298126621709429e-05,-9.811215497946207e-05,0.999999994997107,-0.0017471899951394935,0.006004148372980157,0.0005628303191061862,0.0,0.0,0.0
1609059612431517839,47,1609059612431517839,0.0009321456350788705,-0.009954419176734187,7.830291645621624e-05,-7.5525690490034645e-06,6.183260228063004e-06,-7.305934844623781e-05,0.9999999972835253,0.005447740507286211,0.00960800751525635,-0.000722496647846623,0.0,0.0,0.0
1609059612529993296,48,1609059612529993296,0.00043845416857428904,-0.009659817031378205,0.00021492694087326162,1.6613555174329016e-06,1.4220388910946353e-05,-9.107046676010093e-05,0.9999999957505917,0.001515710227945972,0.007280649296760849,0.0002330796595754925,0.0,0.0,0.0
1609059612630055666,49,1609059612630055666,-0.0009635465862115636,-0.009823139050086218,0.0001551598252884813,-7.252339415746521e-06,-1.5122808033230559e-06,-0.00010580057823620489,0.9999999943756737,-0.00487347713768266,0.004117639927191238,0.0003533383433094436,0.0,0.0,0.0
1609059612731624365,50,1609059612731624365,0.0006954830837059167,-0.009641922339071006,0.0002153374912202358,-1.8735719290630204e-06,-3.012278368928813e-06,-5.761267123312047e-05,0.9999999983340946,0.003879751289321119,0.0040091269566557355,0.0014081897525630382,0.0,0.0,0.0
1609059612830068588,51,1609059612830068588,0.0012169053392543578,-0.009484830914162867,0.00042607806672652224,-2.402323501266687e-06,9.894606564985292e-06,-0.00010926378524214048,0.9999999939788718,0.004693159319101863,0.003908532568816443,0.001981667001232335,0.0,0.0,0.0
1609059612930063248,52,1609059612930063248,0.0024534565127798213,-0.009718825094987832,0.00027211351966877653,-9.866267735421566e-06,9.407386604476849e-06,-7.799928808360247e-05,0.9999999968651303,0.008267728146538238,0.00249423782442652,0.000481888161043465,0.0,0.0,0.0
1609059613030005932,53,1609059613030005932,0.0013984234240366539,-0.010820750083428332,0.0004451145167940299,1.191230864645486e-06,1.690827543497923e-05,-9.584261649746717e-05,0.9999999952634375,0.0006958348150700299,-0.0035028022933253833,0.0010442961336481734,0.0,0.0,0.0
1609059613129945755,54,1609059613129945755,-0.0009378618952992258,-0.01136916729899763,0.00033506896668519066,3.893275263452624e-06,-4.2441295651725924e-06,-0.0001288044159533152,0.9999999916881209,-0.009595776278601984,-0.0039910502345057355,-0.00020695340161860486,0.0,0.0,0.0
1609059613229929924,55,1609059613229929924,-0.0005740618063476619,-0.011040204897995757,0.00014433750784920596,1.3842866693239778e-05,3.603608292250545e-06,-8.327024089033484e-05,0.9999999964307228,-0.004277170355473397,-9.236370782844585e-05,-0.0010532263894722006,0.0,0.0,0.0
1609059613329900503,56,1609059613329900503,-0.000471808784584665,-0.012062617314189446,0.00024965499062411776,-6.949676496968272e-06,-1.013481313301836e-06,-6.744705574757831e-05,0.9999999977007794,-0.0017358849028026439,-0.0036193515574671326,0.00019727445365201363,0.0,0.0,0.0
1609059613429865599,57,1609059613429865599,-0.0004676414765719238,-0.0102544436072771,0.0002913167685481711,5.114313554322579e-06,5.629058471260778e-06,-9.162659017699814e-05,0.999999995773357,-0.0006706120725170021,0.007048218256424557,0.0008430150539394229,0.0,0.0,0.0
1609059613529855728,58,1609059613529855728,-0.0004254511094061425,-0.00927405405284705,0.0003152364001383235,1.4331440970727788e-06,-5.225518041774568e-06,-6.585187074188339e-05,0.9999999978170794,2.544402560660994e-05,0.00884464777682415,0.0010879957088801213,0.0,0.0,0.0
1609059613629858732,59,1609059613629858732,-0.000727023102082513,-0.008774579380522604,0.00041278617148343493,2.457466573826289e-06,7.345934022818098e-06,-4.953341326215946e-05,0.9999999987432134,-0.001437214710256139,0.008107993167138025,0.0005200185856003525,0.0,0.0,0.0
1609059613729924679,60,1609059613729924679,-8.016264251378288e-05,-0.01068217024530213,0.0002116869715966371,-3.893437336888246e-06,2.6155800770464056e-06,-5.951179155342431e-05,0.9999999982181665,0.0019177870401257155,-0.0028625766329408026,-0.0007382068861835888,0.0,0.0,0.0
1609059613831462860,61,1609059613831462860,0.002167167442273957,-0.01117050885587757,0.0004556903536013922,-1.2669968847499356e-05,8.295094467312566e-06,-4.6913910879831105e-05,0.9999999987848672,0.010173194568054808,-0.0030151307358576122,0.001148056005832275,0.0,0.0,0.0
1609059613929934740,62,1609059613929934740,0.0014943056341739358,-0.012033580876735171,0.0002831551523455343,-1.7136414120521884e-05,9.24824107995216e-06,-1.3238949000687439e-05,0.999999999722765,0.003705235577441692,-0.004525624084904384,-0.00014101112354541546,0.0,0.0,0.0
1609059614029972792,63,1609059614029972792,0.0003034143736899692,-0.011437416120419758,0.0002960105672068933,-3.579992271233918e-06,9.453885188959664e-06,-7.519207808585952e-05,0.9999999971219727,-0.0027482277146465427,0.0009416054370931966,0.0008003581900164447,0.0,0.0,0.0
1609059614130056143,64,1609059614130056143,-0.000278241490188491,-0.01159835109202827,0.00014496043503826113,-1.407980537918138e-05,6.31229321264169e-06,-9.464071255592627e-05,0.9999999954025177,-0.003835363749169476,0.0006575383010246155,0.0006685793222265988,0.0,0.0,0.0
1609059614230063200,65,1609059614230063200,-0.0011862035951255465,-0.011938199949223573,0.00024170260631743766,-1.591746989951306e-05,-3.0152282115847012e-06,-5.238965225697981e-05,0.9999999984964264,-0.005561663288007761,-0.0005098384383248169,0.001977116850602826,0.0,0.0,0.0
1609059614330043316,66,1609059614330043316,-0.0016646322379965908,-0.012975773717499653,0.0001574703727402947,-5.190685075560568e-06,1.272198052308287e-06,-2.9922855084793143e-05,0.9999999995380235,-0.005026951904808912,-0.004451614556346073,0.0008164132338080899,0.0,0.0,0.0
1609059614430020809,67,1609059614430020809,-0.001805330870743286,-0.012411395906745198,0.0003911242484959025,1.954743584914658e-06,-8.61841170672147e-06,-3.7153526032696014e-05,0.9999999992707512,-0.0034955847690628945,0.0010619573709787682,0.0020358797141166425,0.0,0.0,0.0
1609059614529956818,68,1609059614529956818,-0.00042833536566824277,-0.011905667625944577,0.0002168916994188054,-6.859369485728426e-06,7.3603586503884286e-06,-1.8106272212607943e-05,0.9999999997854603,0.0036285030690403983,0.003788793075194198,-8.242402060763213e-05,0.0,0.0,0.0
1609059614631493092,69,1609059614631493092,-0.000325878899344034,-0.012889807411879504,0.0002688835182112405,9.052827453159638e-06,-4.373049040081416e-06,-7.684377145462239e-05,0.9999999969969704,0.002565903134569501,-0.0008379133852185064,0.001024149976892304,0.0,0.0,0.0
1609059614729829550,70,1609059614729829550,-0.0008574060538331895,-0.014179601521313766,0.0002082161558644934,-9.63900004669058e-06,6.556476607523443e-06,-1.881911153568971e-05,0.9999999997549637,-0.0006941780069768624,-0.005295608459543109,0.0012264640506577807,0.0,0.0,0.0
1609059614829850435,71,1609059614829850435,-0.0017635546934136302,-0.014182831556213896,0.0004638514509340306,4.613888233076544e-06,5.9247933216502005e-06,-1.219765987075074e-05,0.9999999998974053,-0.004425700537723504,-0.001976095615728189,0.0027861727872916502,0.0,0.0,0.0
1609059614931434393,72,1609059614931434393,0.00046616214124477017,-0.01367314725684001,0.000428473003988557,-1.0906197550310095e-05,1.2121725433003515e-05,-3.414173804176599e-05,0.9999999992842226,0.006461575580477082,0.002364939858578093,0.0011137086637464481,0.0,0.0,0.0
1609059615029923201,73,1609059615029923201,-0.0013470609940614588,-0.014450607843051666,0.0005387741476940006,1.714430974550997e-06,9.197546899597258e-06,-5.003263645737424e-05,0.9999999987045932,-0.003599947936995495,-0.0013527708864783093,0.002003806590045407,0.0,0.0,0.0
1609059615129944324,74,1609059615129944324,-0.0001615163329174683,-0.01514029019410877,0.00042393954677760016,8.182889002787225e-06,8.405281747457047e-06,-4.118454359910293e-05,0.9999999990831048,0.0023937607071471533,-0.003113578500384758,0.00064997403340488,0.0,0.0,0.0
1609059615229920626,75,1609059615229920626,-0.0014243659699565785,-0.015239794008685898,0.0001927695633847973,1.7429921194993649e-06,-8.198916119813553e-06,-6.98187782509984e-05,0.9999999975275312,-0.003890736874617933,-0.0023298613310199605,-0.000197262598439268,0.0,0.0,0.0
1609059615329952478,76,1609059615329952478,-0.001767830918851822,-0.015383183684384093,0.00023350540358860146,-1.9907377228982663e-06,9.689875467622564e-06,-3.4081449545950955e-05,0.9999999993702916,-0.003962633519093264,-0.0013026032168508967,-5.9430134751087315e-05,0.0,0.0,0.0
1609059615429911137,77,1609059615429911137,-0.002292075573687392,-0.01373031691099977,0.00029138742787517815,-1.5185322372619025e-05,5.188373107533662e-06,-5.550855061848187e-05,0.9999999983306357,-0.004277178955539848,0.007496880281971393,0.0013206327166423182,0.0,0.0,0.0
1609059615531495571,78,1609059615531495571,-0.0010504871981598038,-0.015062682846649777,0.000358811383328253,-8.836412592285183e-07,7.960351923063096e-06,-2.7674317682929397e-05,0.9999999995849842,0.0026311214042051,-0.001598579134706157,0.0014039720184857189,0.0,0.0,0.0
1609059615629930496,79,1609059615629930496,-0.0005357172334870435,-0.01477382736052176,0.00023040714223737825,1.1441990107726014e-05,8.464788237954619e-06,-3.7967306963436946e-05,0.9999999991779478,0.0037749816353639587,0.0012343836734878962,0.00037523318858996373,0.0,0.0,0.0
1609059615729947805,80,1609059615729947805,-0.0005441270248255155,-0.016690591433796524,0.0001408067783653451,2.3129162284147225e-06,6.767084989382273e-07,-4.632320154548679e-05,0.9999999989241687,0.002583171992814138,-0.006498474409151262,0.0004137000971370999,0.0,0.0,0.0
1609059615830000639,81,1609059615830000639,-0.0002554321285608516,-0.014960083110139027,0.0002670116744543809,1.589870080251554e-06,-4.9324813919381395e-06,-2.7912229904426236e-05,0.9999999995970167,0.003024106847910871,0.00488850525522197,0.0014520349690137384,0.0,0.0,0.0
1609059615929987907,82,1609059615929987907,-0.0006058651454108604,-0.012485062911562938,0.00034477036338341813,-3.657793339570893e-06,-2.463887909431958e-06,-3.6990795428409876e-05,0.999999999306107,0.0001310494477746245,0.014733203325472585,0.001752201240608061,0.0,0.0,0.0
1609059616030002832,83,1609059616030002832,-0.0019855482347825647,-0.012380759229234725,0.00047251398318796847,-1.2083499208470527e-05,7.1688835323546e-06,-6.118505456480925e-05,0.9999999980294837,-0.0052679590024599255,0.00955388422410503,0.00205444291384291,0.0,0.0,0.0
1609059616129977465,84,1609059616129977465,-0.0016731081227074588,-0.012480871428434362,0.0004489443093182856,-4.3353148357508166e-07,-9.700843015720127e-07,-8.650943717322332e-05,0.9999999962574846,-0.002514437150691522,0.005502313713257822,0.0012656326068877933,0.0,0.0,0.0
1609059616229908228,85,1609059616229908228,-0.0014721476683547973,-0.014109857802526314,0.0004817253955731239,1.2183610069337135e-06,5.2529952928438945e-06,-5.3427619786072984e-05,0.9999999985581959,-0.0005677852081732071,-0.0036259389291829055,0.0005452321583652743,0.0,0.0,0.0
1609059616329843283,86,1609059616329843283,-0.0017478882642254587,-0.013853657440161924,0.0003214396646357829,-1.047861674356529e-05,-1.3241312937812983e-05,-6.582403559042228e-05,0.9999999976910213,-0.0013238950120564833,-0.00040364349401169307,0.0005922239921612104,0.0,0.0,0.0
1609059616431429625,87,1609059616431429625,-0.0010531497467712217,-0.013565241281331181,0.0003697842481028156,-4.720840751573116e-06,-4.4405651871828726e-07,-8.222473964246776e-05,0.9999999966082941,0.0021088591459862156,0.0023065912448572905,0.0006193171281720861,0.0,0.0,0.0
1609059616529876471,88,1609059616529876471,-0.0004788756664876216,-0.013812787182656338,0.0003657663866317542,1.2357770023823742e-05,1.0961357594646918e-05,-2.801068722540744e-05,0.9999999994712572,0.003288340420823397,0.0013120103391107503,7.804279400156551e-05,0.0,0.0,0.0
1609059616629929781,89,1609059616629929781,-0.0013973353525133156,-0.013859072704047905,0.00025864622840909374,-9.059511279175892e-06,-3.707595579990956e-06,-5.005374645238817e-05,0.9999999986993905,-0.0017570731018034503,0.001736878431026351,-0.000543568169732975,0.0,0.0,0.0
1609059616729958534,90,1609059616729958534,-0.0014911025481267363,-0.013465887091014893,0.0002325551852151581,-7.47518721262488e-06,-3.4884148614347396e-06,-3.639415409134796e-05,0.9999999993036991,-0.0014521933386697325,0.0034307113237141583,0.0009723564538898594,0.0,0.0,0.0
1609059616829931498,91,1609059616829931498,-0.0033020352121776973,-0.012862625043093531,0.00016316826896743664,-1.3838615776709323e-06,-1.1554631676741552e-07,-5.922630713101276e-05,0.999999998245148,-0.008248580220671861,0.005759401858352288,-0.000216912661366674,0.0,0.0,0.0
1609059616929925442,92,1609059616929925442,-0.004366446005412574,-0.012157777380816663,0.00029806947789588886,5.435034584543121e-06,-1.0908988584270466e-05,-6.642636787834555e-05,0.999999997719486,-0.009322308821733015,0.007011350385061874,0.0015328332631849256,0.0,0.0,0.0
1609059617031457663,93,1609059617031457663,-0.0057970109140644535,-0.011419329268773,0.00030714613777559074,-3.999962156146422e-06,-1.2130812079479623e-05,-5.8538564963376674e-05,0.9999999982050304,-0.01125608394746653,0.008153370504128484,0.001073584777947862,0.0,0.0,0.0
1609059617131525278,94,1609059617131525278,-0.0024277530629398603,-0.01248490577425218,0.00017506734384276944,3.3900546254483163e-06,4.363162958748801e-06,-0.00011460757800786051,0.9999999934172766,0.007028030670409479,0.0012216870298285875,7.977022100853748e-05,0.0,0.0,0.0
1609059617229934454,95,1609059617229934454,-0.0010814742953133849,-0.015078608406910667,0.00024099799131165268,1.9481315010448697e-05,5.121267470559744e-06,-6.832332325522479e-06,0.9999999997737747,0.010214607355837393,-0.010057781770188439,0.0006186583213122078,0.0,0.0,0.0
1609059617329957247,96,1609059617329957247,-0.0013734366373193757,-0.01562784414351743,0.000325844036053372,-5.266336202402499e-06,3.2193114801212667e-06,-6.682999294045555e-05,0.9999999977478167,0.005516307471176308,-0.007365029986312478,0.0019050747112844984,0.0,0.0,0.0
1609059617429934025,97,1609059617429934025,-0.0017035441137458426,-0.01423257724320211,0.00029653560767468716,-1.7923973665295304e-06,2.2459630861047376e-06,-6.531121399763378e-05,0.9999999978630837,0.001986155068339719,0.0025212115222569605,0.0003472405275721818,0.0,0.0,0.0
1609059617529862165,98,1609059617529862165,-0.0018416303582930358,-0.013667538204274474,0.00012689454173384226,2.0620797894673377e-07,-1.0009929475111757e-05,-3.1900736654101464e-05,0.9999999994410409,0.0009137296975329705,0.005521096041066979,-0.0004228540113437798,0.0,0.0,0.0
1609059617631445169,99,1609059617631445169,-0.0006089666290793249,-0.01183308229980652,0.0004989208425173569,2.420847585732126e-06,-3.331281614449507e-07,-7.845056358252006e-05,0.9999999969197585,0.005377930891756802,0.011810007192451219,0.0025780765953937507,0.0,0.0,0.0
1609059617729900360,100,1609059617729900360,-0.0002735489538371732,-0.012897132546160702,0.00036909194051757305,1.3409130513634659e-05,1.939309268958212e-06,-4.071619797799162e-05,0.9999999990793031,0.004880810597170014,0.0023282280449018165,0.0010262834737837716,0.0,0.0,0.0
1609059617829936504,101,1609059617829936504,-0.0024336045022217106,-0.013636391770494622,0.000178270634554807,-2.3325934472538193e-06,-7.573445478561772e-06,-9.402484808176331e-05,0.9999999955482555,-0.006036928986825149,-0.0010624881814395673,-0.00041619392720410985,0.0,0.0,0.0
1609059617931475878,102,1609059617931475878,-0.0018959000720535494,-0.012443870690595838,0.0001352810926610296,-1.2403502964629008e-05,-9.727580575510185e-06,-4.1981368803455714e-05,0.9999999989945366,-0.0012446232994552699,0.005210958846785092,-0.00044799502473360576,0.0,0.0,0.0
1609059618031517506,103,1609059618031517506,-0.0018513830307848457,-0.011803569688742764,0.00021659937284215113,1.6380822152580268e-06,-5.81400542502811e-06,-7.71887827838142e-05,0.9999999970026937,-0.0006268084363055751,0.006642082261500693,0.0005739745653289248,0.0,0.0,0.0
1609059618129867792,104,1609059618129867792,-0.002839325147238153,-0.013310657797597046,0.00041313480456942026,5.959087771029289e-06,-1.907386021043657e-06,-6.687537238538686e-05,0.9999999977442592,-0.004520048367050585,-0.002103701821942504,0.0016850965348742498,0.0,0.0,0.0
1609059618229888678,105,1609059618229888678,-0.002472638288015333,-0.013481274779807593,0.00036039224234081394,-1.931111480612489e-06,-3.38745882489431e-06,-6.798266888797344e-05,0.9999999976815677,-0.001084228436213923,-0.0011263658089429598,0.0014973836627733075,0.0,0.0,0.0
1609059618329934359,106,1609059618329934359,-0.0010982904973306992,-0.012657640400623308,0.00020868362981805994,6.245041383030726e-06,-4.278410960829855e-06,-9.946169958705948e-05,0.9999999950250239,0.004985397088805209,0.003718337721998001,-0.00017575767293714797,0.0,0.0,0.0
1609059618429931402,107,1609059618429931402,-0.0002535671562553994,-0.011468663259500217,0.0002544191669496487,-2.260801237689934e-06,9.734807074384112e-06,-2.3292699667564123e-05,0.9999999996787776,0.00634968387235749,0.008727390366473707,0.0006907526165417576,0.0,0.0,0.0
1609059618529880762,108,1609059618529880762,-0.0029882946756891516,-0.011581018889960742,0.00027472506453517795,-1.3648283105682072e-08,3.5888107217228923e-06,-7.10333389354107e-05,0.9999999974706838,-0.006967880490225788,0.005258994123928751,0.0013553267298668913,0.0,0.0,0.0
1609059618629816294,109,1609059618629816294,-0.002511163331022602,-0.011453809337106617,0.0004043724899132816,1.0677739794402676e-05,-9.363892891830568e-06,-3.0716776245772984e-05,0.9999999994273825,-0.001985629732208764,0.004327858671059659,0.001222185951596681,0.0,0.0,0.0
1609059618729802847,110,1609059618729802847,-0.0028575269750537556,-0.013996739467473446,0.00032908492227472073,2.129929258562073e-05,-9.524181461942017e-06,-7.3704918943378e-05,0.9999999970115991,-0.0020915242638110954,-0.007277393900266826,0.0008408370992735609,0.0,0.0,0.0
1609059618829808712,111,1609059618829808712,-0.0022674952456648526,-0.012696006383384313,0.0003546820709251941,5.916189249666482e-06,-6.9053809154334084e-06,-0.0001125260862563008,0.9999999936275884,0.0010519210790982648,0.0027479827327349313,0.000937669358245674,0.0,0.0,0.0
1609059618931398392,112,1609059618931398392,-0.002430714799885272,-0.013035810084727716,0.00010343945590837599,-8.700088044073676e-06,-1.253783051961074e-05,-6.332758468199759e-05,0.9999999978783548,1.4907806462389475e-05,0.0014986833718417325,-0.0007594639416530502,0.0,0.0,0.0
1609059619029911041,113,1609059619029911041,-0.0033255450996868357,-0.01343363488201434,0.00020123100025744487,1.571975010636983e-05,1.1383405683372482e-06,-5.354558997979264e-05,0.9999999984422222,-0.003410565790453818,-3.0286062868218038e-05,0.0006795009440341286,0.0,0.0,0.0
1609059619129926443,114,1609059619129926443,-0.0042919225993962775,-0.01328784467503087,0.0002561414966628708,1.1782587400383808e-05,-1.4326877630168476e-05,-5.949580600617942e-05,0.9999999980580704,-0.005412924986958055,0.0017921290840385898,0.0011723491796470041,0.0,0.0,0.0
1609059619229906797,115,1609059619229906797,-0.002795369689378068,-0.014284882345939954,0.00020218400450664628,3.755924850971846e-05,-4.212853315811959e-06,-3.4363923943701654e-05,0.999999998695328,0.002677715776573191,-0.0024058246659845006,-0.00015069670220385932,0.0,0.0,0.0
1609059619329895020,116,1609059619329895020,-0.0028534250253189793,-0.013109212918019562,7.804283306208674e-05,1.8197121260184123e-05,-2.8732366059361764e-06,-8.025278719870964e-05,0.9999999966100399,0.0014071283682386023,0.005216946068596229,-0.00088396818888493,0.0,0.0,0.0
1609059619429915905,117,1609059619429915905,-0.002833790936827633,-0.013642383864571367,-2.010922735063782e-06,5.946816589004392e-06,4.741179885997691e-06,-4.1595295792926676e-05,0.9999999991059838,0.001149429697901421,0.0015680031737917068,-0.00018912999234209273,0.0,0.0,0.0
1609059619529897213,118,1609059619529897213,-0.0024835786287422147,-0.013149969344023028,0.00020135503219527462,2.4083435020996313e-06,-3.827465302998753e-06,-6.803489364560754e-05,0.9999999976753915,0.0022477092709176196,0.0036788883605283988,0.0012475818677609787,0.0,0.0,0.0
1609059619629915953,119,1609059619629915953,-0.0038194851759357088,-0.012664481671837414,0.0003707498384052895,1.7306203038552375e-05,6.6564448859153135e-06,-7.631376049245002e-05,0.9999999969161883,-0.004104210902778694,0.005680610465308964,0.002060036391619853,0.0,0.0,0.0
1609059619731431246,120,1609059619731431246,-0.004285840829103606,-0.011859550459590048,0.00043088672279022763,5.356634479186487e-06,2.793949389609564e-06,-9.93439229306785e-05,0.9999999950471328,-0.004644137656650871,0.007301914729140761,0.001651622895400228,0.0,0.0,0.0
1609059619829847813,121,1609059619829847813,-0.004634896393733187,-0.01085381389566756,0.0004596020314766566,1.892681781436796e-05,8.480473594468182e-06,-9.830349235994119e-05,0.9999999949531301,-0.004258367915857794,0.009285093275183802,0.000544928099880046,0.0,0.0,0.0
1609059619931847572,122,1609059619931847572,-0.00433483714770224,-0.009320687280210698,0.0004625883272944701,5.903219792384151e-06,3.4514004070058128e-06,-5.81161649160915e-05,0.9999999982878657,-0.0013904468669263398,0.012288982934375595,-8.920884041983032e-05,0.0,0.0,0.0
1609059620029935598,123,1609059620029935598,-0.005337002387565698,-0.00925849829528993,0.00046083887581706246,6.346042657095299e-06,5.757546342601472e-06,-7.083897131609738e-05,0.9999999974541991,-0.005029971111390988,0.008016031649154012,0.0009642444192629047,0.0,0.0,0.0
1609059620129878521,124,1609059620129878521,-0.004853340195994371,-0.009206069986807104,0.0005835502967924674,5.332189194363737e-06,-7.841650664108103e-06,-0.0001044378433350495,0.9999999945013962,-0.0007576694434923183,0.006113021905924395,0.0016074252323113292,0.0,0.0,0.0
1609059620229786158,125,1609059620229786158,-0.003141428224910632,-0.008586894937827832,0.0006234383662660168,-4.5594625025781346e-06,-2.986838659232795e-06,-9.359633930493173e-05,0.9999999956049974,0.0069352182203841,0.007419163376426452,0.0017474979434664232,0.0,0.0,0.0
1609059620331373215,126,1609059620331373215,-0.0029301333718929528,-0.008917677199474242,0.0006878920719830295,-7.823259960027105e-06,-2.6665542260253323e-07,-0.00011733437196410825,0.9999999930856749,0.00483727596542355,0.003947999253125647,0.0013303923187453724,0.0,0.0,0.0
1609059620429850578,127,1609059620429850578,-0.0022233340642350725,-0.009511470144498007,0.0006476139746873644,-1.5919826059469364e-05,4.010076596915183e-06,-3.659671109578964e-05,0.9999999991955691,0.005555309618072025,-5.085434456137414e-05,0.0008274276824549874,0.0,0.0,0.0
1609059620529848099,128,1609059620529848099,-0.003958825669610518,-0.01045256394378203,0.0004999159128317735,-3.4617909233490918e-06,-1.7165987668535998e-06,-7.478140717642161e-05,0.9999999971963945,-0.0035461176715586096,-0.0030414881263789717,-0.0005908327008867888,0.0,0.0,0.0
1609059620629893303,129,1609059620629893303,-0.004762870746285049,-0.01139044934518283,0.00024077332261395593,7.983363208684625e-06,2.2437334997617718e-06,-6.583438287427137e-05,0.999999997798522,-0.005305209901184813,-0.005069026242159692,-0.0008729879925191706,0.0,0.0,0.0
1609059620729863882,130,1609059620729863882,-0.0053678142460799605,-0.012414479678799733,0.00025951153008577457,-1.7668365022052808e-06,2.1621595847785365e-06,-8.97316742508055e-05,0.9999999959702045,-0.005568547800393964,-0.00725804236970503,0.0003566919219009354,0.0,0.0,0.0
1609059620829906940,131,1609059620829906940,-0.004688450068394702,-0.012739044684770247,0.0001059299596624319,-1.285781271237472e-06,3.293539302264077e-06,-2.5165533353274906e-05,0.9999999996770876,-0.0006826216368345933,-0.004856573258091964,1.5379209885969217e-05,0.0,0.0,0.0
1609059620929891825,132,1609059620929891825,-0.004699504949220794,-0.012812833585929884,0.00025199946284080744,8.36768990242155e-06,-1.0871919039058087e-05,-7.853945607993352e-05,0.9999999968216583,-0.00013832041915928735,-0.002310902083909556,0.0010632580688098867,0.0,0.0,0.0
1609059621031877756,133,1609059621031877756,-0.005566228102382038,-0.013374790536104462,0.00024352415357149082,1.5312703460021928e-05,-1.3413812446261595e-06,-0.0001163354480815783,0.9999999931148821,-0.0033120177166799645,-0.003014832311155023,0.0006810128174620937,0.0,0.0,0.0
1609059621129814386,134,1609059621129814386,-0.003692716748096381,-0.013943364368209105,0.0001857862440292712,-1.0062848289248564e-05,-8.535088275816171e-08,-6.441581761743132e-05,0.9999999978746557,0.005843260963975189,-0.0030128925722858997,-0.0004562446582643664,0.0,0.0,0.0
1609059621229797363,135,1609059621229797363,-0.003829931750532231,-0.013548063223596417,0.0002520497983120398,-1.0350122591711097e-05,-7.29325438127527e-06,-7.359568197620544e-05,0.9999999972116682,0.0028109068133434596,0.001168281402014666,0.0012486114951497675,0.0,0.0,0.0
1609059621329772472,136,1609059621329772472,-0.0038464468400785743,-0.013710008301827701,0.00019543274021026854,6.247813182349973e-07,2.8466443988793513e-07,-6.447924209702972e-05,0.9999999979209665,0.001607509112877165,0.0008265776253353225,0.0006243500518634461,0.0,0.0,0.0
1609059621429785490,137,1609059621429785490,-0.0029217156586547224,-0.01345019875065332,0.0003325535284918093,5.339475012749568e-06,-1.8218392213827366e-06,-7.47010379658159e-05,0.9999999971939512,0.004771346349606068,0.0028882258903197033,0.001515115724111459,0.0,0.0,0.0
1609059621531367064,138,1609059621531367064,-0.002469295869402927,-0.012756183510778677,0.0005263114641634398,8.062089109719059e-07,-4.645841110992137e-06,-4.9949308572217114e-05,0.999999998741404,0.004807266389596739,0.0053671491708589016,0.0022924690339448618,0.0,0.0,0.0
1609059621631396770,139,1609059621631396770,-0.0016134216948191238,-0.013245012595906196,0.0007041865550058244,1.3955458196956e-05,5.2523755848406805e-06,-6.189210527995474e-05,0.9999999979735004,0.006282800588332639,0.001739700538807678,0.0026209790168797644,0.0,0.0,0.0
1609059621729860306,140,1609059621729860306,-0.002335362920104785,-0.014247026807216259,0.0003556127366263341,-1.3890164348089619e-05,1.6012959438365254e-05,-7.48613503841785e-05,0.9999999969732011,0.0010995071022407935,-0.001950875299295838,-0.00031248676800302386,0.0,0.0,0.0
1609059621829835176,141,1609059621829835176,-0.0026387434392495324,-0.01271634037997493,0.00019556601830282485,-2.1771559924641026e-06,9.037917440418415e-06,-5.8333419572634366e-05,0.9999999982553822,-0.0007150479427983718,0.006538520075924672,-0.0006442842009751252,0.0,0.0,0.0
1609059621929887295,142,1609059621929887295,-0.002546351280747309,-0.011942304589320087,0.00030379391416243765,-5.042668638749553e-06,3.1189376606501212e-06,-5.1145472187156724e-05,0.9999999986744805,2.8673194279767947e-05,0.007833802638865356,0.0010167692002101961,0.0,0.0,0.0
1609059622029878855,143,1609059622029878855,-0.003681806416286445,-0.011089661628789823,0.00032444497568981937,9.00646884916084e-06,4.372044959523898e-06,-5.850249225767214e-05,0.9999999982386023,-0.004676190206559292,0.009039025045299442,0.0008303888949075786,0.0,0.0,0.0
1609059622129899263,144,1609059622129899263,-0.004707877072457612,-0.011445938527568682,0.00039952178794647403,-1.4232011615630026e-05,1.4530726555400745e-06,-0.00010773513835940569,0.9999999940942284,-0.007352051647193599,0.004270206784089639,0.0017610386440923024,0.0,0.0,0.0
1609059622229887009,145,1609059622229887009,-0.004355141031262635,-0.01115440739279777,0.0004316170213128204,-1.5458759008937895e-05,-6.30248345394986e-07,-7.522869045151196e-05,0.999999997050626,-0.0030739706892459542,0.00473759057665451,0.0012973361676578469,0.0,0.0,0.0
1609059622329910040,146,1609059622329910040,-0.004152868510976383,-0.010543827683424862,0.00034764569406184174,2.857899724432408e-06,1.5716889338640305e-06,-7.090813130644101e-05,0.9999999974806882,-0.0011722586975596002,0.005841784063874647,0.00047922867318039907,0.0,0.0,0.0
1609059622429899693,147,1609059622429899693,-0.004020468953910693,-0.012984649163908422,0.00025752718114047937,2.9677463836067913e-06,-2.9654195304613034e-06,-5.5831152237598146e-05,0.9999999984326287,-3.476276637217799e-05,-0.006052207631484703,0.0002831278452409706,0.0,0.0,0.0
1609059622529842615,148,1609059622529842615,-0.0042796023372952425,-0.012060228531066655,0.00036407107124462136,-3.762944862026902e-06,-5.536158167365148e-06,-8.474023998090354e-05,0.9999999963871296,-0.0013345732371314433,0.0017161792614228313,0.001821169605058897,0.0,0.0,0.0
1609059622629849195,149,1609059622629849195,-0.00326427478556097,-0.013275684603436968,0.0004939686587876738,2.5541948909681433e-06,1.7378199998510542e-05,-5.386462673442793e-05,0.9999999983950262,0.003207263600012293,-0.003754425504744692,0.00241785719256742,0.0,0.0,0.0
1609059622729781866,150,1609059622729781866,-0.0017187886739969318,-0.012725309569433919,0.0004843876826743295,-1.937169590998526e-06,3.4901389053058245e-06,-8.69353539456376e-05,0.9999999962131434,0.008294103521491517,0.0012905490631744078,0.0011662922787949227,0.0,0.0,0.0
1609059622829770565,151,1609059622829770565,-0.0008483211656868685,-0.012795110566041702,0.0002843273556311091,-9.98162457080257e-06,8.326790267267412e-06,-7.359008027783912e-05,0.9999999972077537,0.008389913576653923,0.0015459083324004651,-0.0006589909417904481,0.0,0.0,0.0
1609059622929824114,152,1609059622929824114,-0.0020293803906686054,-0.012224179182051787,0.00027682651123176426,5.542878262459051e-06,9.728883237884595e-06,-6.692181551947712e-05,0.9999999976980357,0.0004797036486638862,0.0037663685592170012,-0.0003091190432296593,0.0,0.0,0.0
1609059623029813051,153,1609059623029813051,-0.0013335916045453086,-0.011442082345295845,0.0003573087981714961,1.5680516508938704e-07,4.336074326853603e-06,-9.243428149999867e-05,0.9999999957185265,0.002630000000657942,0.00578195133093089,0.0005958961307484783,0.0,0.0,0.0
1609059623129863024,154,1609059623129863024,-0.0016123651462198157,-0.010411187331032577,0.00042076122572784795,-1.1084784624211517e-05,5.369794719788703e-06,-5.321638712326638e-05,0.9999999985081424,0.0006372749945546927,0.008472059863891192,0.0010484057319735825,0.0,0.0,0.0
1609059623229856014,155,1609059623229856014,-0.0015017779323731508,-0.010079887326141483,0.0005434515948394856,2.236068221567402e-07,1.7837276982901e-05,-7.353793281028961e-05,0.9999999971369654,0.0008057576509682109,0.006720171468060627,0.0023801139457155685,0.0,0.0,0.0
1609059623331411600,156,1609059623331411600,-0.0016378819113530298,-0.010484677786605232,0.0005100591135482214,-1.97520964823788e-05,4.671971343675217e-06,-4.0289438785667556e-05,0.9999999989823825,-0.00014416605549917659,0.002822019091340445,0.0012799879847525575,0.0,0.0,0.0
1609059623429813623,157,1609059623429813623,-0.0013078118963979924,-0.011530539314833055,0.000531947778828159,-1.1775464698590787e-05,1.4132749376452718e-05,-7.955649581585895e-05,0.9999999966661726,0.0016923432654289252,-0.0017765699616262595,0.0015476572278370914,0.0,0.0,0.0
1609059623529811382,158,1609059623529811382,-0.002105062513359253,-0.012639992526143758,0.0005426672039054991,-3.849277812669142e-06,7.351904750631592e-07,-1.9674003354831253e-05,0.9999999997987767,-0.0020405028764458404,-0.005281271746192423,0.0011611248424066457,0.0,0.0,0.0
1609059623629841566,159,1609059623629841566,-0.001769229468215071,-0.013921627923600145,0.0003349091373019081,6.692847750152885e-06,1.6942948287518935e-05,-4.446596034738782e-05,0.999999998845449,2.83130398827376e-05,-0.00901719782427491,-0.0014186900113648299,0.0,0.0,0.0
1609059623729810238,160,1609059623729810238,-0.002113835036202617,-0.01424694034945363,0.0003600871453405674,-2.194156609216746e-06,4.405677846256871e-06,-0.00011055020411275718,0.9999999938772033,-0.001132979900013381,-0.005834657779931885,-6.420782009327708e-05,0.0,0.0,0.0
1609059623829813480,161,1609059623829813480,-0.0017846318656513384,-0.012852963817811603,0.00024991057522034287,-1.0271662103134386e-05,1.3953104154268653e-05,-7.289959123739896e-05,0.9999999971927158,0.001067582385985644,0.004226247797929205,-4.315896296198979e-05,0.0,0.0,0.0
1609059623929785728,162,1609059623929785728,-0.004538057108375171,-0.010555663961898935,0.00042573250421913537,-4.482278728242412e-06,2.3881091943000523e-06,-8.559361778872173e-05,0.9999999963239588,-0.009952544374515546,0.012745583868471017,0.001762706935639418,0.0,0.0,0.0
1609059624029775620,163,1609059624029775620,-0.004191465593159718,-0.009975899246141505,0.0005914926063753965,-8.631414342991243e-06,8.144518041340633e-06,-7.19743193195458e-05,0.9999999973394207,-0.004432313415161022,0.01090992306861667,0.0016459422733700576,0.0,0.0,0.0
1609059624129775763,164,1609059624129775763,-0.0021686010905274354,-0.010964606081691617,0.0004141493513912103,-1.1004974465996099e-05,1.0868109328577998e-05,-7.554051275507595e-05,0.9999999970271917,0.005269292057052537,0.003830652282187638,0.0001765644429273241,0.0,0.0,0.0
1609059624231381416,165,1609059624231381416,-0.002860092860299786,-0.011169541573291183,0.0004418580098356743,-4.808508059454164e-06,8.990362039612613e-06,-0.00011455518914242997,0.9999999933865693,0.0002649843492545144,0.001829802148913916,0.001076323779726936,0.0,0.0,0.0
1609059624329801083,166,1609059624329801083,-0.005745943125089176,-0.011390185506995786,0.0005630415560547465,-1.3851543961820102e-05,-4.964664233519868e-06,-9.230651303445686e-05,0.9999999956314859,-0.011307797218346074,0.0006223467982194178,0.0014467380393279657,0.0,0.0,0.0
1609059624429765940,167,1609059624429765940,-0.00559154176103668,-0.011710511426888342,0.0005845516319908836,3.592754798933874e-06,4.91594882361393e-06,-8.56341587506221e-05,0.9999999963148474,-0.0063154663276592925,0.0001394051251318799,0.0010151193501385255,0.0,0.0,0.0
1609059624529791594,168,1609059624529791594,-0.004434541612914902,-0.012820662763877135,0.00038599252378151896,-1.1001306287752998e-05,9.552680658059188e-06,-4.0080536758430816e-05,0.9999999990906233,0.00046465110225908397,-0.0037452534461683584,-0.00024073237484091483,0.0,0.0,0.0
1609059624629816294,169,1609059624629816294,-0.004720625829625124,-0.012369839308445664,0.00047662261679964007,4.207700008613721e-06,1.40856333895746e-05,-6.655232692338113e-05,0.9999999976773282,-0.000847461772534621,7.68946151040598e-05,0.001382847581058749,0.0,0.0,0.0
1609059624729864597,170,1609059624729864597,-0.004428322654227609,-0.013654697105244449,0.00023507485600559694,-2.3590233233085756e-06,5.080124414011152e-06,-9.149342172147122e-05,0.9999999957987795,0.0004907387574385382,-0.004475562071163372,-0.0005452448745559356,0.0,0.0,0.0
1609059624829847813,171,1609059624829847813,-0.0030260325030721643,-0.014029586235509754,0.00014594411269322114,-1.163493919441262e-05,4.1537260448060405e-06,-8.21889993473866e-05,0.9999999965461608,0.00598602975026864,-0.003530680813921657,0.00012932379274696785,0.0,0.0,0.0
1609059624929852486,172,1609059624929852486,-0.0034530925632220936,-0.012580582772961027,0.0002391569672820795,-5.394616522789825e-06,-8.441770758574268e-06,-7.885233734196844e-05,0.9999999968409605,0.0021886697541093096,0.004555503836229222,0.0020298035102136558,0.0,0.0,0.0
1609059625029816151,173,1609059625029816151,-0.0041829624617764705,-0.011296090422882897,0.00045717269644444616,-1.346004994038932e-05,-4.361686031697653e-06,-8.314365939626514e-05,0.999999996443456,-0.0015046688220251739,0.008939425312677104,0.0024094078032311766,0.0,0.0,0.0
1609059625129709244,174,1609059625129709244,-0.0052056726272031,-0.01169690176284179,0.0003950354182086556,-2.965772165487764e-06,4.809300131231165e-06,-0.0001082752108899914,0.9999999941222657,-0.00491641312957027,0.00435090657086215,0.001942366092531351,0.0,0.0,0.0
1609059625229741812,175,1609059625229741812,-0.003912949321072099,-0.011961537673459425,0.0003532450276798592,-1.1080574912293276e-05,-9.983441348764367e-07,-6.388784879959293e-05,0.9999999978972723,0.0026280628665166506,0.001939046497861449,0.0013115613510058764,0.0,0.0,0.0
1609059625329787731,176,1609059625329787731,-0.006090668542164067,-0.010539164825347237,0.00032181236283031895,-6.130893382629437e-06,-6.546070193124175e-07,-0.00015368467050108766,0.999999988171492,-0.006694681238341923,0.008013970907707814,0.0012295561750589189,0.0,0.0,0.0
1609059625429824829,177,1609059625429824829,-0.005530757476445861,-0.011158804139385825,0.00041280805421762954,8.509616303604876e-07,-1.268781560513812e-06,-0.0001026666451394841,0.9999999947286027,-0.002050397085410734,0.0029137953012877945,0.0009973397391786552,0.0,0.0,0.0
1609059625529826641,178,1609059625529826641,-0.003458044016469386,-0.012205267898669027,0.0004634579875020235,-1.4656819142347074e-06,-2.9667538083498613e-06,-4.866084328330168e-05,0.9999999988105759,0.006655767730253643,-0.0019951066411207693,0.0013880282806399559,0.0,0.0,0.0
1609059625629789591,179,1609059625629789591,-0.002700335814398057,-0.01417111753494911,0.0002927461986792993,-6.57733546021991e-06,1.5304897489097696e-06,-5.0845291442734196e-05,0.9999999986845659,0.006987334717523246,-0.009034075223091213,0.00033018930422928244,0.0,0.0,0.0
1609059625729812622,180,1609059625729812622,-0.003974162586749378,-0.014407388124243208,0.00021509998629481696,-1.8838695356605356e-06,-1.839707057817452e-06,-8.560396532375993e-05,0.999999996332503,-0.0012560341573462901,-0.005833874355601834,-3.739973355844974e-05,0.0,0.0,0.0
1609059625829838276,181,1609059625829838276,-0.0027679946217691073,-0.014033816232550232,0.00011007972829991929,-6.004506931675534e-06,-7.559655663035969e-06,-6.958370000006669e-05,0.9999999975324421,0.004560297168140362,-0.00029970100048385025,9.11148592456585e-05,0.0,0.0,0.0
1609059625929838419,182,1609059625929838419,-0.002629952218925867,-0.013611981037571629,0.0003778574896442416,1.5705507034059977e-05,-9.186226353402306e-07,-9.444630861146678e-05,0.9999999954161836,0.0036026399455455545,0.002336437523606427,0.002711520836139272,0.0,0.0,0.0
1609059626031397104,183,1609059626031397104,-0.0032740815189802553,-0.01265272446006856,0.0005782148193290747,-1.3470548622102439e-05,-8.325566827631548e-06,-7.922296079728746e-05,0.999999996736465,-0.00019095719139743377,0.006201743265308847,0.0030921618377888717,0.0,0.0,0.0
1609059626129834652,184,1609059626129834652,-0.004035884975652284,-0.012770111041461559,0.0005158998652452457,-1.034827864035068e-05,-7.013608318835544e-06,-0.00011199435353826069,0.9999999936504821,-0.0030734487411832882,0.0046783272186389,0.0018204165020731901,0.0,0.0,0.0
1609059626229779959,185,1609059626229779959,-0.00410705198602687,-0.011811426020573113,0.0004939714756910361,-1.5595836064068358e-05,-1.5183177439650458e-05,-7.454437892979863e-05,0.9999999969846769,-0.0019138395748505457,0.007495798530855592,0.00039292835115471063,0.0,0.0,0.0
1609059626329770088,186,1609059626329770088,-0.0030450169466071835,-0.013135499608302821,0.0004210519127191804,-2.543067452471698e-07,-1.5305061027114224e-06,-0.00010056885476602524,0.9999999949417379,0.0028296541325269096,-0.0004121243158929193,0.00014180359867732676,0.0,0.0,0.0
1609059626429755449,187,1609059626429755449,-0.004673856007078252,-0.012904476207994732,0.00018896353063675153,-1.4374942391977746e-05,6.1740090116282285e-06,-0.00010316871216482776,0.9999999945557182,-0.005246105106548572,0.0018170460246036155,-0.0009604314477963803,0.0,0.0,0.0
1609059626529772997,188,1609059626529772997,-0.003820396323227982,-0.013550894044248168,6.623771979763316e-05,-1.047685157321284e-05,-2.0378053223789484e-06,-0.00010092550000951433,0.9999999948500509,0.0003636505057137574,-0.0012032113134413896,-0.0005460524318784725,0.0,0.0,0.0
1609059626629787207,189,1609059626629787207,-0.00384386621089649,-0.013087057439668077,0.00021617611767578074,-1.582378910783743e-05,2.6215096302965088e-06,-4.0777963334092936e-05,0.9999999990399342,0.00045905294713793107,0.002256623004040137,0.001549126200618129,0.0,0.0,0.0
1609059626729803085,190,1609059626729803085,-0.0032147779556760962,-0.014077141270700432,0.0003603682992169408,9.965287635908784e-06,4.0628116043521647e-07,-6.123317454321677e-05,0.9999999980755009,0.002727423893091144,-0.0019332129478239778,0.0023041625935856357,0.0,0.0,0.0
1609059626831355333,191,1609059626831355333,-0.003470015918697584,-0.01300606265867844,0.0003902732800648605,-9.446566365032768e-06,-1.3273216797493738e-05,-3.118180418518443e-05,0.9999999993811273,0.0004254958274044025,0.00483158645925938,0.0015015723764258352,0.0,0.0,0.0
1609059626929738045,192,1609059626929738045,-0.004098360096870223,-0.012621280722411537,0.0005251582375293494,2.0225175464490202e-06,7.393462376792896e-06,-7.815365938654026e-05,0.9999999969166133,-0.0021908562064257143,0.0049117915758716164,0.002158097003925542,0.0,0.0,0.0
1609059627031269550,193,1609059627031269550,-0.006458524113398735,-0.011656049458058955,0.0006126251636457596,2.9531712849035605e-06,8.679692837712687e-06,-0.00013846646513551253,0.9999999903714775,-0.010867259984603096,0.007999558519495496,0.002014891740381448,0.0,0.0,0.0
1609059627129713297,194,1609059627129713297,-0.005531187206259777,-0.011220917367840446,0.0004994761096229513,-1.1202352035136304e-05,-8.767088401231736e-06,-9.702064050094174e-05,0.999999995192308,-0.0029156604573510186,0.007019966294518357,0.0010760611404496258,0.0,0.0,0.0
1609059627229775667,195,1609059627229775667,-0.005322807557603059,-0.012724480323038277,0.00038593804466916323,-8.530152612370962e-06,1.4557434528294398e-06,-7.573800572094429e-05,0.9999999970944236,-0.0010599266641031185,-0.001256816920640261,3.654487900786043e-05,0.0,0.0,0.0
1609059627329777479,196,1609059627329777479,-0.005476307528876779,-0.012540134635117774,0.0003168646344238912,7.255847446815462e-06,-3.6042301563239857e-06,-9.601079177509916e-05,0.9999999953581329,-0.0009978909661374027,0.0004027392777280188,0.00021932326514173263,0.0,0.0,0.0
1609059627431346178,197,1609059627431346178,-0.005513705107247152,-0.011225074191977777,0.0003554718193476479,-1.863409123618772e-05,-1.0082223701560979e-05,-9.789707492485038e-05,0.9999999949836291,-0.0006447804834370668,0.006708728744048605,0.0009315819583435214,0.0,0.0,0.0
1609059627529762030,198,1609059627529762030,-0.006285516281232664,-0.010565696025621752,0.0004477281020430406,-1.506403985677846e-05,-1.0234608911712233e-05,-0.00011492986460837042,0.9999999932297154,-0.0032406052964619528,0.007456997878405937,0.000981846451410544,0.0,0.0,0.0
1609059627631327391,199,1609059627631327391,-0.0075265895228269165,-0.012603686982153976,0.00022282030909871143,-7.912424495838203e-06,-1.142938843571047e-05,-0.00010906778222123347,0.9999999939554796,-0.0066168951438000286,-0.0030452245886031376,-0.00039336154879918183,0.0,0.0,0.0
1609059627729752302,200,1609059627729752302,-0.0072305652245462215,-0.014027178668152469,0.00026539927752472443,-7.019938196112755e-06,1.1313343599804957e-05,-8.152914101883491e-05,0.9999999965878524,-0.0028200199391676187,-0.0069735160603688106,0.0007739586930885534,0.0,0.0,0.0
1609059627831345320,201,1609059627831345320,-0.005331752641663219,-0.014592110159271069,0.00030870305625895763,-9.017197876507958e-06,-4.812117696815102e-06,-7.316175654476505e-05,0.9999999972714338,0.00556757354820755,-0.005633394488584097,0.0014242683983361484,0.0,0.0,0.0
1609059627929776430,202,1609059627929776430,-0.005516248130903379,-0.014655088803709033,0.00022728014457361665,-1.0455191785983335e-05,-1.574811709890304e-06,-9.21753643338457e-05,0.9999999956959437,0.0029189393094414535,-0.0029213973035129683,0.000849546957967713,0.0,0.0,0.0
1609059628029708147,203,1609059628029708147,-0.0050519966312484715,-0.014660984718330883,0.000284725179630558,-3.372916112053215e-06,1.1695500525251946e-06,-0.00010728819427175344,0.9999999942382375,0.0029004701678282106,-0.0009436082556288422,0.001438789593536354,0.0,0.0,0.0
1609059628129722118,204,1609059628129722118,-0.005125762893718293,-0.014008135302530136,0.000374752849831939,-2.7145265984569363e-06,-5.979451197176245e-06,-0.0001098586460628966,0.9999999939439657,0.0019816017473235368,0.002407412650844342,0.0014229205864971658,0.0,0.0,0.0
1609059628231304407,205,1609059628231304407,-0.004849006098820845,-0.013235128550901705,0.00048300753093413735,-6.845758913086364e-06,7.265000638078836e-07,-9.750115062436778e-05,0.9999999952230554,0.0018802165956513907,0.00541175739944693,0.0012927085691317559,0.0,0.0,0.0
1609059628329723597,206,1609059628329723597,-0.006217717048887406,-0.012477004383534985,0.0005335068046799688,-2.659019424473507e-06,-3.815215619304892e-07,-9.467281064487789e-05,0.9999999955149104,-0.004232231791019709,0.006817422909093597,0.0011587850878118518,0.0,0.0,0.0
1609059628429749250,207,1609059628429749250,-0.004324372131080879,-0.012278370565937394,0.0006464091780917835,7.493932946225969e-06,1.0587782429961579e-05,-0.00010259500566289079,0.9999999946529913,0.005246978893963095,0.0057675867434194275,0.001758678443816331,0.0,0.0,0.0
1609059628531293154,208,1609059628531293154,-0.004198886669203792,-0.01161799052438582,0.0004810157649488426,-1.4116872844719316e-05,-3.9558447214177365e-06,-9.440457209645331e-05,0.9999999954364099,0.0038124040759884193,0.0070024054633199525,0.001014776951855406,0.0,0.0,0.0
1609059628631351471,209,1609059628631351471,-0.003649071986984727,-0.011948353643663699,0.00036646147199729135,-8.182440749514956e-06,1.4846338634281805e-06,-4.330445286710636e-05,0.9999999990277724,0.004674650351349055,0.003320342000779501,1.6687253775994832e-05,0.0,0.0,0.0
1609059628731349707,210,1609059628731349707,-0.006034860762024238,-0.01271131857278617,0.0003276658360445225,-2.654300108863979e-06,4.825571982615205e-06,-8.900644212672856e-05,0.9999999960237492,-0.006441132892670304,-0.00042877411671990136,2.4347617475883117e-05,0.0,0.0,0.0
1609059628831312418,211,1609059628831312418,-0.006980468861513632,-0.01280322327741757,0.00039985805364534316,-8.757042990463095e-06,-4.049780507933274e-06,-9.223802799926237e-05,0.999999995699518,-0.0075411149684482,0.00030833215325674017,0.0009671350607932132,0.0,0.0,0.0
1609059628931319714,212,1609059628931319714,-0.006107152804298111,-0.012136491131347392,0.00037753292803591534,-9.481831537478115e-07,-6.2830074848808646e-06,-6.342752694603588e-05,0.999999997968275,-0.0010892350944389194,0.003624396256449616,0.001227821617907569,0.0,0.0,0.0
1609059629029728413,213,1609059629029728413,-0.006153896006453142,-0.011733638656520528,0.000631753256070697,1.054970525132535e-06,-7.2068408126473725e-06,-0.00010403365983250021,0.9999999945619616,-0.0006513954638474681,0.004808017247517643,0.002753472155061957,0.0,0.0,0.0
1609059629129698753,214,1609059629129698753,-0.0050796475862454555,-0.012481334217276489,0.0004467498189461245,6.759766729700539e-06,6.7150883679134345e-06,-9.058762268307456e-05,0.9999999958515363,0.004185672342641489,1.224376842648596e-05,0.0007808385092438275,0.0,0.0,0.0
1609059629229707241,215,1609059629229707241,-0.00403908915211428,-0.013501784473904165,0.00039482837676757727,-5.944886863053988e-06,2.504836477019599e-06,-5.550161678547412e-05,0.9999999984389657,0.00674695303451785,-0.003402391254067636,0.0010485259009906452,0.0,0.0,0.0
