%time,field.header.seq,field.header.stamp,field.pose.pose.position.x,field.pose.pose.position.y,field.pose.pose.position.z,field.pose.pose.orientation.x,field.pose.pose.orientation.y,field.pose.pose.orientation.z,field.pose.pose.orientation.w,field.twist.twist.linear.x,field.twist.twist.linear.y,field.twist.twist.linear.z,field.twist.twist.angular.x,field.twist.twist.angular.y,field.twist.twist.angular.z
1624163943514123201,0,1624163943514123201,-0.002218611453353043,-0.0010574308923711364,-0.000508783326961378,-8.966595045688166e-06,-0.00019325288137032689,0.00015166466275109305,0.9999999697853764,-0.001056059029898224,-0.0030129599798657523,-0.00019208824478773,0.0,0.0,0.0
1624163943613989830,1,1624163943613989830,-0.0006956910329181273,-0.0018474910197879908,-0.00010040829690950889,1.8066607216358463e-05,-0.0001703221270924993,0.000220368284694528,0.9999999610508942,0.014371058119873544,-0.008087783479940694,0.0036588990646689162,0.0,0.0,0.0
1624163943714102507,2,1624163943714102507,-0.0010758589214337503,-0.0004674134717081268,-0.0005251270278670483,-4.551996342816003e-06,-0.00012043120200231571,6.788255558238069e-05,0.9999999904337813,0.0013348119632742902,0.0049959441898416255,-0.002731235285129946,0.0,0.0,0.0
1624163943814069271,3,1624163943814069271,-0.0015120406420821495,0.0006242925805058996,-0.000303076301630775,2.5764571527710093e-05,-7.448168586510967e-05,0.00011691408982359611,0.9999999900598803,-0.003760019810118421,0.00695864907327126,0.0004100771786310778,0.0,0.0,0.0
1624163943913621426,4,1624163943913621426,-0.0027747846474830765,0.0023208696038057863,-0.00026044806184514314,-2.9426193242185537e-08,-8.457087293626441e-05,8.767832163220593e-05,0.9999999925801389,-0.009090984265773615,0.01213411721779471,0.00013715972036757232,0.0,0.0,0.0
1624163944013992548,5,1624163944013992548,-0.0007612531859563751,-0.0002572096833536788,-0.00015394534163993713,5.11414014258073e-07,-0.0001488808613572483,8.191266348629177e-05,0.999999985562271,0.0071386646867841515,-0.00784826081735067,0.0011205134326566848,0.0,0.0,0.0
1624163944113742828,6,1624163944113742828,-0.0005480930237706478,-0.0016864979754808579,-0.00020871646099162499,2.463447395741232e-06,-0.00015869066806915158,8.995766112648455e-05,0.9999999833594103,0.004964612390750335,-0.014498625776255068,0.000453110572804965,0.0,0.0,0.0
1624163944213720083,7,1624163944213720083,0.0003888674787217884,-0.0021591354884131463,-0.0003937862993333467,8.15905486391546e-07,-0.00015027513093107675,6.916123241868052e-05,0.9999999863167207,0.007395083241017471,-0.010940019624631949,-0.002531536201945011,0.0,0.0,0.0
1624163944313928843,8,1624163944313928843,0.00043925828464885753,-0.00040763599470219973,-0.00034232742384499064,1.3611381013296128e-05,-0.00011006492550386954,5.7919945466282494e-05,0.9999999921728603,0.003710245036720802,0.0009414367858288399,-0.0007691788361135908,0.0,0.0,0.0
1624163944413479805,9,1624163944413479805,0.001920047847019,0.00025863543169442755,-0.00033726288184515794,1.611251338785566e-05,-7.058433510746601e-05,8.688101832493022e-05,0.9999999936049625,0.009152922463718155,0.002625998806518267,-0.00041878157189452416,0.0,0.0,0.0
1624163944513908148,10,1624163944513908148,0.001952467216191907,-0.0008168299193926594,-0.0005170672519957942,1.1989647097469272e-05,-8.143216322089263e-05,0.00013115867544762747,0.9999999880112249,0.005023898922709464,-0.0030114097439894036,-0.001894404274231399,0.0,0.0,0.0
1624163944613794327,11,1624163944613794327,0.002140910150894584,-0.0016203056380865745,-0.00027286738212969924,9.182650325407377e-06,-9.592993673678276e-05,9.074238326346067e-05,0.9999999912394715,0.004540370908067293,-0.006611103061427296,0.001372672464418996,0.0,0.0,0.0
1624163944714037180,12,1624163944714037180,0.0007661046874024112,0.0007082791400962887,2.6802608150179682e-05,-1.732267496642268e-06,-0.00014477711152538242,9.944177311560166e-06,0.9999999894688482,-0.003574740765582665,0.006515406880900908,0.0024207880569062958,0.0,0.0,0.0
1624163944814157724,13,1624163944814157724,0.0005390111180866291,-0.0006486218099998069,0.0001487952071856217,2.239047465085452e-05,-0.00014509456922173275,3.131664122151829e-05,0.999999988732748,-0.004110866986534484,-0.0027668084136867792,0.001146410588960692,0.0,0.0,0.0
1624163944913749218,14,1624163944913749218,7.357232082550998e-05,0.0010037184369098887,-0.000114963839415067,1.3855115900034316e-07,-0.00011086391310292975,3.791655926794804e-05,0.9999999931357518,-0.004720189558062253,0.005136594088491635,-0.0020097810031279003,0.0,0.0,0.0
1624163945014068365,15,1624163945014068365,0.001094329717847057,0.0007621578266384417,-0.0003582054358393296,2.3196875726702405e-06,-0.00010122467854385884,1.8317304901295368e-05,0.9999999947063275,0.0016360523363991982,0.002009625096502787,-0.0026087620221069826,0.0,0.0,0.0
1624163945114063025,16,1624163945114063025,0.0011555149905461354,-0.00011108610906171861,-0.00019768484146744775,8.796382053683513e-06,-0.00012161252141862887,2.9270191851386776e-05,0.9999999921381344,0.0010004088038167375,-0.0020852675991702924,0.0007769954301999407,0.0,0.0,0.0
1624163945213955641,17,1624163945213955641,-0.00010865005701571552,-0.0019814633689763583,-0.0003278899462496985,3.043376026786025e-06,-0.00012919789050954783,9.052958535828002e-05,0.9999999875515164,-0.005707306501442575,-0.01101135862022996,-0.0007040021854872043,0.0,0.0,0.0
1624163945313868046,18,1624163945313868046,0.0017539306714570238,-0.001395333616861791,-0.000350793730986896,-1.0924324264239821e-05,-0.00011663729508216587,3.989847658473469e-05,0.9999999923422546,0.005877993672730501,-0.00346223780356264,-0.0006224817986119804,0.0,0.0,0.0
1624163945413921356,19,1624163945413921356,0.00017046268005287452,-0.001184534274645811,-3.013797962275746e-05,2.378387611036615e-05,-0.00010975789451329988,0.00012203789614468404,0.99999998624714,-0.005313597145196873,-0.002045562658756911,0.0014522610893070319,0.0,0.0,0.0
1624163945513886690,20,1624163945513886690,0.0011570709324309524,-0.0016443796525385298,-0.0005688796535444486,-3.270348175504136e-06,-8.50206711529263e-05,7.531669493277046e-05,0.9999999935440914,0.0017267374333055276,-0.003700571809295183,-0.00379786739406224,0.0,0.0,0.0
1624163945613921165,21,1624163945613921165,0.0012108470087486903,0.0008553265862312296,-0.0005539535997111814,-7.409357770007428e-07,-0.0001101450581292378,5.2877442917500665e-05,0.9999999925357447,0.002256936622732844,0.008963389603964927,-0.0010492664440609036,0.0,0.0,0.0
1624163945713936567,22,1624163945713936567,0.0019906318403768216,0.0008047391188274844,-0.00023416272352178925,1.5275785230811754e-05,-0.00011838510205787673,3.651742356885553e-05,0.9999999922090459,0.004946746599615406,0.005201726771661924,0.0018181587759498374,0.0,0.0,0.0
1624163945813945055,23,1624163945813945055,0.003256495132217221,-0.0002998987470134381,-0.00015680158816650262,9.213621469506009e-06,-0.00013423912999112287,9.461736769034695e-05,0.9999999864712572,0.00853960939402943,-0.0024516604192741645,0.0012294938357628718,0.0,0.0,0.0
1624163945913533449,24,1624163945913533449,0.0033537574403029167,-0.00023720674584514246,-0.00032919419274464484,-4.924674221290485e-06,-0.00013012019198680222,6.080324842063661e-05,0.9999999896737222,0.004883731888368994,-0.0012582928117302909,-0.001143615931931293,0.0,0.0,0.0
1624163946013755083,25,1624163946013755083,0.0033776691307613317,-0.0007420381993655504,-0.0002584632317898048,2.1618161977696554e-05,-9.410134733863038e-05,4.1541092763821216e-05,0.9999999944759622,0.002056156245064788,-0.0033708878899084424,-0.000495467732521107,0.0,0.0,0.0
1624163946113918304,26,1624163946113918304,0.002036742037308372,-0.000865028410171879,-0.00028147693145318977,8.663333948218045e-06,-8.145085307243531e-05,0.00012720297988020994,0.9999999885550516,-0.005802394417509454,-0.0032918078761724956,-0.0007425454540563748,0.0,0.0,0.0
1624163946213915348,27,1624163946213915348,0.00232090481784925,-0.0015380569680859759,5.013287159899777e-05,1.1987211701409484e-05,-7.716380043794739e-05,0.00020972197023361465,0.9999999749593735,-0.001905119742032787,-0.005256019480613961,0.0024454324029792923,0.0,0.0,0.0
1624163946314117193,28,1624163946314117193,0.003149740586035605,-0.0017719758215728383,-0.00010315508450313943,2.329518845057562e-05,-0.00010147720676499325,6.778294991720777e-05,0.9999999922825896,0.0031044947912236224,-0.00441643822491718,-0.0002788430667162757,0.0,0.0,0.0
1624163946414061069,29,1624163946414061069,0.003921930339497461,-0.0026392144460562874,-0.00015924664264484596,3.695901745272249e-06,-0.00012053396357403831,8.848823849132845e-05,0.9999999888138661,0.00532791146135558,-0.006853640627326257,-1.5096937584305637e-05,0.0,0.0,0.0
1624163946513765812,30,1624163946513765812,0.0037070372932901715,-0.002916249385341688,-0.00013359876388542336,4.003050618170043e-06,-0.00010381046282933383,7.459095364360103e-05,0.9999999918217745,0.0016822304501782552,-0.005334709093852185,-0.0007481488731775985,0.0,0.0,0.0
1624163946613662004,31,1624163946613662004,0.003645925562651731,-0.0017303838581713335,-0.0004235152280326099,7.614991803187749e-06,-8.859895285194777e-05,-3.1200136842921957e-06,0.9999999960412493,0.0005708828879419815,0.0017989546430038283,-0.0027902015523444323,0.0,0.0,0.0
1624163946713578701,32,1624163946713578701,0.003011465197268307,-0.0013373399175203127,-0.0002895555989065462,2.16850407906436e-05,-6.978239014920112e-05,0.00010872701346831757,0.9999999914193048,-0.003029854248163983,0.002263217073266815,0.000554378062833821,0.0,0.0,0.0
1624163946813590288,33,1624163946813590288,0.0031162239697301694,-0.00047864002863884424,4.3075837206885446e-05,1.0518498066458754e-05,-7.939457611331666e-05,3.3806456632484125e-05,0.9999999962214912,-0.0013600467747431548,0.00568124402245395,0.0035105723193970644,0.0,0.0,0.0
1624163946913482904,34,1624163946913482904,0.0029983443054106143,-0.0008808517579896116,9.33619102913778e-05,7.183218241752489e-06,-0.00010523930024507777,0.00012755976456589206,0.9999999863007969,-0.001158849934125243,0.0024383221357979204,0.0013176451893370652,0.0,0.0,0.0
1624163947013987780,35,1624163947013987780,0.0035959835928720527,-0.002012979435675254,0.0001443100603076252,1.973310283159496e-05,-0.000117005198611934,5.500040362362406e-05,0.9999999914476694,0.0019701603554276694,-0.004256700597872585,0.0004989943571898534,0.0,0.0,0.0
1624163947114026546,36,1624163947114026546,0.004290185781105717,-0.0011137325006854771,0.00013341746320281783,2.0480287024690938e-05,-9.978633004867814e-05,4.540195451842472e-05,0.9999999937809523,0.0041021394911134644,0.0016658413619007164,-0.00021724655719314878,0.0,0.0,0.0
1624163947214041471,37,1624163947214041471,0.005466195457833117,-0.0014304958414393728,-0.00019007274852223197,1.8763574179067386e-05,-7.876175833436854e-05,9.372643358544784e-05,0.9999999923299325,0.007275718599470148,-0.00031146591050502264,-0.0025221321431085283,0.0,0.0,0.0
1624163947313976288,38,1624163947313976288,0.006625726711884415,-0.0017964022728785053,-0.000229130444443479,5.193624272546295e-06,-8.745024322926131e-05,9.124612527888527e-05,0.9999999919998109,0.009502507463220159,-0.0016288759379886634,-0.0005679546511771518,0.0,0.0,0.0
1624163947413996696,39,1624163947413996696,0.006068069624910342,-0.0028041125900538557,-0.00024219808051596046,1.6880986039065676e-05,-9.02942225370156e-05,0.00018732623926089585,0.9999999782354302,0.0028165354699143975,-0.004898055875010623,-0.0002802374929986152,0.0,0.0,0.0
1624163947513766289,40,1624163947513766289,0.007258487890478592,-0.0008120044141357799,-0.000345429020887765,2.1517255780484493e-06,-9.191637400122271e-05,0.00010318885056666331,0.9999999904494032,0.007247795258762744,0.005176838140637177,-0.0005970237021398492,0.0,0.0,0.0
1624163947613924980,41,1624163947613924980,0.006208778670801256,0.00023955258626527092,-0.00027147380756518453,7.37891470421315e-06,-8.76102523632531e-05,-6.530053955470018e-05,0.9999999940029151,-0.0007001382961640728,0.006818902982096752,-0.0006421878504681385,0.0,0.0,0.0
1624163947713645220,42,1624163947713645220,0.005933024939686055,0.0002929037207726803,-0.00017737251824806208,1.1296630583765592e-05,-8.766888882292535e-05,0.00011283069633631316,0.9999999897278902,-0.0023492861090649146,0.004919502712145998,0.00036219178795733945,0.0,0.0,0.0
1624163947813889503,43,1624163947813889503,0.004491162762276984,-0.0005393396768725806,-0.00020821670643785347,9.961584772262516e-06,-7.557591588830074e-05,9.410259519555193e-05,0.9999999926668718,-0.00795407921271421,-0.001028420997216446,0.00038321170797845,0.0,0.0,0.0
1624163947913959265,44,1624163947913959265,0.003992062333428142,-0.0008636184186506021,-2.2940253102323494e-05,1.3116432420374091e-05,-8.293542771655311e-05,4.7631304920725e-05,0.9999999953404632,-0.00623644063089807,-0.0021213665632015123,0.0009367981208584543,0.0,0.0,0.0
1624163948014009714,45,1624163948014009714,0.0029638520247990447,-0.0016997510726646232,4.056221412179013e-05,1.0006466592030841e-05,-9.798493293084967e-05,0.00015865361961353943,0.9999999825639232,-0.008185907345695123,-0.004196365781071975,0.0010419194826193096,0.0,0.0,0.0
1624163948113957882,46,1624163948113957882,0.0018424192441131202,-0.0009091392349654192,7.506896739271199e-07,1.1145542814599792e-05,-9.761049840370006e-05,9.735830603400673e-05,0.9999999904346607,-0.009374148548746372,0.0004269013924694037,0.0009335011652196361,0.0,0.0,0.0
1624163948213882923,47,1624163948213882923,0.0035742410898136775,-0.00030959117486577736,-1.2228309878473373e-05,1.8493513472469032e-05,-8.460184853855302e-05,4.893868670018913e-05,0.9999999950527575,0.0021250501787320793,0.0032724244341921288,0.00015769880951687569,0.0,0.0,0.0
1624163948313880920,48,1624163948313880920,0.003449227585387209,3.590202674767248e-05,-7.02022899218052e-05,6.788885533221786e-06,-8.271240172888601e-05,7.657960689117249e-05,0.9999999936240634,-4.898000718425743e-05,0.0036330602239785506,-0.0005906786468816852,0.0,0.0,0.0
1624163948413959026,49,1624163948413959026,0.004216463521700372,0.00038398471220785565,-1.7953178217752448e-05,6.420320695065078e-06,-8.103374922388743e-05,-1.720419291819501e-05,0.9999999965481607,0.002967657683239061,0.0031347374185605767,0.0008049190066393215,0.0,0.0,0.0
1624163948514033079,50,1624163948514033079,0.004651012691447353,0.00013784935920542016,5.934553341026248e-05,1.9892385949964433e-05,-8.523155777658673e-05,3.845954842775834e-05,0.9999999954303667,0.004420037675972889,0.0010782278678533523,0.00109753532838185,0.0,0.0,0.0
1624163948613934278,51,1624163948613934278,0.005314723131546722,-0.0006783824321346893,4.822394910267878e-05,3.7117512524707953e-06,-0.0001062870627745414,3.7470470565652706e-05,0.9999999936426218,0.0057371179320640535,-0.0017558911992264174,0.0005844283225821917,0.0,0.0,0.0
1624163948713719606,52,1624163948713719606,0.004801704524403309,-0.0013650081287923102,-0.0002555612068318729,-3.5528524618741043e-06,-9.713577338364533e-05,7.047853659356743e-05,0.9999999927923952,0.001154861202371748,-0.0041908995069689405,-0.0021152451534018203,0.0,0.0,0.0
1624163948813962698,53,1624163948813962698,0.004741256158057079,-0.0009239291051302198,-0.00015982031538044363,1.3371021194630987e-05,-7.94137172914857e-05,6.427990403596557e-05,0.9999999946913835,0.00042798497020467524,-0.0008381024755987586,-0.000927173268991026,0.0,0.0,0.0
1624163948913942337,54,1624163948913942337,0.004960017637100761,-0.0011337242362582888,-0.00031393024361727194,1.5745673831391153e-05,-8.684325730384275e-05,8.557479132145757e-05,0.9999999924436374,0.0008603608482359028,-0.0007948293905135292,-0.0016243773664071754,0.0,0.0,0.0
1624163949013690233,55,1624163949013690233,0.0031288570948390703,-0.0011811756945823665,-0.00021290067811780488,1.4852358613474156e-05,-7.773479451684302e-05,7.001554669375453e-05,0.9999999944172642,-0.007715281298119459,-0.0017486364227072492,0.0009035979534421092,0.0,0.0,0.0
1624163949113784552,56,1624163949113784552,0.0028009767419749144,-0.0006947453820262953,-0.00011076531757619936,3.0108263322267065e-06,-7.931401845921599e-05,2.423402452506002e-05,0.9999999965564645,-0.005771308305726317,0.0009687281726583185,0.0009387991790028966,0.0,0.0,0.0
1624163949214003325,57,1624163949214003325,0.002417983655170141,-0.0011971350328862265,-2.7655953516173064e-05,1.3163231269415401e-05,-8.233025542067988e-05,7.300723176972487e-05,0.9999999938591995,-0.0044286261646497935,-0.0021778783979524573,0.0008208980448395108,0.0,0.0,0.0
1624163949313912153,58,1624163949313912153,0.003044413723682818,-0.0015501787218968775,0.00015009824631140024,1.2572178876427048e-05,-0.00011776736655569846,3.362902420327362e-05,0.9999999924209363,0.00043436151166138283,-0.0022607526742664127,0.0018405164419342149,0.0,0.0,0.0
1624163949413875818,59,1624163949413875818,0.004819204301130207,-0.001712163376733327,3.4389791108997056e-05,1.5509118175776355e-05,-8.891570835350163e-05,4.447370680751798e-05,0.9999999949377748,0.008051042926858747,-0.0010992599947057446,9.485504410190965e-05,0.0,0.0,0.0
1624163949513720274,60,1624163949513720274,0.0065103472439752876,-0.0020427094070254326,-1.9560148053050477e-06,1.2693574286431014e-05,-7.527467589529383e-05,1.1780743623143413e-05,0.9999999970169036,0.011049736256869159,-0.0021403525064693832,0.0001458615451777654,0.0,0.0,0.0
1624163949613724709,61,1624163949613724709,0.007310583611815157,-0.0017613162106298924,-0.00016098003146676208,4.39015819981969e-06,-7.903969399426647e-05,1.57137755775846e-05,0.9999999967432633,0.010271830703086446,-0.0005743853981320679,-0.000996139091143,0.0,0.0,0.0
1624163949713728428,62,1624163949713728428,0.004992838430101327,8.275577217885327e-06,-0.00035639673832120136,5.251794988562512e-06,-8.137794291113662e-05,7.811199791700436e-05,0.99999999362428,-0.0035474297466981993,0.0060825483722329494,-0.001701159416163917,0.0,0.0,0.0
1624163949814003468,63,1624163949814003468,0.005250888545806298,-0.0001578471099190585,-0.0004723925430807438,-1.2092618883222923e-06,-9.052432242790844e-05,2.8862293538579825e-05,0.9999999954854236,-0.0009722867797313595,0.001993493853475071,-0.0014176809611971518,0.0,0.0,0.0
1624163949914057970,64,1624163949914057970,0.004878009961440098,-0.001274111824463374,-0.00047920071057328304,-2.4752991920006796e-06,-9.086184013955463e-05,0.00011064509956166807,0.999999989747828,-0.002685316068833966,-0.0037613669525660533,3.827048405884181e-05,0.0,0.0,0.0
1624163950013979435,65,1624163950013979435,0.004165422002255055,-2.8944119123564487e-05,-0.0001610940385376489,1.3730816482008577e-05,-8.344940227604853e-05,0.00012050136211010925,0.9999999891635392,-0.0045355106339418335,0.0031660259522520023,0.002437394119158217,0.0,0.0,0.0
1624163950114058018,66,1624163950114058018,0.003493328856293696,-0.0003326921519353988,0.00020122238490930864,2.601448800022868e-05,-0.00010265555003895037,5.951793008275942e-05,0.9999999926213472,-0.005991751151236999,-0.00015502286408270675,0.003185909358426262,0.0,0.0,0.0
1624163950213657379,67,1624163950213657379,0.002824797358596532,-0.001040188669219701,0.00016838359027524145,1.548987972142492e-05,-9.287596915214606e-05,1.3227662266634364e-05,0.9999999954795696,-0.006114367752396486,-0.0031368921156662145,0.0010694159040602878,0.0,0.0,0.0
1624163950313880444,68,1624163950313880444,0.002405637349177749,-0.001631213412695869,-5.972854104766908e-05,3.4661954772425673e-06,-9.775810451159196e-05,7.943043441658309e-05,0.9999999920610683,-0.004923445707806759,-0.003917814016749253,-0.001212833485448108,0.0,0.0,0.0
1624163950413632393,69,1624163950413632393,0.002644893604112703,-0.0013403746020025618,-7.959512920783754e-05,3.1936909102753915e-06,-0.00010582777987688588,1.1979182511731526e-05,0.9999999943233866,-0.0013606303549331322,-0.0017615269803144466,-0.00015983283547227074,0.0,0.0,0.0
1624163950513806343,70,1624163950513806343,0.003568218087811032,-0.0005046769642465945,-0.00025063143981839364,-7.632897276415072e-06,-9.927969043728868e-05,-1.3003509049808002e-05,0.9999999949580918,0.002903498519835674,0.0019913583036392166,-0.001178806128227755,0.0,0.0,0.0
1624163950613841534,71,1624163950613841534,0.002706261294809427,-0.0014724108950513943,-0.0002949315146787124,8.42285687651799e-06,-6.560307946606662e-05,0.00013465586109209318,0.9999999887465414,-0.002216857444203397,-0.0022407824150928015,-0.0006763951039378053,0.0,0.0,0.0
1624163950713637114,72,1624163950713637114,0.003988285575351346,-0.002154132371277742,-0.00037727934265758075,1.2050375024952053e-05,-7.249530758784142e-05,5.8264079281022655e-06,0.9999999972826321,0.00426183727310119,-0.004379240901697983,-0.0012037385091445744,0.0,0.0,0.0
1624163950813806295,73,1624163950813806295,0.004663384042333998,-0.0014262323031779631,0.0001516985534339727,2.140642048517904e-05,-9.252887065920582e-05,6.482757818044622e-05,0.9999999933887752,0.006537216436436816,0.0009115456700175637,0.0038453262540589605,0.0,0.0,0.0
1624163950913995028,74,1624163950913995028,0.005809140768804025,0.00013764171892596613,0.0004228082508703784,1.9460438995659526e-05,-0.00010009706040088864,4.909353078822997e-05,0.9999999935958432,0.009721288512683687,0.007455467746754627,0.003670415816243412,0.0,0.0,0.0
1624163951014008045,75,1624163951014008045,0.005780983959227696,0.0002455041996768307,0.0002934765348507233,1.3313437304242632e-05,-9.94858221716976e-05,2.8215692859241165e-05,0.999999994564595,0.005205655538623159,0.004331191353436158,-0.000406370141484624,0.0,0.0,0.0
1624163951114022255,76,1624163951114022255,0.005757814995431945,-0.00020374887035157105,3.853871115122218e-05,4.216801099850393e-06,-0.00010563605603836139,4.587114059004204e-06,0.9999999944010963,0.0028024831551297976,0.001568001216273136,-0.0017065491288921065,0.0,0.0,0.0
1624163951213943243,77,1624163951213943243,0.006494638281226941,-0.00013388417549479298,-0.00017823365369545755,2.334610858290748e-05,-6.911609298831179e-05,2.4803228502988784e-05,0.9999999970313583,0.0043577625575014906,0.00108282729857684,-0.002506286506300012,0.0,0.0,0.0
1624163951313882589,78,1624163951313882589,0.0055934044597471715,-0.0005147798021204942,-0.0005245647100517165,-6.720059407174577e-06,-8.039213765867038e-05,3.6497761665855786e-05,0.9999999960799254,-0.0020184016780117895,-0.0009140150207433779,-0.0036256386609245395,0.0,0.0,0.0
1624163951413782597,79,1624163951413782597,0.004168503021813124,-0.0011630846283225145,-0.00031341097679081677,7.600284007315925e-06,-5.6721361100433397e-05,5.4320574920118845e-05,0.9999999968870952,-0.006885670451341252,-0.0024664485778163737,0.00010638326797658606,0.0,0.0,0.0
1624163951513787985,80,1624163951513787985,0.0036651993292298813,-0.0002187299693482749,-0.00022568644350308835,1.6329609801418988e-05,-6.406126968857828e-05,6.824590417441703e-05,0.999999995485993,-0.00482348957715905,0.00149231107577933,0.0013720668103845586,0.0,0.0,0.0
1624163951613739014,81,1624163951613739014,0.0040621003380218405,-0.0007750225425455423,-0.000172323983304846,-1.0603973229361892e-05,-0.00010490356599186588,-1.130354490368067e-05,0.99999999437751,-0.000702297912083981,-0.001019513985849674,0.0014126892517555781,0.0,0.0,0.0
1624163951713759899,82,1624163951713759899,0.0047385124973187585,-0.0011535744472381511,-2.2807895624628125e-05,8.312056223101418e-06,-9.853672924439095e-05,6.301519048619413e-05,0.9999999931252502,0.003109067874927184,-0.0013351239076479441,0.001620184795603222,0.0,0.0,0.0
1624163951813432217,83,1624163951813432217,0.004677449043461528,-0.0013952316906312037,-0.00021001877542236138,1.6698766256538007e-06,-9.63610690318695e-05,5.999337394144729e-05,0.9999999935562721,0.001902380547539491,-0.0022393045513427025,-0.0009671757559813348,0.0,0.0,0.0
1624163951913987875,84,1624163951913987875,0.005317603413948748,-0.002078600042073387,-0.00047713736520133676,5.128026636252515e-06,-8.414496397368428e-05,1.1298496944244764e-06,0.9999999964460229,0.003981419221768242,-0.004420037396486066,-0.002239121366822719,0.0,0.0,0.0
1624163952013572216,85,1624163952013572216,0.00453608046526614,-0.0009290792767570682,-9.145812227888769e-05,1.8314198136055836e-05,-7.246435951044382e-05,7.300365713420245e-05,0.9999999945419836,-0.001192520953041249,0.0020631365297145666,0.002311532984301239,0.0,0.0,0.0
1624163952113599062,86,1624163952113599062,0.0044386705311776735,-0.00168661977792909,2.9835953476687952e-05,2.3336229957620825e-05,-6.0961254490724224e-05,5.044157502595293e-05,0.9999999965973939,-0.0012308507247606537,-0.0018510323842228767,0.0017920506738727518,0.0,0.0,0.0
1624163952214556456,87,1624163952214556456,0.0039739209978567535,-0.0015594461257773158,-0.00026791106355845875,-1.0136881138493067e-05,-8.574565698588963e-05,1.9593429446696773e-06,0.9999999962705405,-0.0019074079307873724,-0.0013235608772873737,-0.0006229906158946581,0.0,0.0,0.0
1624163952319304466,88,1624163952319304466,0.004386140583542958,-0.0013592187096551523,0.0001703027581906309,2.0553580677304575e-05,-9.497830433621619e-05,1.3108626282617035e-05,0.999999995192415,0.0017388033241084564,-9.885950252083546e-05,0.0033550160043400753,0.0,0.0,0.0
1624163952413729668,89,1624163952413729668,0.004722109850189189,-0.00010653339877565248,1.962901641583995e-05,8.182805992450155e-06,-0.00010973559905619205,7.783830442851021e-05,0.999999990916166,0.00302823641366584,0.0048291419647103345,0.0006524713298352424,0.0,0.0,0.0
1624163952513856411,90,1624163952513856411,0.005083856341813235,0.000404726052219142,-0.000301628810368903,-1.3010884452802364e-06,-0.00011029249979038413,3.1024018278458215e-05,0.9999999934356874,0.0031540291738267378,0.004714261967849368,-0.002446087223184967,0.0,0.0,0.0
1624163952613847733,91,1624163952613847733,0.005375213788252665,-0.00018244258473230367,-0.00029977880679505676,1.4432940993310722e-05,-7.999066589426487e-05,5.630511584490172e-05,0.9999999951114551,0.0022467894313771652,0.0007414673977565308,-0.001155956241761779,0.0,0.0,0.0
1624163952713538885,92,1624163952713538885,0.005833103073238062,-0.0016872830980969769,-0.0005417935503121103,1.0524742343963328e-05,-5.609803259680742e-05,7.224544166816559e-05,0.9999999957614146,0.0023228678682023756,-0.00572653829627757,-0.002440334699557657,0.0,0.0,0.0
1624163952813729525,93,1624163952813729525,0.005584637257244015,-0.0023330785548787343,-0.0006495903513837699,-9.946899431335574e-09,-4.8038544013979857e-05,5.087459707922925e-05,0.9999999975520335,-0.0002635202404702721,-0.005830701706123044,-0.0008167511549433429,0.0,0.0,0.0
1624163952913474560,94,1624163952913474560,0.006643055449415274,-0.002459855573074877,-0.00027561211113348886,2.4201404777271042e-05,-5.045594135644185e-05,-0.00026520537335011414,0.9999999632672959,0.004379167928027999,-0.0037657552513366277,0.0024368659690301195,0.0,0.0,0.0
1624163953013652563,95,1624163953013652563,0.006849434260940392,-0.0027387831879676643,-0.00022508662423585777,2.372788460381128e-05,-6.256092001068088e-05,-1.718300567354184e-05,0.9999999976139273,0.003990169980699758,-0.0031764675267073198,0.001641742490128112,0.0,0.0,0.0
1624163953113901615,96,1624163953113901615,0.006415147557414787,-0.0023002676024831865,-0.00040977063753746764,-1.796636175297095e-06,-0.00010374709409283652,2.1523188740695704e-06,0.9999999946143359,0.001288348879343401,-0.0005244050105284179,-0.0008364629075045928,0.0,0.0,0.0
1624163953213694334,97,1624163953213694334,0.007361507782425219,-0.0011986161920519403,-0.0001012187740931146,2.413193360459969e-05,-9.926870063093468e-05,-7.895412470164972e-06,0.9999999947505147,0.005127336468534423,0.0045045841895620525,0.0020194544408078294,0.0,0.0,0.0
1624163953313946724,98,1624163953313946724,0.006790364208319286,-0.0008170786325566372,-0.0002401492329568903,1.131352989121167e-05,-8.957042756817982e-05,1.6976565090534426e-05,0.9999999957804654,0.00014141223616472454,0.004241848199942388,-0.00039379457984626805,0.0,0.0,0.0
1624163953413760662,99,1624163953413760662,0.005926476384405828,0.00028733394660002484,-0.00021610825605474117,9.771507955040316e-06,-8.001779877540762e-05,-3.4855513599681276e-05,0.9999999961433768,-0.003959509290636631,0.0071597355187945425,-0.00011926059150725186,0.0,0.0,0.0
1624163953513998747,100,1624163953513998747,0.005506589631654859,-0.0007352644598469961,9.316785033714671e-05,2.7331897254862307e-05,-5.58288232244431e-05,2.5900168323951158e-05,0.9999999977326413,-0.004187833278839113,0.0009190854944735056,0.001884330395397762,0.0,0.0,0.0
1624163953613795280,101,1624163953613795280,0.0055921190576971825,-0.0004727696510049631,-0.0001586687195228116,1.1222298846654068e-05,-6.483597155828632e-05,2.4402463533239754e-05,0.9999999975374336,-0.001677259832086528,0.002115131684615153,-0.0015727370516249333,0.0,0.0,0.0
1624163953713714123,102,1624163953713714123,0.0058201505574261535,-0.0008801265670671704,-0.000231859481194148,5.774927891939788e-06,-9.752170477864598e-05,-3.462551950351283e-05,0.9999999946286157,0.0001507142186913705,-2.998575143435935e-05,-0.0003467889656166631,0.0,0.0,0.0
1624163953813632727,103,1624163953813632727,0.006348718404413195,-0.000651174053002167,-0.00019705939059143991,1.5609368637661042e-05,-8.429801519691804e-05,-2.8071273567737568e-05,0.9999999959310937,0.00234893667188577,0.0006684885587211404,-0.0001409113917093276,0.0,0.0,0.0
1624163953913781881,104,1624163953913781881,0.006295453365270813,-0.0010626589903459985,-0.0004183574698732916,-2.254370450151607e-06,-7.61980283119302e-05,-5.034930714112793e-05,0.9999999958268581,0.0010299633615035112,-0.00025452815982060636,-0.001708744789418556,0.0,0.0,0.0
1624163954013777018,105,1624163954013777018,0.006530647891219474,-0.001941330852399851,-0.00034052353728317945,1.0454495240146803e-05,-8.125559318056564e-05,-6.30830401108287e-05,0.9999999946543765,0.0013031702337889836,-0.0045516783615414756,0.00013272304336815212,0.0,0.0,0.0
1624163954113604069,106,1624163954113604069,0.006337044297728772,-0.002465026162782629,0.00020021345926778177,5.251920959445459e-05,-6.104554571052867e-05,-6.29820431171717e-05,0.999999994774213,-0.00036337246483773606,-0.003619885281578146,0.0035882314044050428,0.0,0.0,0.0
1624163954213766336,107,1624163954213766336,0.006806393056594545,-0.0015626686863924916,0.00030643505652276377,5.0033866279789e-05,-7.653312989430924e-05,7.099555849314349e-05,0.9999999932994565,0.0030928359279523204,-1.564970960749902e-05,0.0027303134300900255,0.0,0.0,0.0
1624163954313677549,108,1624163954313677549,0.0075486655550376985,-0.0013246406092163499,0.0005415965192058517,5.708491781720823e-05,-9.180686985355127e-05,-0.00012421050309608043,0.9999999864422762,0.0022840361150133054,0.002840887632490674,0.0017014952469243353,0.0,0.0,0.0
1624163954413594246,109,1624163954413594246,0.00792403686232251,-0.0011650565149030523,0.001111344861334704,3.0517783475327576e-05,-7.135649405166663e-05,-2.194596637078451e-05,0.9999999967476396,0.006649588890239479,0.0031658616021494157,0.006144200426702275,0.0,0.0,0.0
1624163954513948441,110,1624163954513948441,0.007309402236725025,-0.0014393740572559081,0.0009348130386637666,4.747112218147076e-05,-8.284133012709458e-05,3.5040075890146594e-05,0.9999999948279942,-0.001378222283348164,0.0008272911634471308,-0.0013500084418080261,0.0,0.0,0.0
1624163954613921404,111,1624163954613921404,0.005543895654764493,-0.0009115647253514986,0.00011911957562769772,1.710483445573832e-05,-6.8881067580126355e-06,7.778948970166742e-06,0.999999999799728,-0.008945130360981067,0.002527422168977174,-0.00493289211619055,0.0,0.0,0.0
1624163954713834763,112,1624163954713834763,0.005646238709688035,-0.0013993419167103677,-1.8395276521147345e-05,4.945036303172464e-05,2.0417721867392204e-05,8.796210149537242e-05,0.9999999947002182,-0.005149881671010647,-9.80221302909201e-05,-0.00464885500315095,0.0,0.0,0.0
1624163954813668489,113,1624163954813668489,0.00649638022908897,-0.004101641382948602,-0.0016073808640400778,-6.736398456929553e-05,-0.0001036672635056788,-8.367367099938596e-05,0.9999999888569489,0.0011967006911466375,-0.014736968973335733,-0.012399709718546576,0.0,0.0,0.0
1624163954913890362,114,1624163954913890362,0.006425670929714243,-0.003205550526188183,-0.0009251498923456211,-0.00011373311987920754,-0.00021853534893402223,0.00011877879059223397,0.9999999625993327,0.0014966757217046605,0.001723460288735804,0.0036649102652842568,0.0,0.0,0.0
1624163955013941050,115,1624163955013941050,0.006041179914186645,-0.003359542613439363,0.00031844523073274274,2.1240119259346752e-05,-0.00011482544863232232,-7.40376632820218e-05,0.9999999904411931,2.077464944624666e-05,-0.006881646497807053,0.008789413453086432,0.0,0.0,0.0
1624163955113781929,116,1624163955113781929,0.006637419217289894,-0.002473604000580693,-0.006030598325149745,-0.00024178891748341717,-0.00012326350635047213,4.9599859427096564e-05,0.999999961942034,0.001265525180736582,0.001438061356299333,-0.04328052876567199,0.0,0.0,0.0
1624163955213501453,117,1624163955213501453,0.004483299705868307,-0.000162466688153926,-0.002105944252867232,1.3136343164162611e-05,-3.37068439212672e-05,0.0002554410457794405,0.9999999667205722,-0.007508268835352228,0.016200514169234778,0.013451567382682696,0.0,0.0,0.0
1624163955313702822,118,1624163955313702822,0.0019481823050468616,0.0008905187696582053,0.005910178637087142,0.0002682593002642952,-3.200354326621803e-05,0.00018286156895859902,0.9999999467871764,-0.013911585972874405,0.015373945138978044,0.061137640744555466,0.0,0.0,0.0
1624163955413366318,119,1624163955413366318,0.0004515648305678725,0.003499617233919413,0.008757489678148897,0.0002185686618845776,-5.428787863442381e-05,0.00018499712533784647,0.9999999575283082,-0.010817018388229899,0.03349230958724041,0.0421560993601483,0.0,0.0,0.0
1624163955513888359,120,1624163955513888359,-0.0003570148728831433,0.00668491367697743,0.01767868382777752,0.0003425123176998189,-0.00013197743809710831,0.000297184976175811,0.9999998884741669,-0.008204491911272618,0.03175645192826946,0.07884657655111157,0.0,0.0,0.0
1624163955613761187,121,1624163955613761187,0.001646976517608603,0.003106307549129242,0.010891085880102219,-0.00045971917817481055,-0.0002824885940248412,0.00012744969188362986,0.9999998463075058,0.00035483506563436726,-0.0012233555344068718,-0.019656243590815553,0.0,0.0,0.0
1624163955713888645,122,1624163955713888645,0.009329007370100348,0.0006654744150304076,0.0012510350876769596,0.00020787541416289758,1.7760996969589776e-05,0.0002482811004287037,0.9999999474144194,0.0320388764445995,0.011216602183481725,-0.08273082427289746,0.0,0.0,0.0
1624163955813962936,123,1624163955813962936,0.005101735821551182,-0.0036654245075172422,0.0028969501174570416,-0.00016009222368674073,-5.7845568412589945e-05,-7.944065483585314e-05,0.99999998235677,-0.004366757629935408,-0.032389378927388496,-0.0020280656865162144,0.0,0.0,0.0
1624163955911931992,124,1624163955911931992,-0.001462514330577742,0.0006946546619725435,0.0008585953551801823,-0.0001683517067005058,0.00029813785505376317,2.8724738593899977e-05,0.9999999409731976,-0.028319660806794187,-0.009257669360727482,-0.02158740865374706,0.0,0.0,0.0
1624163956013646841,125,1624163956013646841,-0.00597161607930297,0.006279589245912474,0.000382073777410829,0.00021565561552447257,0.00031323080960643675,0.00018181002089908392,0.9999999111621054,-0.024064133291595437,0.02846155960325686,0.003488884081540638,0.0,0.0,0.0
1624163956113788605,126,1624163956113788605,-0.00698194637586051,0.007524486466811343,0.002929967714145407,0.00010390629433069349,0.00016662224480039434,-0.00026644551068144996,0.9999999452236411,-0.0066279009072462034,0.01530020341797497,0.02994426146891917,0.0,0.0,0.0
1624163956213560343,127,1624163956213560343,-0.0025980106172633,0.002411750010838356,0.0035513385045760726,0.0002095099619608093,-0.00028948912701989914,-4.225335830447033e-05,0.9999999352581281,0.008531683660099699,-0.0030420858555597965,-0.0010847727531403221,0.0,0.0,0.0
1624163956313855171,128,1624163956313855171,0.0052470263993459765,-0.001320766946573501,0.0009239125472162985,-0.0001573383646075858,-0.0003986532537149124,0.00013089812234209303,0.9999998995929394,0.0425276546388192,-0.010670729475974102,-0.015864219212884566,0.0,0.0,0.0
1624163956413873196,129,1624163956413873196,0.014419866448630657,-0.006161653538935886,0.0004604146822808398,3.5332619362830235e-05,-3.583416559768624e-05,6.904035010476345e-05,0.9999999963504665,0.07913286491307758,-0.04942977819009792,-0.0017799304971521622,0.0,0.0,0.0
1624163956513869047,130,1624163956513869047,0.016761380731419268,-0.006483006603120933,0.0012913410784370445,0.00016424744386612575,6.641621333352127e-05,-2.9305037845646574e-05,0.999999983876432,0.026551794979299416,-0.014811322266324343,-0.005073130549094871,0.0,0.0,0.0
1624163956613862753,131,1624163956613862753,0.012878733391585179,-0.003578293989723393,0.0022262343206819043,1.1718935486582603e-05,0.00035759031233108674,5.7328560206691e-05,0.9999999343526258,0.008757138394313968,0.009193126375882495,0.00998916126056381,0.0,0.0,0.0
1624163956713733673,132,1624163956713733673,0.00480731801951728,-0.00028718729196638266,0.0063135270764127244,0.0002850150261804272,0.0002537142205732209,5.8784190137645874e-05,0.9999999254699635,-0.03127142488464125,0.005109910032296013,0.03787513006239896,0.0,0.0,0.0
1624163956813780069,133,1624163956813780069,-0.0011183136029391013,0.0019106961792547325,0.0056667938233218714,0.00017100633700945842,0.0001658766205536847,-5.4648925983801385e-05,0.999999970127629,-0.05871696638849212,0.03139926976235001,0.0028835782747598446,0.0,0.0,0.0
1624163956913819551,134,1624163956913819551,-0.00350763822956986,0.0025533913466670435,0.0027190944361865426,-6.494656213486501e-05,0.00027322054631524284,-7.703913243986167e-05,0.9999999575987158,-0.022213638870715424,0.005825066937658273,-0.016354913494060954,0.0,0.0,0.0
1624163957013632774,135,1624163957013632774,-0.005317766805405836,0.0030987570294121343,0.0026131257868051917,3.482008511922863e-05,-0.000200492010299803,-9.199495214948796e-05,0.9999999750637135,-0.019227972575297562,-0.002115994553404345,0.000739481713569072,0.0,0.0,0.0
1624163957113381147,136,1624163957113381147,-0.002375146376861699,0.0013900503037343932,0.001293978167706741,-5.2201482557985836e-05,-0.00012968462623414652,-4.255351137893864e-05,0.9999999893230418,0.002503878937374273,0.013142356233778994,-0.013105293651743155,0.0,0.0,0.0
1624163957213719606,137,1624163957213719606,0.001328707748573987,0.0018694614582947281,-8.76278267985244e-05,-0.00022362689053495458,-0.00010387978956493901,2.504010339509449e-05,0.9999999692864889,0.03409070929126067,-0.013294978386988822,-0.010905514870480186,0.0,0.0,0.0
1624163957313782930,138,1624163957313782930,0.00665074703792932,0.00080552321212227,0.0011747087000786502,0.0001498983174973195,-0.00018638002566539476,7.430582218262188e-06,0.9999999713688739,0.030611759934388055,-0.005952798475834931,-0.0014488909916828586,0.0,0.0,0.0
1624163957413893938,139,1624163957413893938,0.009680865773111785,0.0007870887609563841,-0.0008222156196197737,-7.094461531060186e-05,9.672899310478826e-05,-1.7089372457796327e-05,0.9999999926591491,0.022952469379876817,0.02287041480226906,-0.022080250916718204,0.0,0.0,0.0
1624163957513820171,140,1624163957513820171,0.009181508675386803,0.000741962935021178,0.0011635801165722078,-4.240127007851398e-06,7.045195979671841e-05,-6.928563445774974e-05,0.9999999951090123,0.013308050116103663,-0.019427481311446008,0.010543909960744145,0.0,0.0,0.0
1624163957613485575,141,1624163957613485575,0.010586677690335604,-0.00014066872501059403,-0.00030348762652143317,-0.00017648796160388153,-0.00023558103347197146,-4.964453553583047e-05,0.9999999554444877,0.012599039502548358,-0.0006234589170866884,-0.01010349618370709,0.0,0.0,0.0
1624163957713706970,142,1624163957713706970,0.015451812692508959,-0.0026030109078630805,-0.000736779458641924,-0.00029862898586801694,-0.0010045108909337178,-0.00010926527695457469,0.9999994449196851,0.038523494090957545,-0.016167315924543284,-0.0025277996964355306,0.0,0.0,0.0
1624163957813341141,143,1624163957813341141,0.025609757852788684,0.005168287253414932,6.307844416515447e-05,-0.0002257121175156687,-0.0009334313119334586,-9.777844528924414e-05,0.9999995340995815,0.06998850428059285,0.029102970900611577,0.008291827137143742,0.0,0.0,0.0
1624163957913625956,144,1624163957913625956,0.038289369810374785,0.004211090006548488,-0.0008455515809702342,-0.00026557789408426465,-0.001046321313885172,0.000172812739640146,0.999999402407735,0.07925060756350732,0.012355452006763041,-0.019038297395210763,0.0,0.0,0.0
1624163958013600588,145,1624163958013600588,0.04681145460118156,-0.00013070689042311536,-0.002990979347640206,5.026414817855284e-05,-0.0004396309245389002,0.00025697454731720125,0.999999869081105,0.05714562995124981,-0.020478249848955764,-0.032483121931412715,0.0,0.0,0.0
1624163958113440990,146,1624163958113440990,0.047321727683795126,-0.008133429035050984,-0.01330798894895531,-0.0005279265015355075,0.00014313299265604699,7.405495131064539e-05,0.9999998476611884,0.009461342025968919,-0.06806338056978944,-0.1060167325424505,0.0,0.0,0.0
1624163958213619471,147,1624163958213619471,0.04110744897874541,-0.024380392508211068,-0.041845406249163865,-0.0018494374086804883,0.0005426529478408292,0.0007430107195426617,0.9999978665197747,-0.034411080190659936,-0.146725926683107,-0.2820185523588293,0.0,0.0,0.0
1624163958313704014,148,1624163958313704014,0.02712882904545123,-0.04994976718137054,-0.03479522602085982,-0.000704847817128117,1.3703795435491113e-05,0.0013397522654674868,0.999998854032148,-0.0968354614019131,-0.24085551553027643,-0.13725462069675215,0.0,0.0,0.0
1624163958413727760,149,1624163958413727760,0.018107598653833257,-0.07200537885264316,0.01015760053277607,0.002764769819162147,7.095265675191021e-05,0.0016595244044858841,0.9999947984826214,-0.10610930301241288,-0.2784996119494315,0.158443531004392,0.0,0.0,0.0
1624163958513881207,150,1624163958513881207,0.006213743042076688,-0.060555441891880786,-0.011618960491048443,0.004715674020673589,-0.0011509853691240267,0.001633683170544816,0.9999868842792331,-0.12417413615419702,-0.11423603607129026,-0.17868688794954254,0.0,0.0,0.0
1624163958613508463,151,1624163958613508463,0.0010228054553809386,-0.053718688699685754,-0.12176002103273113,0.0036859778319861787,-0.003300181007813948,0.0022154793972654204,0.9999853069039344,-0.09212952894940829,-0.04264822060782904,-0.8783730266247631,0.0,0.0,0.0
1624163958713497877,152,1624163958713497877,-0.001777189593092368,-0.07382660666224794,-0.24188586009914465,0.004807486236701686,-0.0029536912282761727,0.0020544756873348445,0.999981971294402,-0.06148303207184778,-0.1500399051361047,-1.1916488532399214,0.0,0.0,0.0
1624163958813379049,153,1624163958813379049,-0.00331164835630431,-0.10648996250639069,-0.346453508522911,0.007148170490965804,-0.0034744898431521396,0.0018800294904918321,0.9999666479778475,-0.04375512941281352,-0.2725265930695359,-1.1949967003791249,0.0,0.0,0.0
1624163958913882494,154,1624163958913882494,-0.01020596419273252,-0.15254776148912266,-0.4416213456356581,0.009426603956962662,-0.0020371960500947315,0.001099284890752713,0.9999528891616829,-0.06311351075660589,-0.3921074015908626,-1.1142274230938842,0.0,0.0,0.0
1624163959013924360,155,1624163959013924360,-0.018916563999680395,-0.19921184315416138,-0.5301782466066014,0.007925862239975877,-0.0009328515238556493,0.000928363555520826,0.9999677237975588,-0.0879871674832288,-0.4457756043693416,-1.0430758238618296,0.0,0.0,0.0
1624163959113629341,156,1624163959113629341,-0.017335704246626886,-0.2439865838846707,-0.6266783797945453,0.009225499261644734,0.0009502894357129531,0.00034825564601620386,0.9999569319882434,-0.03646042582765796,-0.46780055413333016,-1.0512194330355864,0.0,0.0,0.0
1624163959213585615,157,1624163959213585615,-0.013367300081531558,-0.29218668636870726,-0.7339740424282342,0.014740055095466175,0.005207171710955234,0.00019703575027130578,0.9998777811890025,-0.013238607232304543,-0.49434185726178953,-1.0790840960382204,0.0,0.0,0.0
1624163959313605070,158,1624163959313605070,-0.02382228980279827,-0.3283521826358258,-0.8782251841852716,0.02039652420568838,0.0044936822641918565,0.0009294155330322443,0.999781438518828,-0.09469559364091609,-0.406809671357921,-1.2879165273829778,0.0,0.0,0.0
1624163959413568974,159,1624163959413568974,-0.03461840762754733,-0.35492870730890963,-1.0150845125418002,0.020381986117455734,0.0033152268314303886,0.0007883694116287864,0.9997864583932958,-0.12567240073077543,-0.32973698422093733,-1.3217687918110779,0.0,0.0,0.0
1624163959513523817,160,1624163959513523817,-0.05304895200373469,-0.3876497180236915,-1.1344006484982956,0.029165518790779194,-0.0028699102513825266,0.0013331335966713068,0.9995695868140458,-0.19086552663936648,-0.3084123738769764,-1.1422273757601005,0.0,0.0,0.0
1624163959613351822,161,1624163959613351822,-0.08176367666896146,-0.4203887991247403,-1.2437540834136058,0.027989283982607565,-0.021092045945020153,0.00088455676054515,0.9993852826309315,-0.2657683850471624,-0.31394367372319204,-1.034082048366542,0.0,0.0,0.0
1624163959713346004,162,1624163959713346004,-0.09956401745293061,-0.45390837495820596,-1.3349702295664299,0.030764058140626865,-0.04101579702081947,0.0003343493062717117,0.9986847176822037,-0.18713868027359115,-0.31504055180433793,-0.9043787888671883,0.0,0.0,0.0
1624163959813159943,163,1624163959813159943,-0.10979623477315664,-0.48889563174960343,-1.4076354619898919,0.030940002859009073,-0.059907100960092816,-8.178112285270962e-05,0.997724335069294,-0.08163637291745975,-0.31494753966265,-0.755194897865294,0.0,0.0,0.0
1624163959913777828,164,1624163959913777828,-0.10138218497142801,-0.5157564625641252,-1.4881083009883413,0.027969963480208457,-0.07236876300353451,-0.0015842261607750354,0.9969844198941629,0.11817337446760054,-0.2740991223971635,-0.8041656611570225,0.0,0.0,0.0
1624163960013578415,165,1624163960013578415,-0.08650239792501056,-0.5394482404678,-1.5720007807195042,0.02719011905523942,-0.07124938948068468,-0.0020709863378304224,0.9970857199558896,0.2247524858731348,-0.2294080620202913,-0.815629636308523,0.0,0.0,0.0
1624163960113558054,166,1624163960113558054,-0.06573259146123456,-0.5591321145397052,-1.6603726415321336,0.0257834118134532,-0.0660993594724295,-0.0013574166390565815,0.9974789460297582,0.28840813482605004,-0.19651082997035427,-0.8448205869275238,0.0,0.0,0.0
1624163960211637735,167,1624163960211637735,-0.03404130598974841,-0.576758506450853,-1.7447914143815801,0.025826807775867044,-0.06038973041580663,-0.0002546337364510415,0.9978406644460079,0.3825471037724788,-0.17578569410368067,-0.8479796318126953,0.0,0.0,0.0
1624163960313551188,168,1624163960313551188,0.004519617809401379,-0.598503462700635,-1.8298103423062915,0.022853929472661454,-0.05260764559214083,-0.0008175369099442617,0.998353376899325,0.4344066180690546,-0.1901590088676175,-0.8137712725551689,0.0,0.0,0.0
1624163960411687374,169,1624163960411687374,0.05530026843812529,-0.622845507399091,-1.9063436225132258,0.02408638686539996,-0.04892559642685517,-0.0008758124596820811,0.998511574762434,0.5284189098973714,-0.21739906963246144,-0.7438190782594354,0.0,0.0,0.0
1624163960513477564,170,1624163960513477564,0.11745465885366121,-0.6413818307958428,-1.9776827341802201,0.027402453470633237,-0.049920805283387985,-0.00031227114784739815,0.9983771437840272,0.628128376858578,-0.18491291216636274,-0.6770312258447673,0.0,0.0,0.0
1624163960613548040,171,1624163960613548040,0.1835919181160679,-0.6570047309235161,-2.0458748515609964,0.031135867570459663,-0.05090901554722677,-0.0001773255898651237,0.9982178111225306,0.6980156552080333,-0.1566748886268318,-0.6410065565171447,0.0,0.0,0.0
1624163960713588715,172,1624163960713588715,0.26219878577230116,-0.6733822401876182,-2.1092461729870053,0.033262725489593394,-0.04851772736332447,-0.0006361354105516026,0.9982681085541172,0.8021081143646323,-0.15030722317921572,-0.5761617283069407,0.0,0.0,0.0
1624163960813387632,173,1624163960813387632,0.3416271269645439,-0.6873939446091276,-2.159258103121145,0.03437031296690223,-0.050417968177757067,-0.0006363434980658479,0.9981364160966713,0.8376045502837428,-0.1252185303640763,-0.4735012126923322,0.0,0.0,0.0
1624163960913372517,174,1624163960913372517,0.43719701262607774,-0.6983764635378858,-2.2069212524727306,0.029704757479828526,-0.052528329866541414,-0.0006649515289127624,0.9981773188086033,0.9752413436884073,-0.09772114857299595,-0.46883209774997525,0.0,0.0,0.0
1624163961011584282,175,1624163961011584282,0.5352082631790674,-0.7029052264879073,-2.248558947582214,0.02555884076569194,-0.045717494103912244,-0.0008438162611066978,0.9986270296590523,1.0408303741257399,-0.06636368661116462,-0.3917112413563485,0.0,0.0,0.0
1624163961111763000,176,1624163961111763000,0.6379173590482531,-0.710973370932052,-2.2869479328713305,0.02450117272285228,-0.029703803455684793,-0.0009334271796428511,0.9992579773557696,1.0546715836998861,-0.07154233375234702,-0.284862808696995,0.0,0.0,0.0
1624163961211618185,177,1624163961211618185,0.739643706243179,-0.7206926646787943,-2.3096852036823137,0.028167456630988914,-0.014880486700054131,0.0004771683655172762,0.999492340047103,1.0274583627573737,-0.07901806883691277,-0.1328410030480356,0.0,0.0,0.0
1624163961311599493,178,1624163961311599493,0.8427387620040279,-0.726185915771101,-2.3205334072383894,0.029209731025084108,-0.0027977242506280627,0.0014699199240739247,0.9995683086652196,1.0145490337046033,-0.0436183081104598,-0.062016174604401966,0.0,0.0,0.0
1624163961411834717,179,1624163961411834717,0.9444279930965227,-0.7282530172189099,-2.32143902502538,0.026853667911141,0.006751572171839034,0.003973079942128325,0.9996086791483318,0.9871490559962875,-0.01871969722025431,0.05228207899915214,0.0,0.0,0.0
1624163961511685848,180,1624163961511685848,1.0420422524767878,-0.7303841725451595,-2.3098871733802957,0.021842855005548372,0.011721641635979397,0.0053588863432075026,0.999678335835932,0.948265443629471,-0.018101311733272327,0.12571832065285435,0.0,0.0,0.0
1624163961611683369,181,1624163961611683369,1.1383846751936006,-0.7325791213483781,-2.293149507266845,0.01734869280429531,0.016892610738702216,0.00684063961658311,0.9996833839821605,0.9138321812433052,-0.020257345076817233,0.18481432093526132,0.0,0.0,0.0
1624163961711694717,182,1624163961711694717,1.2269171831369141,-0.7376373641881134,-2.2766671217590955,0.014852048348106245,0.01593716778704118,0.00745051680905578,0.9997349214377,0.8544200054688037,-0.05577956566815061,0.09254181851803622,0.0,0.0,0.0
1624163961811505556,183,1624163961811505556,1.313988035052949,-0.7435287365956275,-2.2795370729566957,0.013803844500593639,0.01510144918702782,0.007863513797334578,0.9997597537709683,0.8205465797090681,-0.06448533171533503,-0.1311799083932849,0.0,0.0,0.0
1624163961911689043,184,1624163961911689043,1.3900889310782367,-0.7450537754632353,-2.2981613975653548,0.019191709186656608,0.008404128781979704,0.008982495306840173,0.9997401480864643,0.7454838747111101,-0.05677555739106075,-0.26223276753226393,0.0,0.0,0.0
1624163962010936975,185,1624163962010936975,1.4647002737499717,-0.7526058232427518,-2.3307583634343545,0.021700086067450094,0.00047683037061417295,0.008643414345247817,0.9997270478915188,0.7362952222708473,-0.0777646192522752,-0.363473288541926,0.0,0.0,0.0
1624163962111186028,186,1624163962111186028,1.5392427411719671,-0.7590420444586349,-2.3679684816401854,0.025616117393140115,-0.00633276859461782,0.0079357729573592,0.9996202949516224,0.7303471500768135,-0.07386998185228398,-0.3720999126739511,0.0,0.0,0.0
1624163962211533785,187,1624163962211533785,1.6148849928427997,-0.7643771322566052,-2.403957882957362,0.030844564880096598,-0.012704688277278147,0.0068622483998602045,0.9994198883652475,0.752215892944038,-0.05311288015334313,-0.4212858832503487,0.0,0.0,0.0
1624163962311602116,188,1624163962311602116,1.6972570868726158,-0.7647112444316887,-2.4561367535777254,0.02926329954179866,-0.01531600243962251,0.005911162410206766,0.9994369102290186,0.8184112956254312,0.002197752309464257,-0.5801120497127176,0.0,0.0,0.0
1624163962410828829,189,1624163962410828829,1.7759995580979713,-0.7624446878624639,-2.5195293846583087,0.028918687845372718,-0.0121371667868876,0.005832202416102847,0.9994910625366485,0.8283593760768113,0.0378585739006873,-0.7528371839828034,0.0,0.0,0.0
1624163962511611938,190,1624163962511611938,1.8562308836644121,-0.7584211001099233,-2.600740539415223,0.025510879792923193,0.006241568194979071,0.00692770064752952,0.9996310543407342,0.7959734550243014,0.05652604436796494,-0.8922852172335917,0.0,0.0,0.0
1624163962610807657,191,1624163962610807657,1.927162449283575,-0.7583793706151588,-2.687055835277131,0.01892110416543124,0.024551437846108175,0.008296757965770458,0.9994850586797576,0.6912440680275576,0.016900089631154382,-0.8944972902262132,0.0,0.0,0.0
1624163962711241722,192,1624163962711241722,1.9902759173918048,-0.7636458096204353,-2.779972439358858,0.01672799622436407,0.03150721568059731,0.00867338374230126,0.9993258937487836,0.5875805120112508,-0.04585437783324132,-0.9796105765554068,0.0,0.0,0.0
1624163962811262131,193,1624163962811262131,2.0463402019373,-0.7684069272380113,-2.880916350771367,0.023373818504733353,0.028008432998023258,0.0078231009725517,0.9993037533105988,0.5115696287350701,-0.0657154168853337,-1.0020631270224882,0.0,0.0,0.0
1624163962911043882,194,1624163962911043882,2.100052906651971,-0.7731861391725401,-2.9909329925170023,0.028395779856375217,0.015093846149240012,0.007186184234576919,0.9994569596790511,0.4856871265535286,-0.053089342096196764,-1.082513974529229,0.0,0.0,0.0
1624163963011519432,195,1624163963011519432,2.1512534949465567,-0.7733903970585703,-3.0933849530672695,0.026544066943504606,-0.0034940097015438523,0.0072796965717948055,0.9996150311115273,0.4787799270324392,-0.022198767927123247,-1.0583374982002767,0.0,0.0,0.0
1624163963111544132,196,1624163963111544132,2.205839098212548,-0.773958534354317,-3.201689001946049,0.021068703263708778,-0.021028155796194593,0.007324473194898553,0.9995300288130344,0.5429160163468203,-0.021426322202431382,-1.1733568767432285,0.0,0.0,0.0
1624163963211590528,197,1624163963211590528,2.263527457470869,-0.777726474774792,-3.3246328346887597,0.019712634895720456,-0.029164634541343337,0.007097965245628506,0.9993550195035201,0.6065541852190945,-0.04584535716979098,-1.2994288622707948,0.0,0.0,0.0
1624163963311703920,198,1624163963311703920,2.325152119114275,-0.7816657605109181,-3.4597890806312486,0.02337858136589072,-0.032432900015327164,0.007452767491435109,0.9991726603478519,0.6493223114111124,-0.04694336334693956,-1.3513960125797553,0.0,0.0,0.0
1624163963410031796,199,1624163963410031796,2.3873180572900394,-0.7892837786932817,-3.5932637281006348,0.029168074391395606,-0.03021920531883184,0.007386004933397771,0.9990903212409229,0.6777287351593225,-0.06439487886259976,-1.3755115049925866,0.0,0.0,0.0
1624163963511521816,200,1624163963511521816,2.458595548351628,-0.7922537292142867,-3.732845740919533,0.03473752829929066,-0.026084203008194754,0.008026293254805751,0.9990237720383035,0.73050092160411,-0.02729701838087087,-1.398850138797306,0.0,0.0,0.0
1624163963611533880,201,1624163963611533880,2.53244124646374,-0.7949246965248614,-3.880609280543207,0.03694311235522322,-0.020466050354905917,0.008206640106991752,0.9990740704725067,0.7569890575240696,-0.006885610824318577,-1.473301265594926,0.0,0.0,0.0
1624163963711574793,202,1624163963711574793,2.609993791158468,-0.7948006482900969,-4.0272100611173824,0.034775694025293145,-0.015583566727627274,0.007803999377879408,0.9992431641731586,0.7803766334705314,0.01089751010835314,-1.4855137858484613,0.0,0.0,0.0
1624163963811566353,203,1624163963811566353,2.6926149408415463,-0.7953385638803996,-4.175364517854901,0.032887872756028,-0.012187913994772539,0.007333946443584335,0.9993578217073062,0.8150000261659088,0.027204157940960032,-1.4914881878825619,0.0,0.0,0.0
1624163963911610126,204,1624163963911610126,2.7759946922121603,-0.7893405961012774,-4.320590923652719,0.029597754741288236,-0.009396600963564395,0.007072633170176168,0.9994926986549809,0.8287459874767766,0.050927782689158964,-1.4757078190614141,0.0,0.0,0.0
1624163964011321068,205,1624163964011321068,2.8568588912519433,-0.7836576582786907,-4.46810055775802,0.030270359585076068,-0.005943439003252452,0.007380557778564126,0.9994968275238558,0.8123517680242716,0.05993257912467423,-1.4756764267313924,0.0,0.0,0.0
1624163964111464262,206,1624163964111464262,2.9372631220791576,-0.7774398868059202,-4.617007518517064,0.029996471186249544,-0.004665460075524888,0.007692878041889351,0.999509512123851,0.7945153615680395,0.07048188592559924,-1.463243380969922,0.0,0.0,0.0
1624163964211623192,207,1624163964211623192,3.0155049506205085,-0.771300520303728,-4.760630262360433,0.03181503813306418,-0.0014477503733623242,0.008141066551528148,0.9994595691686678,0.7823920499518424,0.07641251739378702,-1.4952223726796599,0.0,0.0,0.0
1624163964311696768,208,1624163964311696768,3.092896143477862,-0.7672305183160615,-4.913078978208791,0.032088614709453865,0.01210096004438097,0.008007478756008718,0.9993796915366918,0.7578693006985452,0.062285852250910156,-1.542104210311754,0.0,0.0,0.0
1624163964411566496,209,1624163964411566496,3.1644457257086493,-0.7613140460503752,-5.064193586315232,0.033193831607373915,0.026259733571918048,0.00864992368721804,0.9990664516217762,0.6792249121311809,0.07645588504953083,-1.434391011733948,0.0,0.0,0.0
1624163964511583328,210,1624163964511583328,3.228146773262912,-0.7495130908873049,-5.20205857934284,0.032415676959290436,0.030849134359699482,0.009036045956082955,0.9989574088368215,0.5928892184608071,0.11260728930933288,-1.3401545106998574,0.0,0.0,0.0
1624163964613426447,211,1624163964613426447,3.2876293622923862,-0.732966341803665,-5.334359090225853,0.030491369113378186,0.03439126985917781,0.00970401327152763,0.9988960652107205,0.5283026966478688,0.15127350692684083,-1.264876679450066,0.0,0.0,0.0
1624163964711441040,212,1624163964711441040,3.3390575667229054,-0.7180608816049623,-5.450912770124274,0.029315876937121055,0.03321827693274636,0.010210086795799595,0.9989659051061837,0.46343812955611985,0.14752317740168844,-1.1163574185983747,0.0,0.0,0.0
1624163964811361790,213,1624163964811361790,3.3827156594357644,-0.7040127296232052,-5.552324360231669,0.029111561937340394,0.023342871048780654,0.009638507148619087,0.9992570872966989,0.3879762159069556,0.15793973240453824,-0.9956966102726491,0.0,0.0,0.0
1624163964909862518,214,1624163964909862518,3.424999467082693,-0.6878384701624654,-5.650638357664196,0.027949683836349923,0.014700576837380299,0.00863035840177337,0.9994639688992903,0.3814268301168147,0.16608556421610618,-1.013183662926039,0.0,0.0,0.0
1624163965011191368,215,1624163965011191368,3.4625536984747014,-0.669704989647091,-5.759401830131177,0.02729758887127261,0.01215915071779191,0.009106014274678756,0.9995119194885247,0.35576209541979703,0.18216621102004008,-1.1138396513723419,0.0,0.0,0.0
1624163965111520290,216,1624163965111520290,3.4953937216480484,-0.6507579329081558,-5.877020469455971,0.02768718213068726,0.023520681792413154,0.009785108730974127,0.999291973909915,0.3026992863758263,0.199003745522709,-1.2022944030009983,0.0,0.0,0.0
1624163965211721182,217,1624163965211721182,3.5192713239969615,-0.62758443585192,-6.003372627505862,0.02867045094754289,0.042982910155386626,0.010403623166977098,0.9986101538147936,0.19860541737449577,0.22630922371624734,-1.2936579156623589,0.0,0.0,0.0
1624163965313509703,218,1624163965313509703,3.5269931583880583,-0.6079458071087507,-6.137573658857709,0.02716786844676145,0.07091662047666969,0.011129236929470659,0.9970500889872906,0.011604471314289037,0.2113245421277918,-1.3148335260108766,0.0,0.0,0.0
1624163965411638975,219,1624163965411638975,3.517802520339144,-0.5864045300694136,-6.256648742071573,0.02481811992453644,0.08123715651488325,0.011562839380159395,0.9963186669285198,-0.18431051945372368,0.21413056288533833,-1.090985216359209,0.0,0.0,0.0
1624163965511622429,220,1624163965511622429,3.4946368208080862,-0.5706594876775316,-6.35896004233689,0.023664689194667906,0.060686149071600866,0.010505260486102112,0.9978210326998849,-0.3328736137957291,0.1768200777815531,-1.0319583272796178,0.0,0.0,0.0
