%time,field.header.seq,field.header.stamp,field.pose.pose.position.x,field.pose.pose.position.y,field.pose.pose.position.z,field.pose.pose.orientation.x,field.pose.pose.orientation.y,field.pose.pose.orientation.z,field.pose.pose.orientation.w,field.twist.twist.linear.x,field.twist.twist.linear.y,field.twist.twist.linear.z,field.twist.twist.angular.x,field.twist.twist.angular.y,field.twist.twist.angular.z
1624180454494860649,0,1624180454494860649,0.008777075024025893,-0.0010059046463163654,-0.0007260355279275067,-7.574644603955322e-05,-1.918048198402521e-05,-0.00014776761810700304,0.999999986029658,0.0030875572771721146,9.561842640453027e-05,-0.0010462851745773566,0.0,0.0,0.0
1624180454594970465,1,1624180454594970465,0.007064569927413713,0.001141829572159132,-0.0005736135856293687,-4.666962851790908e-05,-1.0843164188223318e-05,-0.0001721878361705305,0.9999999840278593,-0.016211443962695003,0.023675533815700023,0.0013822607990616534,0.0,0.0,0.0
1624180454694985867,2,1624180454694985867,0.004415587018181336,-0.0002705784562688797,-0.0007015826229798051,-6.051841619096721e-05,-3.307524453835471e-05,-0.00012705528826361827,0.9999999895502504,-0.0219720953584946,0.001990291063255392,-0.00038300299527157036,0.0,0.0,0.0
1624180454794957161,3,1624180454794957161,0.004632716329166906,0.0016547811507403192,-0.00023748933526834677,-3.601762658206365e-05,-2.5771648372505073e-05,-6.372210366078528e-05,0.999999996989022,-0.010017029255149567,0.01155920886648746,0.00303854590309346,0.0,0.0,0.0
1624180454894872665,4,1624180454894872665,0.005021244327294834,0.0014918634178882693,-0.0007691220259681442,-6.839545028831012e-05,-3.131611723708236e-05,0.00011332722720917194,0.9999999907491499,-0.003137610756166328,0.006566920059866969,-0.0026692756486478143,0.0,0.0,0.0
1624180454994867802,5,1624180454994867802,-7.73771138838358e-05,0.002697507737176668,-0.0011121901156930473,-6.243218521604836e-05,-2.732065817222441e-05,0.00014242086306563733,0.999999987536048,-0.02401350622743538,0.010215730277282495,-0.003645732350374103,0.0,0.0,0.0
1624180455094831705,6,1624180455094831705,0.002481156148183157,0.001206252651620571,-0.0005872330334746521,-4.39170401114464e-05,-3.8472273646141134e-05,-7.536452758828041e-05,0.9999999954556795,-0.0023120749913331136,-0.001107079474631482,0.0020012587691474485,0.0,0.0,0.0
1624180455194862604,7,1624180455194862604,0.004780984045479047,0.00032906537512137566,-0.0008034629276787825,-4.543649779627568e-05,-2.166928016907175e-05,9.522962396952429e-05,0.9999999941986393,0.010281162161502226,-0.004566302473456404,-0.0008983560546349516,0.0,0.0,0.0
1624180455294948578,8,1624180455294948578,0.004458338942863938,0.003107086662750222,-0.0007952585845696192,-5.907051875310929e-05,-2.924041282370431e-05,2.6620154459656578e-05,0.9999999974735162,0.006683749012302085,0.010396915710207991,-0.00035484488055506104,0.0,0.0,0.0
1624180455395040751,9,1624180455395040751,0.008628801880869291,0.0019065410148866775,-0.001127912854275961,-6.85292698152312e-05,-1.2027463786831832e-05,-0.0001521292229707578,0.9999999860078859,0.02375343188338315,0.0015498955767004104,-0.002385929246477857,0.0,0.0,0.0
1624180455495076180,10,1624180455495076180,0.010849933183797782,0.0017280092423510853,-0.0014572776079737136,-7.138032575436205e-05,-1.9146862755489818e-05,7.30429325031367e-05,0.9999999946014843,0.026296957360092216,0.0003818613488725921,-0.003113294616407293,0.0,0.0,0.0
1624180455595058918,11,1624180455595058918,0.005995967752707731,0.002307236531142957,-0.0009814707232791312,-4.289202058511918e-05,-2.196328886450493e-05,1.5177199583857562e-05,0.9999999987237664,-0.000641101442512261,0.0027254964883448216,0.002017023084052442,0.0,0.0,0.0
1624180455695019960,12,1624180455695019960,0.006750833700671235,0.0016523498019997969,-0.0010067812580420753,-5.206392800839337e-05,-2.329297937952639e-05,1.1784826307854691e-05,0.9999999983039466,0.0035077373517286544,-0.0004444136770142002,0.0006161863787545311,0.0,0.0,0.0
1624180455794948816,13,1624180455794948816,0.007962853183684789,0.002793393932452789,-0.0008462207954038995,-5.256982397275813e-05,-3.259664568914978e-05,2.6295805083451655e-05,0.9999999977411966,0.008746583346928589,0.005596231104435915,0.0017465025949245897,0.0,0.0,0.0
1624180455894922256,14,1624180455894922256,0.00857740237467055,0.0025955404820900614,-0.0010871961874812284,-6.1752397417431e-05,-4.013136626715955e-05,-0.00010878628446689746,0.9999999913708234,0.008711840532025375,0.003956383972688302,-0.0008592727577007215,0.0,0.0,0.0
1624180455994806290,15,1624180455994806290,0.0063842603693962776,0.0019088625114600049,-0.001078809930756577,-6.2344017974521e-05,-1.495844648357946e-05,-9.398578426402177e-05,0.9999999935280635,-0.0021976328842517774,0.00015761499615862123,0.0002615224729699126,0.0,0.0,0.0
1624180456094709635,16,1624180456094709635,0.0028558443147162892,-0.0005113326728789941,-0.0007455241109452159,-1.5767015348553815e-05,-3.739699293014495e-05,5.1750878562046e-05,0.9999999978373492,-0.013947459467367092,-0.010288700370170994,0.0027292092020177396,0.0,0.0,0.0
1624180456194673061,17,1624180456194673061,0.0023775289787868175,-0.002862337851741221,-0.0006785139825265615,-5.267661451324174e-05,-2.7659377092761175e-05,-7.824482500327542e-05,0.999999995168933,-0.01036118666987413,-0.01575467597758281,0.0017539355456387263,0.0,0.0,0.0
1624180456294673204,18,1624180456294673204,0.0065912409313856,-0.002221761139801607,-0.00038301451326918794,-2.1876693528066107e-05,-1.7896121643585056e-05,-5.5344127925898814e-05,0.9999999980690758,0.009982446854458742,-0.0069951288110601945,0.0025154946498550487,0.0,0.0,0.0
1624180456394796133,19,1624180456394796133,0.0075730298765468345,-0.0005853206685392455,-0.0005688434576162382,-4.157146231175949e-05,-2.9501938306097826e-05,-6.425184016445727e-05,0.9999999966365677,0.01116170912685477,0.0022708310322600567,-3.406366322802586e-05,0.0,0.0,0.0
1624180456494889259,20,1624180456494889259,0.010606103651816108,0.0003976332067995236,-0.0007716330821366311,-5.1870327709371314e-05,-1.8122540655532e-05,3.710184205012848e-05,0.9999999978022402,0.01905970733029738,0.0064929855515165865,-0.0018661199784888094,0.0,0.0,0.0
1624180456594920397,21,1624180456594920397,0.008388990436748947,0.0031464061381808787,-0.001131999558344841,-6.971041513673507e-05,-2.413946771321341e-05,-9.103511270913755e-05,0.9999999931351677,0.005500664195358494,0.01573294287318998,-0.0027399297928495567,0.0,0.0,0.0
1624180456694918633,22,1624180456694918633,0.007734335155711952,0.0032727356982754133,-0.001214265087406869,-6.43218087005663e-05,-3.6319401448580456e-05,-3.794404413523264e-05,0.9999999965519191,0.002305842106831371,0.011026935847770604,-0.000618728479174183,0.0,0.0,0.0
1624180456794880629,23,1624180456794880629,0.012253086103116324,0.0014463729955535884,-0.0008814748532020336,-4.053952712977693e-05,-1.305480508555948e-05,-2.050397739316604e-05,0.9999999988828433,0.01860803764811237,0.00026496997949307724,0.0019861030637976403,0.0,0.0,0.0
1624180456894855261,24,1624180456894855261,0.014806587316455682,0.0022150385877574646,-0.0008939545838506883,-5.122281859499418e-05,-1.9556628373461487e-05,-2.080562717310937e-05,0.999999998280434,0.02200920435608065,0.003878363537001434,0.00030858204856364763,0.0,0.0,0.0
1624180456995153189,25,1624180456995153189,0.013250530746130433,0.001157919227357061,-0.0009902633753888683,-5.531568972731154e-05,-1.9158203914162382e-05,-1.9939709099268697e-05,0.9999999980877627,0.00943345749645726,-0.0012436657872086708,-0.0006565074122788558,0.0,0.0,0.0
1624180457095012903,26,1624180457095012903,0.013519730457162451,0.001438709535528298,-0.0012872535486107735,-7.66950709818542e-05,-2.1967613998432384e-05,-6.184480569409605e-05,0.9999999949052446,0.008753519790983606,0.001140117221584365,-0.0013795051254667757,0.0,0.0,0.0
1624180457195024490,27,1624180457195024490,0.012332228067457613,0.001432283860860766,-0.0012938585667395261,-6.720922262598503e-05,-1.807523689061538e-05,-3.384077352003102e-05,0.9999999970054935,0.002316228099854758,0.0014733333962855862,-0.0003236131570590209,0.0,0.0,0.0
1624180457294945955,28,1624180457294945955,0.011571775699538187,0.0020310603580993613,-0.0013016235775698062,-6.822046395176674e-05,-2.88506927574487e-05,-2.7467706071163577e-06,0.9999999972530194,-0.0007076993351855998,0.004154763909628777,-8.40323720979339e-05,0.0,0.0,0.0
1624180457394840240,29,1624180457394840240,0.011654187697365505,0.001715879096809552,-0.0007112154626831853,-3.061997899221783e-05,-2.478287117438005e-05,-1.2926931271208814e-06,0.9999999992232668,0.00041969981604558185,0.002034429424709023,0.00447843987482177,0.0,0.0,0.0
1624180457494789362,30,1624180457494789362,0.01286081595488035,0.0015345043808268526,-0.0005856425803209783,-3.6043363006138244e-05,-2.173761367782128e-05,-1.5450685837437653e-05,0.9999999989948031,0.004536755590488789,0.0014279653854771097,0.003332183794145264,0.0,0.0,0.0
1624180457594772816,31,1624180457594772816,0.01307449949769381,0.002345433482879582,-0.0005837480919778161,-4.058615946371373e-05,-8.907044320564384e-06,-1.9847551957389033e-05,0.9999999989397399,0.0041480553755902354,0.0044964066220769035,0.001884415979532783,0.0,0.0,0.0
1624180457694738150,32,1624180457694738150,0.012723660350520008,0.002849795947388595,-0.0008157205545179344,-5.233490612553646e-05,-2.599754898186072e-05,1.8321676760924607e-05,0.9999999981247387,0.001725070284471821,0.005220436748804481,-0.00046474530610921363,0.0,0.0,0.0
1624180457794754982,33,1624180457794754982,0.012377419124118222,0.002962778100294565,-0.0009976139531065412,-5.943985767858623e-05,-2.143070878377565e-05,-3.282276699470975e-05,0.9999999974651352,0.00027088450410448243,0.004421255419910673,-0.0015145962680983604,0.0,0.0,0.0
1624180457894884109,34,1624180457894884109,0.008339400315486632,0.0007068053773326699,-0.000943306201564802,-4.1344771732987765e-05,-1.815857209996978e-05,-2.102379577482827e-05,0.9999999987594264,-0.013965454803880492,-0.006038243782777053,0.00015143035243019931,0.0,0.0,0.0
1624180457995158195,35,1624180457995158195,0.005926317167270562,0.0032766174583183844,-0.0008291127200471039,-4.951284560434667e-05,-1.997299221885587e-05,-4.495034711965269e-05,0.9999999975645003,-0.01792827718382089,0.006428350194019781,0.0010947029680264935,0.0,0.0,0.0
1624180458094964027,36,1624180458094964027,0.00963539264225074,0.0010300392656442847,-0.0010504273310023525,-6.215989426319672e-05,-2.1350215648917608e-05,-5.345229370187114e-05,0.999999996411572,0.0016224777233830277,-0.003768782412471793,-0.0007793316252217525,0.0,0.0,0.0
1624180458194863081,37,1624180458194863081,0.012198562917732006,0.0033287177732871215,-0.0010464504102446457,-6.019649814004018e-05,-2.052197578066381e-05,-4.2325571321520785e-05,0.9999999970818759,0.010573053947776028,0.00733130650114471,-0.0004193607207308059,0.0,0.0,0.0
1624180458295698404,38,1624180458295698404,0.009053403670781853,0.0009850461462560358,-0.00126389760135306,-6.74233885259716e-05,-2.796991307508316e-05,0.00012530452029909248,0.9999999894852613,-0.0034263070337665433,-0.004047250103966049,-0.0014687557179049033,0.0,0.0,0.0
1624180458394839764,39,1624180458394839764,0.009306002266297334,0.0013364038680762508,-0.0008608421990374004,-2.7752561539443686e-05,-1.7098705590727753e-05,6.028099995942195e-05,0.999999997651802,-0.0011903977032437438,-0.0005642485650634455,0.0026126109786989873,0.0,0.0,0.0
1624180458494792938,40,1624180458494792938,0.009450738233422877,0.0026693363427134588,-0.0009442407376152217,-6.191578390076676e-05,-2.1542649989374256e-05,-8.088659562949239e-06,0.9999999978184491,-4.9834204319480725e-05,0.005860728231098257,0.0004132389786787429,0.0,0.0,0.0
1624180458595060110,41,1624180458595060110,0.009378363322680838,0.0031774105916639807,-0.0013037603639537655,-7.094593616202997e-05,-1.9924423684891666e-05,2.0317922224213637e-05,0.9999999970784237,-0.00022845165022828675,0.00647537923060147,-0.002370131262264561,0.0,0.0,0.0
1624180458694882631,42,1624180458694882631,0.01029943910761668,0.0032483281745762987,-0.0014723918907150924,-6.893058809171125e-05,-1.274880342683546e-05,2.0866215238356794e-05,0.9999999973253081,0.0037163950698069674,0.005323014388969703,-0.001564084364366702,0.0,0.0,0.0
1624180458794858932,43,1624180458794858932,0.01119252243854538,0.0034364991749431303,-0.0018149959250491968,-8.77472829054924e-05,-3.0129502464902208e-05,5.93545955305565e-05,0.9999999939348162,0.005742230797006068,0.004852028697386947,-0.002378510791059941,0.0,0.0,0.0
1624180458894917727,44,1624180458894917727,0.009304113919476187,0.002308405759245691,-0.0010489666938186082,-3.694730436346901e-05,-2.746488999127359e-05,-2.173961768111035e-05,0.999999998703969,-0.002207499580727225,-0.0005983890968490734,0.005365530372684632,0.0,0.0,0.0
1624180458994694948,45,1624180458994694948,0.007676846462911314,0.002901416984023395,-0.0008463604555070605,-6.336586357604254e-05,-2.0381349680845498e-05,-1.9013983982951528e-05,0.9999999976039039,-0.0062412290402736915,0.0026606138026077533,0.0028818607833970785,0.0,0.0,0.0
1624180459094834328,46,1624180459094834328,0.007801291318626124,0.003156161417738924,-0.000991765328740519,-5.7259580852348765e-05,-2.415045903053025e-05,1.045660231553759e-06,0.9999999980684862,-0.0035141918941804383,0.003007643875631471,0.0007227890723943827,0.0,0.0,0.0
1624180459194805145,47,1624180459194805145,0.00940031963900214,0.0029488036944836107,-0.0011635534891820238,-7.243790894892745e-05,-2.431196174253663e-05,-0.00014096374154559985,0.9999999871454351,0.0026357363567300193,0.0017647626276507194,-0.000631877029367919,0.0,0.0,0.0
1624180459294804811,48,1624180459294804811,0.007632180283784897,0.004405556271318813,-0.0010518058563856378,-4.7142583909540745e-05,-2.2614959955471176e-05,1.3319310315909935e-05,0.9999999985443518,-0.0034656181758780918,0.0067363915903895025,0.000627296157635809,0.0,0.0,0.0
1624180459394834995,49,1624180459394834995,0.009782930513272756,0.005340415625365057,-0.0013258040355643007,-8.232851189437903e-05,-1.8331631555539864e-05,-0.00012057949485966174,0.9999999891732594,0.0056823208905398565,0.008948678446847307,-0.0011857949615495175,0.0,0.0,0.0
1624180459494921207,50,1624180459494921207,0.008716914438037442,0.00588273891446415,-0.0013805817492094207,-7.471183022140766e-05,-2.164801476718645e-05,2.0754554795703385e-05,0.999999996759359,0.0008143494638918657,0.00866523643394926,-0.00048282755019492566,0.0,0.0,0.0
1624180459594864607,51,1624180459594864607,0.006519037490237866,0.005289825192555917,-0.0016146822932371198,-8.555190320960531e-05,-2.440912879117916e-05,-3.6992412519206986e-05,0.999999995358296,-0.006317168253769351,0.004537188835141812,-0.0018048927182729429,0.0,0.0,0.0
1624180459694969893,52,1624180459694969893,0.005395075900581794,0.006432294036281338,-0.0011148628661397423,-5.534042293656108e-05,-2.1321812273656934e-05,8.243104893458431e-05,0.9999999948439512,-0.007905826302530373,0.007914188571915781,0.0037735329954438537,0.0,0.0,0.0
1624180459795026302,53,1624180459795026302,0.006432063532472065,0.005586012870183398,-0.0009056902958776293,-5.7188824406802565e-05,-1.8322666798197954e-05,-2.1698657367927407e-05,0.9999999979614241,-0.0007383263357796464,0.002507454565264377,0.0027030190136692104,0.0,0.0,0.0
1624180459894806862,54,1624180459894806862,0.007212671856583172,0.006150824838714628,-0.0012433352110772207,-7.258362865248541e-05,-1.5432746846924274e-05,-4.387511578892464e-05,0.999999996284191,0.0028301112700965603,0.00422341198454766,-0.0009406441586322979,0.0,0.0,0.0
1624180459994871855,55,1624180459994871855,0.007726002334133449,0.006306621037806079,-0.0012044525604563254,-6.854586136183161e-05,-2.2960383799758176e-05,-2.487946033565882e-06,0.999999997384028,0.0034834666713655683,0.004315358553841723,0.00012963291517111876,0.0,0.0,0.0
1624180460094863415,56,1624180460094863415,0.004606498412521799,0.0038737199147504627,-0.0014437288637449775,-7.672630748096067e-05,-2.730004481235829e-05,0.00020832501301649094,0.9999999749842149,-0.008194681012124946,-0.005743588964236272,-0.0014444722816240282,0.0,0.0,0.0
1624180460194819927,57,1624180460194819927,0.005596891428085834,0.004007738218794415,-0.0010473989487286984,-3.8396400393051684e-05,-2.094599049168494e-05,-2.5774512981499175e-05,0.9999999987113084,-0.001240446067770535,-0.00303608791145994,0.002931306623823418,0.0,0.0,0.0
1624180460294763803,58,1624180460294763803,0.006936175624713152,0.004718575472050599,-0.0008942956909618891,-5.479121903688505e-05,-2.466795194739445e-05,-4.06703214215244e-06,0.9999999981864173,0.0035939568163775855,0.001239540947093624,0.0018678755700428534,0.0,0.0,0.0
1624180460394842625,59,1624180460394842625,0.009126846757354734,0.00574595541964831,-0.0010493503434191856,-6.843930188607377e-05,-2.8993855185758453e-05,6.0227683439693515e-06,0.9999999972195526,0.01031437318765865,0.0051961919792973465,-0.00015584697617020355,0.0,0.0,0.0
1624180460494854212,60,1624180460494854212,0.00837549411527667,0.006129486936836005,-0.0012325137436775028,-7.09893247398459e-05,-1.6159320944799487e-05,7.708398280390603e-06,0.999999997319967,0.004436558986879051,0.005609772122781372,-0.0014522781775853511,0.0,0.0,0.0
1624180460594785452,61,1624180460594785452,0.010490660979382728,0.004942569648231708,-0.0011134145764276628,-6.148318386604883e-05,-2.149818501368646e-05,-1.1509185579565584e-05,0.9999999978125728,0.010722174489108525,-0.00012234581540236655,0.0012078929851928111,0.0,0.0,0.0
1624180460694785118,62,1624180460694785118,0.01048244633959937,0.005015292421939671,-0.0006783425676991008,-3.9361715601027e-05,-2.483005626538725e-05,-4.5763058132655186e-05,0.9999999978699132,0.00735981953214467,0.0008360676334984671,0.003958061932258972,0.0,0.0,0.0
1624180460794800282,63,1624180460794800282,0.010605250109528827,0.005432705572918733,-0.00093442428559577,-6.809983812415085e-05,-1.528653226700043e-05,1.2616368763022774e-05,0.9999999974847603,0.0059651339746657085,0.003437326387424256,-0.000366080015283962,0.0,0.0,0.0
1624180460894866705,64,1624180460894866705,0.010121477177344698,0.004863166949865303,-0.0013782730780450274,-8.037510569335717e-05,-1.1034984740154514e-05,1.8628858536620094e-05,0.9999999965354986,0.0024959349209329436,0.0009503253958749584,-0.002603455201029763,0.0,0.0,0.0
1624180460994832516,65,1624180460994832516,0.009067325255765512,0.0029401656450139943,-0.0012538670082611685,-5.18861756047851e-05,-2.0842965862911882e-05,-5.523273556292355e-05,0.9999999969113504,-0.0013860037021090252,-0.00679551072100969,0.0007550155973150702,0.0,0.0,0.0
1624180461094824791,66,1624180461094824791,0.008627827690570316,0.004081362416045731,-0.0010311797842589504,-6.21518719394369e-05,-1.1659182358128724e-05,-2.5963673228373706e-05,0.9999999976635279,-0.0021799144918309508,0.0006536074641053649,0.0019193834617590045,0.0,0.0,0.0
1624180461194963217,67,1624180461194963217,0.010408599686401175,0.005613568023356481,-0.0011170448026764895,-7.868022007968116e-05,-2.4226505469756988e-05,-4.614107900682032e-05,0.9999999955467295,0.005139396947912863,0.007522200706409173,0.0004056234103551671,0.0,0.0,0.0
1624180461294815779,68,1624180461294815779,0.009268361207538831,0.007768829414964394,-0.0012972380036408075,-8.486059865571597e-05,-2.781353861248877e-05,7.898219414092004e-05,0.9999999928934283,0.00046799121019318844,0.01346289177070727,-0.0011396234140432253,0.0,0.0,0.0
1624180461394855261,69,1624180461394855261,0.011197310140448525,0.005843990886543861,-0.000890382378286224,-5.010428682114111e-05,-2.1858835553181287e-05,-7.517981370055924e-05,0.9999999956798516,0.006973843949651483,0.002079084481440981,0.0033501202801763746,0.0,0.0,0.0
1624180461494716406,70,1624180461494716406,0.01106995989121831,0.0041982697983852756,-0.0010765915798356014,-6.968082063875373e-05,-1.6875071986333104e-05,-5.0821605747967194e-05,0.999999996138468,0.004590148873507175,-0.004149083059264961,-0.0004001738988090005,0.0,0.0,0.0
1624180461594724417,71,1624180461594724417,0.011761968038326269,0.0021568973193684814,-0.0010569229805906311,-4.3402633260772354e-05,-3.3375610310202367e-06,1.7379847633582892e-05,0.9999999989014849,0.00603060707655727,-0.009405352146418633,0.0003480474643575471,0.0,0.0,0.0
1624180461694877863,72,1624180461694877863,0.008888113858141174,0.0020404049571762805,-0.0012522855367709123,-6.727993082030228e-05,-1.7934733967910305e-05,-2.1070824027338528e-05,0.9999999973538665,-0.005590131002140778,-0.005629408003160001,-0.0012333381573852442,0.0,0.0,0.0
1624180461794754505,73,1624180461794754505,0.00806360927706634,0.0028278955376960153,-0.0013453131048934627,-6.886164412996154e-05,-2.7090815618498077e-05,-0.00016091330810341046,0.9999999843155125,-0.0064549257710561254,-0.0003501851351719945,-0.0006413541747263979,0.0,0.0,0.0
1624180461894839764,74,1624180461894839764,0.005131950384712697,0.0030836507884697975,-0.001661623988418833,-9.216934459849937e-05,-3.2877148496560626e-05,-5.185829914277226e-05,0.9999999938672889,-0.014088738441984576,0.001425793339865477,-0.0024218502964317825,0.0,0.0,0.0
1624180461994928122,75,1624180461994928122,0.0043609435476951106,0.003736967226218458,-0.001174865862071612,-4.5783162279348554e-05,-2.6812185187783033e-05,-1.3814218999944119e-05,0.9999999984970659,-0.012362091578522878,0.00445476970628599,0.0030899312872211793,0.0,0.0,0.0
1624180462094817638,76,1624180462094817638,0.005415611258140861,0.0033313543291928595,-0.0014165881621749914,-7.593839149489288e-05,-2.703908614488322e-05,-2.6793348879068135e-06,0.9999999967475126,-0.004457818573495781,0.001566858565622937,-0.0007037522134041522,0.0,0.0,0.0
1624180462194862843,77,1624180462194862843,0.002860258298831499,0.003125708945531431,-0.0015816749392412322,-7.782608204440173e-05,-2.6826276161234116e-05,-1.9192081782152866e-06,0.9999999966098615,-0.01167544885177587,0.0015504205519161697,-0.0011815132829158955,0.0,0.0,0.0
1624180462294963598,78,1624180462294963598,0.0011211931280896625,0.003911090820258529,-0.0017301215790747314,-8.441195307630713e-05,-3.040015176634765e-05,3.593198884934691e-05,0.9999999953296499,-0.012832726922001611,0.004539599363808197,-0.0006989105762029465,0.0,0.0,0.0
1624180462394839048,79,1624180462394839048,0.0027882429582538107,0.004863759830803497,-0.0017745982444536575,-7.602166333695363e-05,-2.9265987274082743e-05,-3.12295728526999e-05,0.9999999961944382,-0.0024814757533567523,0.006967053728811078,-0.0005291446728627299,0.0,0.0,0.0
1624180462494745016,80,1624180462494745016,0.002301268932634642,0.006852206514250838,-0.0014925021998104704,-7.889226070473604e-05,-2.2207207123281792e-05,-2.7693173148660585e-05,0.9999999962579463,-0.0027924340500725363,0.01268943512168683,0.001125484681296845,0.0,0.0,0.0
1624180462594623089,81,1624180462594623089,0.0024471206516281803,0.007707089821011177,-0.001127133538347315,-6.643993620094652e-05,-3.1164717351219755e-05,-6.464353064792744e-05,0.9999999952178318,-0.0013536839975601584,0.011711193949365494,0.003735758613814544,0.0,0.0,0.0
1624180462694648981,82,1624180462694648981,0.004484654040821218,0.006887832175823423,-0.0008398035170595674,-5.25465863347919e-05,-2.2724519552214393e-05,-9.293696236311467e-05,0.9999999940425635,0.006193270089833422,0.0047794970977255566,0.0036167253583308146,0.0,0.0,0.0
1624180462794776440,83,1624180462794776440,0.005984765398942899,0.00702034913067499,-0.0008177538755652236,-5.773104666130935e-05,-1.9184839929118774e-05,-6.760835440453985e-05,0.999999995864066,0.009583750188889557,0.004425500410525943,0.0016441542863474693,0.0,0.0,0.0
1624180462894784927,84,1624180462894784927,0.005622393146241574,0.007773950857065137,-0.0009943825862669515,-5.792803231996153e-05,-1.5661958116246997e-05,-1.4526920897817752e-05,0.9999999980939843,0.00544369888647647,0.006334479809578194,-0.0006043158400311961,0.0,0.0,0.0
1624180462994788647,85,1624180462994788647,0.007555808476143781,0.007465265050256162,-0.0014729989939451208,-8.681582657966508e-05,-2.4372588681244833e-05,-3.2667000807035554e-05,0.9999999954009042,0.010612953881662618,0.0033795789842905647,-0.0028609502969037005,0.0,0.0,0.0
1624180463097083330,86,1624180463097083330,0.0064666591201940895,0.00743776530101238,-0.001056951380554712,-7.185935720392554e-05,-2.7052700902680118e-05,-4.0641328584156926e-05,0.9999999962263089,0.0040892910221026115,0.002097804599928698,0.0025227843460864387,0.0,0.0,0.0
1624180463194844723,87,1624180463194844723,0.008000894671460559,0.004315866014820431,-0.001032062941017283,-5.520350519944146e-05,-1.9304183261867917e-05,2.903178040554822e-05,0.9999999978685146,0.008001729789985106,-0.010154532014055282,0.0017171145050022527,0.0,0.0,0.0
1624180463294934988,88,1624180463294934988,0.009333590108426682,0.006154510280556673,-0.0012309761963098216,-7.788399650572e-05,-2.2625548302804524e-05,-3.8143985445433876e-05,0.9999999959835788,0.009929042162948277,0.0012699278574088372,-0.0008872226189569577,0.0,0.0,0.0
1624180463394884825,89,1624180463394884825,0.005479444253842849,0.00808015301682083,-0.001535386964742777,-9.246992346846752e-05,-2.7873904218327738e-05,-0.0001952430001676188,0.9999999762762407,-0.005983604997217578,0.009349548148509322,-0.002372578886624798,0.0,0.0,0.0
1624180463494782925,90,1624180463494782925,0.0039453592282886136,0.0075566191584402614,-0.0018848448481779774,-9.098914540665244e-05,-3.264957748606794e-05,-7.337477999024881e-05,0.9999999926355367,-0.008879390655388203,0.004873832271166173,-0.0028962648617831327,0.0,0.0,0.0
1624180463594665051,91,1624180463594665051,0.0010969619370795286,0.004096306578614882,-0.0015292226797134387,-6.105564050184246e-05,-3.463609614105263e-05,-4.3411965055951196e-05,0.999999996593951,-0.015124316453492718,-0.00923040615280561,0.0026967703116144923,0.0,0.0,0.0
1624180463694615126,92,1624180463694615126,0.0021648522901130097,0.0029825821335286336,-0.0013866275464904667,-7.139766717926386e-05,-2.8891132358367977e-05,2.8005157148944843e-06,0.9999999970298918,-0.006271420791338876,-0.009071533353523616,0.002066161914761285,0.0,0.0,0.0
1624180463794744492,93,1624180463794744492,0.006067450688245224,0.004763764652168012,-0.0012192550692886287,-6.443072684250839e-05,-1.8864991743434924e-05,-3.642845133746214e-05,0.9999999970828555,0.008468567980240083,0.0015201849389805278,0.0013112070361075672,0.0,0.0,0.0
1624180463894852877,94,1624180463894852877,0.007460695103629344,0.004598987881779443,-0.0010386341208046936,-4.784451203111401e-05,-2.531833369500476e-05,1.038859148665423e-05,0.9999999984809553,0.010795861082674267,0.000858829969169826,0.0013631699871245527,0.0,0.0,0.0
1624180463994912624,95,1624180463994912624,0.011772474582187397,0.005636509746080269,-0.001264841759058527,-6.62466335057548e-05,-1.907860030156936e-05,-3.6651393030755773e-05,0.9999999969520071,0.02148089089741715,0.004670621822173928,-0.0012297737739907317,0.0,0.0,0.0
1624180464094923735,96,1624180464094923735,0.01270726810939029,0.005601671728367394,-0.0015452955253652092,-6.76128614371571e-05,-2.50232850506147e-05,-2.185154967458597e-05,0.9999999971623972,0.017800865637814856,0.0036913804790751834,-0.001957397430632307,0.0,0.0,0.0
1624180464194893360,97,1624180464194893360,0.012782001109109698,0.004959160980664533,-0.0014392690891674204,-7.074398885642803e-05,-2.1032075712050075e-05,6.377436304874552e-06,0.9999999972561077,0.012508258835233363,0.0006928606949997366,0.00032312748599933787,0.0,0.0,0.0
1624180464294792175,98,1624180464294792175,0.01150993000845688,0.004413179448222157,-0.0015073245801255194,-8.452615740509944e-05,-2.1802023641481407e-05,-1.3913224595243925e-05,0.9999999960931849,0.004153533777710291,-0.0005582167235984132,-6.609805428529019e-05,0.0,0.0,0.0
1624180464394871473,99,1624180464394871473,0.01045318785231501,0.005494655745905537,-0.001139946756144502,-5.272313572054922e-05,-1.9739933362925087e-05,3.152593143006934e-05,0.9999999979183343,-0.00048454521232677104,0.004331368116731759,0.0026053094819296087,0.0,0.0,0.0
1624180464494836807,100,1624180464494836807,0.010694099248619504,0.005386158535058738,-0.0009418433643480394,-6.265800113982768e-05,-1.903178806651574e-05,-4.138939108407399e-05,0.9999999969993153,0.0004076341748455311,0.0029405373200474833,0.0023962932791008356,0.0,0.0,0.0
1624180464594686270,101,1624180464594686270,0.010178778937593103,0.005496824127595468,-0.0011955441392031343,-7.784440103341335e-05,-2.0112672874372973e-05,5.414517691364023e-06,0.9999999967531794,-0.0013217730427892143,0.0035200688291800765,-0.000498990797176429,0.0,0.0,0.0
1624180464694892168,102,1624180464694892168,0.00964509295510993,0.005290961639138446,-0.0009106133581683763,-3.974311625409303e-05,-2.2783741221447588e-05,8.875167628643422e-06,0.9999999989112816,-0.002762135085925317,0.0023121941995850742,0.0021104955716116027,0.0,0.0,0.0
1624180464794744968,103,1624180464794744968,0.007415190640087931,0.003867028086404912,-0.001194708508148156,-5.8651161897705404e-05,-3.092399821109284e-05,-1.160419959473376e-05,0.9999999977345183,-0.009500448349668678,-0.0032140223382038763,-0.0011168689989075685,0.0,0.0,0.0
1624180464894735575,104,1624180464894735575,0.007080826657890353,0.004619689168872406,-0.0011683523275164028,-5.483889741447786e-05,-1.866830071881064e-05,4.018787378687703e-06,0.9999999983139924,-0.007623839686736697,0.002121749542901006,0.0001580339553541373,0.0,0.0,0.0
1624180464994672060,105,1624180464994672060,0.011438219278796001,0.006285991515842922,-0.0012261528168190743,-5.932575111155734e-05,-1.2507818232752863e-05,3.330307516978069e-06,0.9999999981564313,0.009588009515158404,0.008764515639821764,-0.00031611195124166806,0.0,0.0,0.0
1624180465094709158,106,1624180465094709158,0.012982549829751562,0.008396600709281008,-0.0011834587161394805,-7.170628225213264e-05,-1.1576264318241608e-05,2.5793979162727643e-05,0.9999999970294067,0.012406950765911005,0.014743766533804638,0.0007331275981563765,0.0,0.0,0.0
1624180465194729567,107,1624180465194729567,0.016984013482263364,0.007333908518780172,-0.0012157510020635869,-6.674854045692444e-05,-1.58408345547279e-05,3.725983204459531e-05,0.9999999969526743,0.022106727418504887,0.006364817867381425,0.0003057698598498386,0.0,0.0,0.0
1624180465294685125,108,1624180465294685125,0.014999632830457991,0.007542098071921942,-0.0013010445168873351,-6.669692692869907e-05,-6.3044750505511324e-06,1.0185601118393657e-06,0.9999999977553393,0.008657584423294142,0.005665856194081422,-8.663772666958223e-05,0.0,0.0,0.0
1624180465394608736,109,1624180465394608736,0.012690343669481087,0.007573944716809598,-0.0010262624849551696,-5.615373686972941e-05,-7.652651733270723e-06,-4.038041051551121e-05,0.9999999975787797,-0.0014909673014713819,0.004380577152581274,0.0016288228779984947,0.0,0.0,0.0
1624180465494699717,110,1624180465494699717,0.012335819278610686,0.007713873906267903,-0.0009534060064429792,-5.700720456544729e-05,-2.0894422037605496e-05,-3.0114237374440196e-05,0.9999999977033375,-0.0021665280969265775,0.00411914434390979,0.0010416220865897244,0.0,0.0,0.0
1624180465594745159,111,1624180465594745159,0.008739400276286969,0.007635296938964828,-0.0009323383646956216,-6.420065533974635e-05,-1.1762143775801928e-05,-3.268477316145261e-05,0.9999999973357864,-0.012979362160044946,0.0026217799350854833,0.0011198120554392474,0.0,0.0,0.0
1624180465694710732,112,1624180465694710732,0.00827615521006145,0.007337116447504772,-0.0012562747856756603,-8.176264234885708e-05,-2.3242355581713246e-05,-4.7514268312657214e-05,0.9999999952584987,-0.01067083563445513,0.0013629570281026915,-0.0006818387533490925,0.0,0.0,0.0
1624180465794851542,113,1624180465794851542,0.006969883656845679,0.007318328413050089,-0.0017148673894862828,-8.921256193845886e-05,-2.8101597663282716e-05,-2.10308586050249e-05,0.9999999954045306,-0.010737470726232531,0.0016571321613140818,-0.0032126193936551687,0.0,0.0,0.0
1624180465894881010,114,1624180465894881010,0.0036008596508504648,0.006892189466285079,-0.0014285308351188793,-5.95306478803651e-05,-2.3313660298288792e-05,-0.0001271755194335917,0.9999999898694502,-0.018082546276439668,-0.00033474550452546373,0.0009894681360567963,0.0,0.0,0.0
1624180465994717836,115,1624180465994717836,0.0019982984958018804,0.005856735629530468,-0.001162723566603584,-5.428386412133521e-05,-3.0260264260815262e-05,-5.44378923335341e-05,0.9999999965870165,-0.016872755674148043,-0.003964976089860882,0.0022624133635237307,0.0,0.0,0.0
1624180466094791651,116,1624180466094791651,0.002152746894155114,0.006317955462236542,-0.0013720608630078653,-8.43414354238575e-05,-3.404954960404761e-05,-2.9794065006960748e-05,0.9999999954197009,-0.011042216692851796,-0.00023209374678194016,7.778569388210707e-05,0.0,0.0,0.0
1624180466194733620,117,1624180466194733620,0.00470415655977829,0.0055440437565603545,-0.0013980859760001922,-7.609415096032576e-05,-2.7258152951001178e-05,-4.6628221273844125e-05,0.9999999956462097,0.0008463192799383727,-0.002702708085345074,0.0006612094912645189,0.0,0.0,0.0
1624180466294819832,118,1624180466294819832,0.007863826044742506,0.0065054463812318445,-0.0012491198879336688,-7.49995817448235e-05,-2.6441662798619848e-05,-2.6433262304432368e-05,0.9999999964885607,0.010835072086051722,0.002999368879368227,0.0011056793505246209,0.0,0.0,0.0
1624180466394792795,119,1624180466394792795,0.010145171056072358,0.006702713649339657,-0.0011593455563443313,-6.105958442218377e-05,-1.6580476698161028e-05,4.8094519687341934e-06,0.9999999979868112,0.01514489482379865,0.003808481278505691,0.000668885341909446,0.0,0.0,0.0
1624180466494819164,120,1624180466494819164,0.010188772310121868,0.006720275235307522,-0.0013670791477146617,-7.952147163951223e-05,-2.4693334620662073e-05,3.0967097864605725e-06,0.9999999965284614,0.01075798522304199,0.002997955341402377,-0.0008086733275840271,0.0,0.0,0.0
1624180466594764709,121,1624180466594764709,0.011107407399244134,0.006201364762015729,-0.00116367344649267,-5.430639212082187e-05,-2.9303726342335477e-05,-6.76214379558371e-05,0.9999999958096928,0.010367468001206876,0.0003346201306007211,0.001437821916844226,0.0,0.0,0.0
1624180466694731236,122,1624180466694731236,0.00989440060437929,0.0059030861803728,-0.00101566193687211,-5.876781530815947e-05,-3.1849064052280596e-05,-1.361644928909086e-05,0.9999999976732554,0.00325478431069674,-0.00017313334054275427,0.0020749135615717304,0.0,0.0,0.0
1624180466794630527,123,1624180466794630527,0.009479005244135533,0.005214535381343892,-0.0010175990786908118,-5.614056081832051e-05,-1.529356203156744e-05,6.83086151941957e-06,0.9999999982838107,0.0009942468972185554,-0.0019430277450878197,0.001185196989362195,0.0,0.0,0.0
1624180466894581318,124,1624180466894581318,0.010071302527376409,0.005289182308599952,-0.001221341970010167,-6.933525857580744e-05,-2.4560153314504164e-05,-5.56587277615161e-05,0.9999999957457325,0.0027655479633659124,-0.00031617101665350786,-0.0006328173353044976,0.0,0.0,0.0
1624180466994688272,125,1624180466994688272,0.009150690699460532,0.00489253186023906,-0.0014471553785045976,-7.47573508648311e-05,-2.6470193778848154e-05,-2.502577544572895e-05,0.9999999965421579,-0.00064988714018687,-0.0012682034545511405,-0.0011298495307560613,0.0,0.0,0.0
1624180467094778776,126,1624180467094778776,0.008560501286214316,0.00670557045343796,-0.0015560392453828364,-7.872631854950302e-05,-2.2091738335386935e-05,-1.6080812890013303e-05,0.9999999965277334,-0.0021389889201726625,0.006526977194735813,-0.0008378560807366702,0.0,0.0,0.0
1624180467196269512,127,1624180467196269512,0.006053892974412726,0.0063153287164833686,-0.0014815689489320104,-8.95533948145636e-05,-2.3182698629748155e-05,-4.6242871834194115e-05,0.9999999946521433,-0.009420318721152347,0.0026833318899070454,0.0008497756146447961,0.0,0.0,0.0
1624180467294983864,128,1624180467294983864,0.008165987965638182,0.006781251024117131,-0.0013110360031928074,-6.637558936965777e-05,-1.5113929727249951e-05,-1.922811793863983e-05,0.999999997498034,0.00041696136086309503,0.004376185448876708,0.0014935819896455932,0.0,0.0,0.0
1624180467394769669,129,1624180467394769669,0.007727444686305723,0.007214378101998324,-0.0012100459505306489,-6.744484069092654e-05,-1.739935572747348e-05,-5.1460319189698075e-05,0.9999999962501148,-0.0009418044332160383,0.005116171876222492,0.001241731425422339,0.0,0.0,0.0
1624180467494842529,130,1624180467494842529,0.007119303301375629,0.006531493718360454,-0.0013188651703829398,-8.207141669716456e-05,-2.4886643149223147e-05,2.0697376843830954e-06,0.9999999963202956,-0.002017139821801568,0.0017582159949898492,0.0003547849466708384,0.0,0.0,0.0
1624180467594519854,131,1624180467594519854,0.0065845837252696314,0.007010163320765226,-0.0014328670870866478,-8.091717824051592e-05,-2.5781657995896087e-05,-1.2120091855500378e-05,0.999999996320379,-0.0030179328712579305,0.0036504055004834596,-0.00020360264078100616,0.0,0.0,0.0
1624180467694524527,132,1624180467694524527,0.00764271106800403,0.00746380861259816,-0.0012758346361934347,-6.26272667167342e-05,-2.2133169568605e-05,-3.273196916362722e-05,0.9999999972582521,0.0014745841174658883,0.0047345661145516355,0.0012900428336684669,0.0,0.0,0.0
1624180467794591427,133,1624180467794591427,0.008324894690487137,0.008478854522152903,-0.001042620915219159,-6.104695406350425e-05,-1.7327135539495106e-05,-3.085871301932329e-05,0.9999999975103583,0.0032843490601961256,0.007698020796216358,0.0023680495053959427,0.0,0.0,0.0
1624180467894696236,134,1624180467894696236,0.007229613249919837,0.008260986497283632,-0.0010990873909609811,-8.118582843144359e-05,-3.1657259281134965e-05,0.00015390751457744012,0.9999999843595464,-0.000973425132699263,0.0046816024978100865,0.0008742354122056157,0.0,0.0,0.0
1624180467994679689,135,1624180467994679689,0.008350834874528834,0.007553297776385689,-0.0011305139124374078,-6.401621175121181e-05,-1.4817557323844964e-05,-4.5949819166285866e-05,0.9999999967854584,0.0027634512643906935,0.0013060324643188264,0.000528696820546064,0.0,0.0,0.0
1624180468094759703,136,1624180468094759703,0.006784356049075288,0.007410749721170281,-0.0014769788078104053,-8.180783887392582e-05,-3.435653208080454e-05,-1.4413740543751662e-05,0.9999999959596438,-0.002450476331963487,0.0009573033561290861,-0.0018728002400618103,0.0,0.0,0.0
1624180468194802523,137,1624180468194802523,0.004123578593124192,0.007112415687888985,-0.0017697920009304346,-9.053453940779475e-05,-3.4706581207683126e-05,-3.783473292474353e-05,0.9999999945837101,-0.009946485240257923,0.00028434935661936103,-0.0027076365463543557,0.0,0.0,0.0
1624180468294756413,138,1624180468294756413,0.005881096546955682,0.0082477707740299,-0.0011632943677036803,-5.0843318838832446e-05,-2.033679675749284e-05,-5.5974921144275775e-05,0.9999999969340574,-0.0007617945283055656,0.004800391157246614,0.003621444551275522,0.0,0.0,0.0
1624180468394700289,139,1624180468394700289,0.004680540226114669,0.006634178365238485,-0.0008491067500795939,-4.591697314113204e-05,-3.185321408694555e-05,-6.717568590747942e-05,0.9999999961821842,-0.004142572784454037,-0.0020980269977804323,0.003863241791866509,0.0,0.0,0.0
1624180468494699717,140,1624180468494699717,0.004815891734947202,0.006997610865046226,-0.0009292754734637356,-7.62650688172156e-05,-3.772787604476454e-05,-5.1074494921791876e-05,0.9999999950757896,-0.0017652828178174092,0.0006216621665715767,0.0009870796285467117,0.0,0.0,0.0
1624180468594657660,141,1624180468594657660,0.005948065891779348,0.007063634341147842,-0.0011074423896128304,-6.633984596935573e-05,-1.901952885612055e-05,-1.2483208752544077e-05,0.9999999975406942,0.0030884493959254253,0.0018211421979597952,-0.0005848851039743437,0.0,0.0,0.0
1624180468694618940,142,1624180468694618940,0.00786144542272384,0.007496835879800666,-0.0011145009980078739,-6.785377362344879e-05,-2.3538649020797596e-05,-4.42027012617293e-05,0.9999999964439275,0.008783638342297426,0.003468725011239522,0.0010675223428277968,0.0,0.0,0.0
1624180468794848919,143,1624180468794848919,0.0055605570072943394,0.007611227733476483,-0.0008526781818376062,-4.65786416877247e-05,-2.6759356475151758e-05,-6.293413094553032e-05,0.9999999965767987,-0.001328052646973164,0.003092123674212538,0.0017828585833177656,0.0,0.0,0.0
1624180468894758701,144,1624180468894758701,0.004254607783585263,0.007120131613158656,-0.0009921023392445631,-6.511182410557067e-05,-1.4923845772386225e-05,-4.665544222307857e-05,0.9999999966804678,-0.004711522029465017,0.001040840800315657,-0.00019722317080046476,0.0,0.0,0.0
1624180468994766712,145,1624180468994766712,0.0018305093487741122,0.005470948373805413,-0.0013083540182130741,-7.307385969680601e-05,-2.432707474264854e-05,-2.1104866307579637e-05,0.9999999968114625,-0.010464723348416078,-0.0047584219789334305,-0.00148333556565227,0.0,0.0,0.0
1624180469094652176,146,1624180469094652176,0.0020549727891178817,0.004819024841732465,-0.00118866276493187,-5.2529572757611614e-05,-2.143074639501056e-05,-2.75642974059591e-05,0.9999999980107562,-0.006367095208683863,-0.004344422767206226,0.0010299394922931471,0.0,0.0,0.0
1624180469194603920,147,1624180469194603920,0.0003202926879991752,0.006979798151622245,-0.0014792872016052045,-9.586193848043844e-05,-4.06128901487999e-05,-0.00011697441648374598,0.9999999877390018,-0.009569387644533585,0.005819589255337925,-0.0015439883180694176,0.0,0.0,0.0
1624180469294574738,148,1624180469294574738,0.001991538984657207,0.008164426298799732,-0.0015097812521810358,-7.746883365372033e-05,-3.079692778714677e-05,-7.673521583544444e-05,0.9999999935808858,-0.0006376640835885922,0.008668739592452936,-0.0005633512119079817,0.0,0.0,0.0
1624180469394602060,149,1624180469394602060,0.0025730588258120937,0.00870254000082217,-0.0016991479180738108,-9.673316636895309e-05,-4.229168328844775e-05,-4.657343122819351e-05,0.9999999933424794,0.0013050629793350023,0.008609850422134293,-0.001235420187834239,0.0,0.0,0.0
1624180469494648457,150,1624180469494648457,0.0017698853707564229,0.008045751174743085,-0.0015473932290848893,-7.963762750364828e-05,-3.039635249868913e-05,-1.6243252236781104e-05,0.9999999962350008,-0.001330200964968139,0.0039436982113839275,0.0005922124707639156,0.0,0.0,0.0
1624180469594624281,151,1624180469594624281,0.0028706411122836864,0.00711539727249663,-0.001649698629993347,-9.080434634164938e-05,-2.439969502399726e-05,-5.4658879034096304e-05,0.9999999940857838,0.003189747319073933,0.00018349737154833845,-0.0006650771335854364,0.0,0.0,0.0
1624180469694659472,152,1624180469694659472,0.003956120987207965,0.006416023293830867,-0.0012579300673899207,-5.200093883967308e-05,-2.5681603523951864e-05,-2.9933806354983927e-05,0.99999999787013,0.005719666326472695,-0.0019480457093422115,0.002981042154696142,0.0,0.0,0.0
1624180469794602156,153,1624180469794602156,0.0070052417128991015,0.006782330212702891,-0.0012417253706512336,-7.575284538981478e-05,-2.7410443674370223e-05,-1.0277812366346797e-06,0.9999999967545263,0.0133427992520492,0.0015075854794339239,0.0010394792116147746,0.0,0.0,0.0
1624180469894699574,154,1624180469894699574,0.0074156290807931265,0.007723273655221067,-0.0013891410341761753,-7.841770553406611e-05,-2.9665260735961133e-05,-6.451202234572655e-06,0.9999999964644755,0.010516700504088053,0.004919009424917287,-0.0010615498089817912,0.0,0.0,0.0
1624180469994743824,155,1624180469994743824,0.0052986693751509665,0.007839465737608168,-0.0012332357453878745,-6.016467915987571e-05,-2.9465577202225926e-05,-9.63287720752628e-06,0.9999999977095658,0.0008844291731662027,0.0038887005084274158,0.001086045762635064,0.0,0.0,0.0
1624180470094652176,156,1624180470094652176,0.0041434587344637,0.0071647605590645265,-0.0012713898943167757,-7.177386783407026e-05,-2.5873428245055297e-05,-6.505859853312004e-05,0.9999999949731945,-0.003315435774008857,0.0008106442086525793,0.0001831917799625946,0.0,0.0,0.0
1624180470194627523,157,1624180470194627523,0.004748557616265174,0.0070146110449142264,-0.0015188351941126405,-8.895636769346028e-05,-2.653699248063746e-05,-2.4987310592503834e-05,0.9999999953790594,-0.0001398437726875183,0.0004500919650556605,-0.000981890726309075,0.0,0.0,0.0
1624180470294672489,158,1624180470294672489,0.006809874848811555,0.009153439759977572,-0.0013778645347317649,-8.356420308493675e-05,-2.6810452048574252e-05,-8.118794306549296e-05,0.9999999928533368,0.006264346934581983,0.009530541073649632,0.0008443818977549283,0.0,0.0,0.0
1624180470394711971,159,1624180470394711971,0.006255232677002129,0.008965777807209191,-0.0011488228254836648,-5.7620729166781887e-05,-2.0498916942432152e-05,-1.8559253579791283e-05,0.9999999979575663,0.0030017774778380575,0.005832454251241237,0.002761854963096446,0.0,0.0,0.0
1624180470494738340,160,1624180470494738340,0.005383021160254299,0.0069697179263375824,-0.001113882281496803,-6.831056603147725e-05,-1.2205284077120238e-05,-1.9707567284230275e-05,0.9999999973981206,-0.0008040309628351244,-0.0013323200058645646,0.0022148744894928555,0.0,0.0,0.0
1624180470594682217,161,1624180470594682217,0.005703098214192818,0.006922854866819958,-0.0008744816932751737,-0.00011084995800606563,3.685293046862306e-06,0.00013477147720243555,0.9999999847676428,0.001431954953996151,0.0002426752616646417,0.00197811360629135,0.0,0.0,0.0
1624180470694648027,162,1624180470694648027,0.007403889341810928,0.006929090449757648,-0.0004759993044741512,-4.467848484730038e-05,1.0796184375835435e-05,-0.00030466501700650615,0.999999952533216,0.006425272974400154,-0.003712411232348152,0.0035699620089597287,0.0,0.0,0.0
1624180470794621944,163,1624180470794621944,0.007023597492306633,0.007671489574473708,-0.0005874945951959979,-3.7458609504891e-05,-2.64112850174139e-06,-4.979980960416134e-05,0.9999999980548933,0.003737181888850763,0.005838447440885711,0.0013390096368704144,0.0,0.0,0.0
1624180470894630909,164,1624180470894630909,0.007496798694429481,0.00978677783170961,-0.0008140689528083965,-5.740008114363229e-05,-2.0706146564078976e-05,0.00011946190018610354,0.9999999910026353,0.003682298164087288,0.011320429395559651,-0.0024881024959534414,0.0,0.0,0.0
1624180470994809151,165,1624180470994809151,0.007637468896127721,0.008726706131340594,-0.00042657893846010964,-2.8378788375732032e-05,2.0160903676547682e-05,-0.00027262900245597356,0.999999962230768,0.0037768682521137293,0.00043888390421917625,0.002451858785583538,0.0,0.0,0.0
1624180471094557762,166,1624180471094557762,0.006417654797114451,0.010110507502030524,-0.0003955557923506985,-3.466037848456102e-05,1.8606020530988322e-06,-6.025474527099554e-05,0.9999999975822448,-0.00032200770834848926,0.009816915528406179,0.0019788097650939437,0.0,0.0,0.0
1624180471194557905,167,1624180471194557905,0.0059083101694887286,0.009333796956201162,-0.0009826077529391816,-5.798751008328593e-05,-1.7986562151330968e-05,8.448211145729147e-05,0.9999999945883161,-0.002265324788930974,0.003726262286223343,-0.003913960152378694,0.0,0.0,0.0
1624180471294677496,168,1624180471294677496,0.007741431819339467,0.008535724626091399,-0.0005883171202475445,-3.175227927300337e-05,-1.0151117460854294e-05,-0.00014002206278616863,0.9999999896412483,0.004298865833167457,-0.002847264264324188,0.0023402456637097056,0.0,0.0,0.0
1624180471394744158,169,1624180471394744158,0.0092254466998517,0.007582835933327141,-0.00025794002788546527,-2.7999984780841187e-05,4.471149272522351e-05,-1.919637941356663e-05,0.9999999984241551,0.008801849490921877,-0.0008147865782170622,0.00403685661105513,0.0,0.0,0.0
1624180471494724274,170,1624180471494724274,0.0071915309842052804,0.006753834523023123,-0.0009214895424795937,-9.387406499452779e-05,-5.982149463938426e-08,0.0001250828388239862,0.9999999877709342,0.00045196831459022244,-0.002498554448330076,-0.004233909507013719,0.0,0.0,0.0
1624180471594670057,171,1624180471594670057,0.006954788794848068,0.005399864163325436,-0.00022719808300387815,5.496221478741757e-06,-3.4347181092397596e-05,-0.00015121854574802373,0.9999999879614707,-0.0013092263137936414,-0.009286989567846314,0.003509441198999477,0.0,0.0,0.0
1624180471694608450,172,1624180471694608450,0.007658868012818133,0.005287073222350436,0.0002990706650404825,9.064606585199008e-07,-6.670029259064053e-05,-9.368389364777867e-05,0.9999999933867519,0.0008992488484045244,-0.004022740556412786,0.005949561844423563,0.0,0.0,0.0
1624180471794616938,173,1624180471794616938,0.005716361236902585,0.0024500452766386257,0.00041526940994825683,4.089106320456927e-05,-9.614400059854208e-05,1.86682934988751e-05,0.9999999943678367,-0.0056421398199873385,-0.011130382814347875,0.0005740453214311547,0.0,0.0,0.0
1624180471894506931,174,1624180471894506931,0.00626425921839814,0.0018977998987136924,0.0014499719735115819,0.00013446743322847467,-1.1039710927539478e-05,-0.00017713890691733162,0.9999999752091834,-0.0024061279158307863,-0.010186064975393455,0.008640383746641417,0.0,0.0,0.0
1624180471994568348,175,1624180471994568348,0.005860903058418382,0.004913073427562138,0.0012581089208221817,1.1837391360481027e-05,2.1721871600087763e-05,-5.214011358592408e-05,0.9999999983346854,-0.002323023504872713,0.006340516758589324,0.004207233233678762,0.0,0.0,0.0
1624180472094589949,176,1624180472094589949,0.003614174366120529,0.007989809379976663,0.0002030614515637358,-2.761515159668632e-05,-6.52958920747195e-05,4.9471276593354545e-05,0.9999999962631843,-0.009269317387420657,0.017162025418317666,-0.009767579157037519,0.0,0.0,0.0
1624180472194611788,177,1624180472194611788,0.003613147051870296,0.007539090903116384,0.0010808332843672771,0.00012698463818600533,-4.7221136502099325e-05,-9.163283144067676e-05,0.9999999866242071,-0.004972872069269786,0.006754410707434937,0.002152520384850613,0.0,0.0,0.0
1624180472294678926,178,1624180472294678926,0.003670523242809145,0.009286064773722898,0.001467975973441719,0.00010006838632215968,2.371417931566533e-05,-3.0623592454278705e-05,0.9999999942430375,-0.0014253361643557939,0.01448537161472344,0.00589907117174111,0.0,0.0,0.0
1624180472394688129,179,1624180472394688129,0.0010077788836479864,0.007805304294978991,0.001513078523099605,0.00014868239276870024,-9.635428790419616e-06,-5.271965485191409e-05,0.9999999875106329,-0.008309612411781069,-0.005705828625071207,0.007210880248909704,0.0,0.0,0.0
1624180472494854212,180,1624180472494854212,-0.003600095050311542,0.006923856341343485,0.0009140905204444682,-2.0542052780212527e-05,8.73760426392809e-06,-4.684942941910896e-06,0.9999999997398266,-0.02088216995729443,0.007410467752830643,-0.0039148776122369415,0.0,0.0,0.0
1624180472594747305,181,1624180472594747305,-0.005765615056550583,0.003826549036968058,0.0027792120684865715,0.0002816272496692512,0.00011146525751087637,-0.00012884274331866183,0.9999999458305288,-0.018042273722024237,-0.022370310284100352,0.013244139632795113,0.0,0.0,0.0
1624180472694816828,182,1624180472694816828,-0.00786993872518693,0.0026132043344143942,0.00239931385607953,0.0003170509772822844,8.185425571334051e-06,3.561354799433646e-05,0.9999999490716366,-0.02173058961214776,-0.011123620508857499,0.003530925921472498,0.0,0.0,0.0
1624180472794902802,183,1624180472794902802,-0.009456209049092655,0.0018200585887300468,0.001884218311072567,0.0001767248572632573,-4.2526863946946555e-05,-3.417114191381249e-05,0.9999999828960233,-0.014085608701336318,-0.00022651516918579303,-0.001331281720945353,0.0,0.0,0.0
1624180472894633293,184,1624180472894633293,-0.00659269490690771,0.0028017301010911204,0.0027483150910170323,0.00028290951829022354,-0.0002166039930982068,-9.85072451217672e-05,0.9999999316705778,0.006520034165749717,-0.0015377993089886778,0.004743640428116825,0.0,0.0,0.0
1624180472994539976,185,1624180472994539976,-0.001257011900656486,0.004799918002228851,0.0012526729835730139,7.417159301017785e-05,-0.0001833658633676623,-3.6076319268245683e-06,0.999999980431221,0.017078851408942827,0.002856055546717507,-0.010313212712439096,0.0,0.0,0.0
1624180473094511271,186,1624180473094511271,0.003308379114650426,0.0033923373539982327,0.0011126759730782567,0.00036719077873807873,0.0001238537283011141,-0.00011636168351606282,0.99999991814553,0.02375612515004868,-0.00411695372054427,-0.0036003847211225903,0.0,0.0,0.0
1624180473194441557,187,1624180473194441557,0.0022869247951437066,0.004338980491372626,-0.0006465484795726195,0.00021095491828744068,-1.5373591522192495e-05,-9.209918734982687e-05,0.9999999733896683,0.016043296571766834,0.006553642125044257,-0.016399327430068365,0.0,0.0,0.0
1624180473294432640,188,1624180473294432640,0.003937943684200493,0.0050198288264874545,0.0014696339952364815,0.0002389668988035747,9.34272121993513e-05,-5.60998659785833e-05,0.9999999655094516,0.01620961200083583,0.006000062177449273,0.011225530915377596,0.0,0.0,0.0
1624180473394543648,189,1624180473394543648,0.003751180993379048,0.005376828228271911,-0.00126993571433316,2.5027059822574018e-05,0.0001472162578133891,-0.00010915769757669775,0.9999999828927688,0.01033522118860791,-0.0017068112968291749,-0.020630810690681553,0.0,0.0,0.0
1624180473494686842,190,1624180473494686842,0.0021875892956004575,0.0043764467512081365,-0.0007136272265797989,0.0002480532548068005,-8.229931466062058e-05,-6.368746203495347e-05,0.9999999638201157,0.00256482453203594,-0.003636629157673019,-0.0009746354614618025,0.0,0.0,0.0
1624180473594737053,191,1624180473594737053,-0.000557176286653417,0.0055110854378473675,-0.0011944250874601988,0.0002146449858590823,-8.577902445165216e-05,2.5395423391864472e-05,0.9999999729622399,-0.0031208691225635453,0.008858811339805553,-0.0015054281350383408,0.0,0.0,0.0
1624180473694794893,192,1624180473694794893,-0.0002728074370635252,0.006151389766519965,-0.0017704608481883826,2.6157399827820002e-05,-0.00013646771079856772,-0.00011149281438352712,0.9999999841308129,0.0011181835065543929,0.010254245570116055,-0.00728929007186917,0.0,0.0,0.0
1624180473794659853,193,1624180473794659853,0.0026167521901861606,0.005881472739515263,0.0013521667475919635,0.0002303490323281321,-4.547345056800429e-05,-7.73698302950892e-05,0.999999969442658,0.006288174530777119,0.002989992739917783,0.019688047809994235,0.0,0.0,0.0
1624180473894625187,194,1624180473894625187,0.004217623624205991,0.003138616013368092,0.0011999154042119332,0.00040079484889136616,6.665688440074076e-05,-2.4817150820689457e-05,0.9999999171521848,0.011191066036349388,-0.012049501853485429,-0.0005343069668634366,0.0,0.0,0.0
1624180473994534492,195,1624180473994534492,0.0038529044099107007,0.0017933106726924105,0.002057206403322751,0.0004963744748184857,6.0182347128178125e-05,-4.217033361122599e-05,0.9999998741060153,0.0056612081664897335,-0.008756974631814197,0.006402046120842974,0.0,0.0,0.0
1624180474094547272,196,1624180474094547272,0.0007097388340954812,0.002981878820478113,0.002218159686313368,0.00046925250660057147,0.0004738945281084106,6.797606061070272e-05,0.9999997753025921,-0.013725670493107796,0.0025441952464012535,-0.0043386930691972254,0.0,0.0,0.0
1624180474194500923,197,1624180474194500923,-0.00582947382287897,0.0037981385696298467,-0.00591661670658617,2.8961012117795394e-05,0.00046560991370194003,2.321525789616376e-05,0.9999998909148131,-0.029837946478492864,0.0008147535564866424,-0.06853761670501846,0.0,0.0,0.0
1624180474294462919,198,1624180474294462919,-0.01790351682738654,0.005155460798099031,-0.012604282852585802,-0.0006144836526101297,0.00043595041673049093,-1.4334889603044138e-06,0.9999997161774288,-0.05924640486596147,0.001843982607634683,-0.07777105672621187,0.0,0.0,0.0
1624180474394473553,199,1624180474394473553,-0.028130296409961158,0.0004408857501212142,-0.01241677105022492,-1.67309963879525e-05,-2.5759806268337954e-05,0.00022307312353860267,0.9999999746474026,-0.06516817416772208,-0.02500276931065829,-0.08522195323487912,0.0,0.0,0.0
1624180474494498014,200,1624180474494498014,-0.02804376049375956,-0.0057606518950143355,-0.004165166640640023,0.0009659770585326312,0.001368509667228603,0.0005335642436741899,0.9999984546881702,-0.01981493187618737,-0.0561964461889746,-0.09274164024357978,0.0,0.0,0.0
1624180474594625950,201,1624180474594625950,-0.03926198190095202,-0.002353576476298811,-0.014878745701668122,0.001697307988133923,0.0014247466585966373,0.00046714827278249236,0.9999974355041916,-0.04011335574059251,-0.029324394012193805,-0.22315425265584687,0.0,0.0,0.0
1624180474694493771,202,1624180474694493771,-0.06180099958192549,-0.004209232379323524,-0.07236304389105287,0.0035364339745876518,0.0011138771016692879,0.0004930928224265324,0.9999930048614988,-0.0948793044181055,-0.044439014525703806,-0.624885864710142,0.0,0.0,0.0
1624180474794206381,203,1624180474794206381,-0.0687219846261569,-0.005711156051666408,-0.19751882456779887,0.004732592545934569,0.0007199263507343639,0.0004242953531841621,0.9999884520569284,-0.06571917817803155,-0.03656182933614671,-1.217130564446496,0.0,0.0,0.0
1624180474894230604,204,1624180474894230604,-0.08272842140720758,0.002328218300526216,-0.3486814546411474,0.006363656309662943,0.0008503397079077147,0.0008389774189300361,0.9999790382390815,-0.08200646455333697,0.024814826696288733,-1.5798700044500478,0.0,0.0,0.0
1624180474994327068,205,1624180474994327068,-0.1116371502299012,0.005957058064329567,-0.5006428521833964,0.006879537801485354,-0.0007114830704904952,0.001419640818357652,0.9999750748750386,-0.1676873289098555,0.03143925614389391,-1.6933534684069373,0.0,0.0,0.0
1624180475094676495,206,1624180475094676495,-0.11218141774494127,-0.009534909774843905,-0.6424455777820465,0.007285083178299251,-0.002690524446431555,0.0011942855904782095,0.9999691306851081,-0.07380507519507343,-0.0856367827639751,-1.6367841906716363,0.0,0.0,0.0
1624180475193953276,207,1624180475193953276,-0.10356873176547185,-0.035246249726187236,-0.7697096732494936,0.008414431309945597,-0.003016987416874296,0.0006183825749313491,0.9999598555619924,0.028064372145453348,-0.19621022094135532,-1.5261413049779926,0.0,0.0,0.0
1624180475294095755,208,1624180475294095755,-0.09346081758605355,-0.04424243490566251,-0.9237822148831227,0.007407592677505379,-0.004998187234530492,0.0002605701495749798,0.9999600381006242,0.08820045251399117,-0.1389790375215813,-1.5757847554513593,0.0,0.0,0.0
1624180475393530846,209,1624180475393530846,-0.0953142403602031,-0.03924039422774472,-1.1254728722263245,0.00629686573102575,-0.007779011083436214,0.00013169875327822503,0.9999499083073503,0.06289001147156464,-0.026072331386980466,-1.866680891569219,0.0,0.0,0.0
1624180475492727995,210,1624180475492727995,-0.0976926573183026,-0.04149679930880111,-1.320917814771102,0.005879899882639216,-0.00907694014145153,0.00011707327073857797,0.9999415094038244,0.049925104349594705,-0.031493619915772444,-1.925628896400182,0.0,0.0,0.0
1624180475592705250,211,1624180475592705250,-0.08411592472201135,-0.0436579764517071,-1.5035884471841816,0.005435643728290605,-0.008703469591957358,-0.00022512810330281487,0.9999473249684553,0.12135330692205978,-0.033923744676216845,-1.842218955100927,0.0,0.0,0.0
1624180475694156885,212,1624180475694156885,-0.0807067332431868,-0.04876562428149269,-1.680727058407222,0.00666129351238102,-0.008630627208216187,-0.00017944011311840302,0.9999405518549055,0.10205327251287391,-0.05056353304973936,-1.7394257497383,0.0,0.0,0.0
1624180475793012857,213,1624180475793012857,-0.07368824063905946,-0.045534167338103226,-1.8486029976492653,0.009911381103559932,-0.008517900889672076,4.425330792731727e-05,0.9999146003187525,0.10869509667209645,-0.004678084488669174,-1.671211801500973,0.0,0.0,0.0
1624180475894183397,214,1624180475894183397,-0.07827335175687278,-0.04940677554895475,-2.0037722858068596,0.01431887370466917,-0.007552968256519624,-0.00016791280214558147,0.9998689385772255,0.04989507279215655,-0.02787883292800566,-1.5476249386097136,0.0,0.0,0.0
1624180475994526625,215,1624180475994526625,-0.08350122738778223,-0.04632762659526959,-2.1549733835559697,0.01825862236067002,-0.005084687921112325,0.00012317661240576324,0.9998203606076789,0.013989486659581635,0.023734052803937096,-1.4715184860565154,0.0,0.0,0.0
1624180476093460560,216,1624180476093460560,-0.08529843902365723,-0.04107622192466891,-2.3015200914087908,0.02212671048778359,-0.002877371432104511,0.00022945951838488198,0.9997510073837736,0.0136764571489379,0.05670106111398876,-1.4431665154934836,0.0,0.0,0.0
