%time,field.header.seq,field.header.stamp,field.pose.pose.position.x,field.pose.pose.position.y,field.pose.pose.position.z,field.pose.pose.orientation.x,field.pose.pose.orientation.y,field.pose.pose.orientation.z,field.pose.pose.orientation.w,field.twist.twist.linear.x,field.twist.twist.linear.y,field.twist.twist.linear.z,field.twist.twist.angular.x,field.twist.twist.angular.y,field.twist.twist.angular.z
1624181089641864300,0,1624181089641864300,-0.00045624649635720273,-0.0030401846588243675,0.0008801709179822934,5.227869107813398e-05,8.938224086503845e-05,0.00011768522987149565,0.9999999877139708,-0.0006693950104424449,-0.0015962592133215339,-0.0011784445704852442,0.0,0.0,0.0
1624181089741808414,1,1624181089741808414,0.0030304464968365736,0.0008870203231716031,2.0852930873959962e-05,1.2679340859717327e-05,3.242023366262512e-05,7.023564585021082e-06,0.999999999369417,0.035120275234607465,0.040800836444280654,-0.008803966953425916,0.0,0.0,0.0
1624181089841888189,2,1624181089841888189,-0.00014013782267662182,-0.0016791563108407156,0.00014758657248256684,2.240795077016104e-05,4.940402747405686e-05,9.157169674054492e-05,0.9999999943358754,-0.007936796217572845,-0.0005387061059728901,-0.0026108051388911173,0.0,0.0,0.0
1624181089941923857,3,1624181089941923857,-0.0035272271046924357,-0.0005103098932730662,0.0001827692915241215,3.055099777046916e-05,2.318336875798184e-05,9.784353575004332e-05,0.9999999944779061,-0.022435628152833967,0.006053447731662635,-0.0008423151742747116,0.0,0.0,0.0
1624181090041965723,4,1624181090041965723,-0.003927468714539521,-0.004405719177790451,0.00010275446060681088,2.7305582471523566e-05,1.0797547241452439e-05,0.00021231427020500492,0.9999999770302349,-0.013412568827277012,-0.01447262547922145,-0.00036713652191079096,0.0,0.0,0.0
1624181090141970873,5,1624181090141970873,-0.003677218192997203,-0.0026896189305548545,-1.2168793434732476e-05,1.0901216934272691e-05,3.2779941444754774e-05,0.00012071478953759082,0.9999999921172903,-0.005351698891758169,-0.0003703067433163919,-0.000917668389522121,0.0,0.0,0.0
1624181090246309996,6,1624181090246309996,-0.001231924450803299,-0.002740288747658009,0.00015615229007532756,1.4590798120658423e-05,3.160790452703461e-05,0.00013143229257237912,0.9999999907568015,0.011709459567865354,-0.00025935439245522115,0.0010236219864372858,0.0,0.0,0.0
1624181090346303225,7,1624181090346303225,-0.0019959632487770535,-0.003179805909110998,0.00029280172388566515,1.861186290765155e-05,1.7041594496456195e-05,0.0001488474181728911,0.9999999886038151,0.004738897914634553,-0.0022004389366776216,0.0008470443516828966,0.0,0.0,0.0
1624181090446073294,8,1624181090446073294,-0.0015651160046314062,-0.001611185120780719,0.00044833378319298115,1.3576130469834245e-05,3.0966981766371136e-05,6.527235853158544e-05,0.9999999972981283,0.005925014750594171,0.0062442614091586185,0.00017500616375995895,0.0,0.0,0.0
1624181090541926384,9,1624181090541926384,0.002304571956980098,-0.0015287518081873726,1.6913290099461785e-06,1.851218094035209e-05,4.2795540229719445e-05,8.936151548820338e-05,0.9999999949201817,0.02300580026663676,0.005230851663285286,-0.002871581344014787,0.0,0.0,0.0
1624181090641856432,10,1624181090641856432,-0.0009755304107233532,-0.0009225041937385236,0.0004680369787577866,2.4633688280455924e-05,5.409474294810581e-05,9.233440852005452e-05,0.9999999939706495,-0.0003506048397277431,0.006576832386540972,0.002000060370880148,0.0,0.0,0.0
1624181090741862535,11,1624181090741862535,-0.0014021523375878522,-0.000549639171105913,0.0004646404910675469,1.7932353283816454e-05,2.204455177872532e-05,0.00014386218553550173,0.9999999892480711,-0.0008134078099927594,0.00629111710012508,0.0005456404459482861,0.0,0.0,0.0
1624181090845962524,12,1624181090845962524,-5.741581917794602e-06,-0.0003626142467791225,0.0005989314628012709,1.75611767924771e-05,5.5013750314680006e-05,0.00011491079828546822,0.9999999917303009,0.00613004252381088,0.0048711558843755115,0.0010834747455480444,0.0,0.0,0.0
1624181090941861153,13,1624181090941861153,-0.00016407395313938088,-0.0005760047398667177,0.0005928187092875338,2.2878085545689107e-05,2.573760860539585e-05,0.0001134149285004704,0.999999992975611,0.0032275541426742905,0.0027863028131103456,2.788429456728153e-05,0.0,0.0,0.0
1624181091041886806,14,1624181091041886806,0.0005637038851211668,-0.002782238256935531,0.00045037193796901965,2.5998149111762286e-05,6.276640789277597e-05,0.00014445997311334657,0.9999999872578951,0.005899982789762967,-0.006475579281370068,-0.0006475939068604291,0.0,0.0,0.0
1624181091141927719,15,1624181091141927719,-0.001100659042684001,-0.0015273223326768741,0.00042568748861311894,1.6966188840055612e-05,5.0322400602925016e-05,0.00011535777197474585,0.999999991936194,-0.0027640348575570916,0.0019771305419523117,-0.00028621645100268355,0.0,0.0,0.0
1624181091241940737,16,1624181091241940737,-0.00112917408920977,-0.0007478187997461788,0.00015127640878372821,1.2127070590072239e-05,2.3266650362034653e-06,7.075961489730377e-05,0.9999999974202988,-0.0011780590906794888,0.005229126522719663,-0.00212408884343093,0.0,0.0,0.0
1624181091345991611,17,1624181091345991611,-0.0009485311882818414,-0.0021249888986561057,0.00030914834490367303,2.4971940123119254e-05,3.7879332157333994e-05,0.0001457736226386815,0.9999999883458036,0.0009927464250802241,-0.0018997522452176953,-0.0004540221334732165,0.0,0.0,0.0
1624181091446188927,18,1624181091446188927,-0.0005707602158745733,-0.0015297978154954629,0.00021359699634561165,1.3141129897626906e-05,3.829023119647136e-05,0.00011133574827122405,0.9999999929827588,0.002757511249908467,0.0013571230352378227,-0.0013679716135033726,0.0,0.0,0.0
1624181091546207666,19,1624181091546207666,-0.00046565696293674364,-0.002907784671087029,0.000292386743491465,2.440648125556255e-05,5.412425227811766e-05,0.0001277840041762611,0.9999999900730673,0.00285927837474512,-0.004051437769126082,-0.0002662308808582262,0.0,0.0,0.0
1624181091641861200,20,1624181091641861200,-0.0004801281628754582,-0.002861058264951199,0.000155474567570667,1.420385513821059e-05,1.625157089529165e-05,9.855462603601767e-05,0.9999999949105604,0.00214292885554838,-0.0012887061786760923,-0.0011345045313880789,0.0,0.0,0.0
1624181091741859674,21,1624181091741859674,0.0005314390065399297,-0.004827630060923146,-8.810340501946498e-05,2.602696931215388e-05,-1.3995852432641043e-06,0.00010743075841458417,0.9999999938896348,0.006051596897198438,-0.008466618306096713,-0.00241819008060042,0.0,0.0,0.0
1624181091846911669,22,1624181091846911669,0.00015466617674324507,-0.0038129381340691413,0.00025957377240381184,-2.8099151140131933e-06,4.404154220809602e-05,0.00017219650595315475,0.9999999842004044,0.0026647855499595495,-0.0004887552024160201,0.00041386244246089873,0.0,0.0,0.0
1624181091941823721,23,1624181091941823721,3.9225781209296665e-05,-0.0046352735011495425,9.362105644373844e-05,1.8864614516178284e-05,3.309298546003786e-05,0.00010040712451651464,0.9999999942336937,0.0014014862901020537,-0.002839041750791082,-0.0014384530094567899,0.0,0.0,0.0
1624181092041810989,24,1624181092041810989,-0.0007864839856933385,-0.0036322664287030603,0.00028304227868980485,1.7553694295643333e-05,2.9539678606676104e-05,8.224985134528345e-05,0.9999999960271169,-0.0018219371485704641,0.002535080364851434,0.001066886052372199,0.0,0.0,0.0
1624181092141865730,25,1624181092141865730,-0.0018890086410490703,-0.004278929614995152,0.00020365554203236077,2.872390251634245e-05,3.5289408123134985e-05,7.84176090147004e-05,0.9999999958901349,-0.0050399730590828945,-0.0005617784118382542,-0.0006840427335063561,0.0,0.0,0.0
1624181092241871119,26,1624181092241871119,-0.002057104862514181,-0.0029842178463780713,0.00039441398979841335,2.1111016541624697e-05,1.7087937021768195e-05,0.00011061422653248164,0.9999999935134077,-0.0035695113516453214,0.005487540683662329,0.0005082794902205184,0.0,0.0,0.0
1624181092341883183,27,1624181092341883183,-0.00046718739373492887,-0.00352807526897086,0.0006267617438044213,2.3504671790738e-05,5.502457011288185e-05,6.361948590597103e-05,0.9999999961861915,0.004798053961082956,0.0016069219865689822,0.0011497093175212153,0.0,0.0,0.0
1624181092441962957,28,1624181092441962957,-0.0005514677668479074,-0.0033859660485888667,0.000662275053182163,3.277430692556444e-05,5.372102451717942e-05,8.607771597479422e-05,0.9999999943152589,0.0027997843360392715,0.0017897183929171004,0.00015177338390655868,0.0,0.0,0.0
1624181092541948795,29,1624181092541948795,-0.00033219922507002434,-0.0026072563781493413,0.0003655881723664523,2.8089323059457954e-05,3.125229721066978e-05,9.935794763036847e-05,0.999999994181138,0.0030631861842952664,0.004319313643366558,-0.0023553024461556156,0.0,0.0,0.0
1624181092646174431,30,1624181092646174431,-0.0014119501451001965,-0.002240556112140614,0.0003924131750305635,1.855392019780124e-05,3.5533842761575925e-05,7.874960689528282e-05,0.9999999960957953,-0.0017502042388758002,0.004183316896039731,-0.0010152660432795992,0.0,0.0,0.0
1624181092741868496,31,1624181092741868496,-0.002272141497300673,-0.0016988355155347157,0.0002690738305725456,1.6683978202654186e-05,1.8852399202747385e-05,9.968385304386225e-05,0.9999999947146767,-0.0041128612211890955,0.005732520612238182,-0.001409724831874423,0.0,0.0,0.0
1624181092841866493,32,1624181092841866493,-0.00021152753646920563,-0.004947165839711169,0.0003335757993716278,3.185098785407141e-05,4.240925419587312e-05,0.00019824506116287102,0.9999999789429285,0.006600149860407797,-0.009142602786829757,-3.9364666907765406e-05,0.0,0.0,0.0
1624181092941856623,33,1624181092941856623,0.00016913161288595617,-0.0038956120490986506,0.00034190892378042464,2.1423899593682747e-05,3.050601053709593e-05,8.263269332750129e-05,0.9999999958911148,0.00582062557157326,-0.0008098130770637941,-0.0005172494621827404,0.0,0.0,0.0
1624181093041825056,34,1624181093041825056,0.0007446790358416901,-0.003664804550358027,0.00019561064328818567,1.9808346681575636e-05,4.03220497391849e-05,4.297226633076554e-05,0.999999998067569,0.006653505854607805,0.0013769767402525427,-0.0015836440078150652,0.0,0.0,0.0
1624181093141815901,35,1624181093141815901,-0.0013295642028188757,-7.557982407423724e-05,0.0003392992996439159,1.731995877640906e-05,2.162402021312135e-05,0.00010093792407747963,0.9999999945219744,-0.00421580981649452,0.014570066207144352,-0.0002557139417523489,0.0,0.0,0.0
1624181093241815567,36,1624181093241815567,-0.002964426821234796,0.002064216804742821,0.0005278495174172815,6.657917130580782e-06,2.412025361501906e-05,0.0002711357557996806,0.999999962929639,-0.009337103981757766,0.01793699824310143,0.0004634780387713992,0.0,0.0,0.0
1624181093341831207,37,1624181093341831207,-0.002453532541885243,0.002605822446061601,0.0008226530373658695,2.2557715048012667e-05,4.902296667582161e-05,0.00014823969671464031,0.9999999875564409,-0.0030586329722376328,0.014032931765346104,0.001649650890673235,0.0,0.0,0.0
1624181093441785574,38,1624181093441785574,-0.003208525954378278,0.0031430971749027755,0.0006839010649607363,1.9386109277778155e-05,3.999848521556355e-05,8.537405422029819e-05,0.9999999953677811,-0.0048705760928610285,0.011647115901075592,-0.000364502714308781,0.0,0.0,0.0
1624181093546102285,39,1624181093546102285,-3.8068844455950176e-05,0.00017734292339861618,0.0006045266520682355,2.263822402918258e-05,4.885144225322075e-05,0.00011037705335040328,0.9999999924589722,0.010265657429539003,-0.0036377465108541705,-0.0005111549643925164,0.0,0.0,0.0
1624181093645858765,40,1624181093645858765,0.0016026574186609609,-0.0025596781186799696,0.00021745974703006523,1.9892076869942115e-05,4.7856989877523615e-05,9.656010684789816e-05,0.9999999939950747,0.01348709821373724,-0.012419584267542225,-0.0032038028706301,0.0,0.0,0.0
1624181093741732836,41,1624181093741732836,0.0024653363715807,-0.0036541245083629545,4.6488531546785346e-05,2.87360859819347e-05,4.49518607244768e-05,3.276917176647457e-05,0.9999999980398689,0.012183569485010383,-0.01142887923499124,-0.0029077580554693863,0.0,0.0,0.0
1624181093841770172,42,1624181093841770172,0.0023451614198314163,-0.003093574246982529,-0.00020618788954331508,1.7757833957019316e-05,3.686033049518121e-05,0.00010388252489530397,0.9999999937671925,0.00723663236797557,-0.003915547173712602,-0.0032588615375440826,0.0,0.0,0.0
1624181093941805124,43,1624181093941805124,0.003440726793661389,-0.004060002616068134,7.727542644489148e-05,3.37539418682219e-05,5.0204827455107636e-05,8.938625598333739e-05,0.9999999941751164,0.009106448259011838,-0.006210705462744788,0.0009605762223150855,0.0,0.0,0.0
1624181094041826963,44,1624181094041826963,0.0009650100667896637,-0.0030878975022363697,0.000211588977559449,1.8961246905178134e-05,3.613551124016552e-05,0.00011865410296544737,0.9999999921279439,-0.0040940740820717535,0.0005881069920960153,0.0007805645326219721,0.0,0.0,0.0
1624181094141840219,45,1624181094141840219,0.001189274081906811,-0.0022251793180133794,0.00018592594728535688,1.636340589970224e-05,3.438301818802599e-05,6.012770197131112e-05,0.9999999974673466,-0.0011751909908564108,0.0047302723682917484,-0.00020960528134100157,0.0,0.0,0.0
1624181094246155024,46,1624181094246155024,0.0009430911780589964,-0.002292825750220691,0.00022431206552274592,1.6481080340295892e-05,4.636709824743886e-05,0.00010268018888670845,0.9999999935176154,-0.0011614154837120017,0.0030973943941386803,-0.0005480563405652961,0.0,0.0,0.0
1624181094341860294,47,1624181094341860294,0.0028628603479244757,-0.0016976516441834161,2.943882015567486e-05,1.914267697486939e-05,4.912265600091489e-05,0.00014232454348686206,0.9999999884821161,0.006737892068835049,0.005405139173442649,-0.0014532820607300293,0.0,0.0,0.0
1624181094441907883,48,1624181094441907883,0.002753962110072077,-0.0036148403194440995,-4.965952634361724e-05,1.7741895529767446e-05,3.0166398991020018e-05,0.00011171159365717893,0.9999999931478591,0.00464672470775357,-0.0027645121415835966,-0.0014298555690582403,0.0,0.0,0.0
1624181094541847944,49,1624181094541847944,0.002541966926771219,-0.0020391107640100286,0.00010873397835035619,2.328419349017031e-05,4.426482882560929e-05,0.00012045600715178185,0.9999999914944026,0.002185955911419459,0.004885719419222018,0.0005274967256123707,0.0,0.0,0.0
1624181094641800642,50,1624181094641800642,0.001616401788917481,-0.0005576460374974266,-1.6894018151011684e-05,1.3306379207384622e-05,3.8102375726521695e-05,0.00013182727632884714,0.9999999904963507,-0.0023845712755546024,0.009974717997780201,-0.0010882465215943397,0.0,0.0,0.0
1624181094745957613,51,1624181094745957613,0.0007395313404498876,0.0007926459135374119,0.0004356375360341643,2.6841793490359078e-05,6.706447334525104e-05,0.0001547536435822309,0.9999999854165833,-0.003877488572165843,0.011271964769005102,0.0020949883712924537,0.0,0.0,0.0
1624181094841848850,52,1624181094841848850,0.0015350722488790929,0.0013618558520806256,0.0004610205233603755,1.9213198566818638e-05,4.2461308010607077e-05,0.00010302820107398905,0.9999999936065314,0.001322899451683313,0.010004207041890607,0.0007369873382066406,0.0,0.0,0.0
1624181094945905924,53,1624181094945905924,0.0006252811698499148,0.0007372549802355859,0.0003656753702566873,1.7114022970476042e-05,4.964127924881667e-05,0.00011545310662353644,0.9999999919567077,-0.002220254685477655,0.004406735968223822,-0.0014724898889350805,0.0,0.0,0.0
1624181095041765928,54,1624181095041765928,0.003012351066500357,-0.0001503501822076008,4.987405841308541e-05,1.292216310407394e-05,3.6382630844741454e-05,0.00015097283603153388,0.999999987858253,0.008567815429491192,0.00013720770342825778,-0.002650789758758239,0.0,0.0,0.0
1624181095141778469,55,1624181095141778469,0.004359273013159511,-0.003094632380170552,-6.42296252007541e-05,2.2538381308462513e-05,4.305247999745314e-05,0.00014680989287595486,0.9999999880426704,0.010924596102859984,-0.010081744988224702,-0.001957021959863017,0.0,0.0,0.0
1624181095241764069,56,1624181095241764069,0.0033700537726137846,-0.004207158823102025,-1.0189126095559145e-06,2.4945629812841436e-05,4.459439353608277e-05,0.00012016923898322178,0.9999999914741952,0.003111321725775969,-0.009767405084865241,-0.0010567655734564914,0.0,0.0,0.0
1624181095341771126,57,1624181095341771126,0.00255401571767341,-0.00247546238020098,3.991442439972326e-05,1.9931687406941657e-05,4.20174783258218e-05,0.00013630491547170768,0.9999999896291043,-0.000805911496699935,0.0008394864828832772,-0.0011139851369146424,0.0,0.0,0.0
1624181095446023941,58,1624181095446023941,0.00251087121073804,-0.0046279203112831605,0.000375374731060557,2.670729253832241e-05,5.079813557817777e-05,0.00010795194003436491,0.9999999925263139,0.0004504728254245793,-0.007499289828526932,0.001550802691920905,0.0,0.0,0.0
1624181095545907974,59,1624181095545907974,0.004354880383492054,-0.006983277209234393,0.0004851907754366896,4.0608111481185856e-05,6.407851809138181e-05,0.00010974147444095918,0.9999999911008565,0.007928067169182727,-0.013220598522883514,0.0008541062807007958,0.0,0.0,0.0
1624181095645911694,60,1624181095645911694,0.004396210257671769,-0.0064011788962491985,0.0005880631066085541,3.4023388067446913e-05,6.259057800901367e-05,9.512983493511497e-05,0.9999999929375607,0.005394666097418278,-0.005070260442195652,0.0006244127992467286,0.0,0.0,0.0
1624181095741859436,61,1624181095741859436,0.004449976339407619,-0.008197273321341307,0.00015642589545073808,1.9415970537486213e-05,4.9779537333332206e-05,0.00010799909214943456,0.9999999927405958,0.003953062569992966,-0.009293591670787738,-0.0027339322461895337,0.0,0.0,0.0
1624181095841820240,62,1624181095841820240,0.0034719389643045346,-0.00982951450653945,0.00025023858874015305,3.767674556108704e-05,5.420241790302324e-05,7.56499355043072e-05,0.9999999949598126,-0.0010029560223557702,-0.011558805530559943,-0.00046073067806056767,0.0,0.0,0.0
1624181095946119547,63,1624181095946119547,0.0033413448185323235,-0.014767043343166066,0.00046734706336201454,4.0740473747145144e-05,6.758873648393172e-05,6.436470432635491e-05,0.9999999948145695,-0.00032961007656134427,-0.024700238920089143,0.0015870825118798767,0.0,0.0,0.0
1624181096041739702,64,1624181096041739702,0.0024906975218202663,-0.013988858984996022,0.00035111641106427637,3.160930878489487e-05,3.430138900407066e-05,0.00014948072652147936,0.9999999877398782,-0.003843897760781226,-0.012244948230202094,-0.0012277883746504648,0.0,0.0,0.0
1624181096146017075,65,1624181096146017075,0.002757249971532621,-0.015881648093759297,0.0004196623536760297,4.428150541201368e-05,6.574500485075843e-05,0.00010873337145112664,0.9999999909468871,-0.0008771037049635174,-0.014241612038823858,-0.0006102736509848085,0.0,0.0,0.0
1624181096242319107,66,1624181096242319107,0.003042293754398292,-0.014215404601727129,0.00020224359876871493,3.597421326173275e-05,4.546429917255611e-05,8.746873167828423e-05,0.9999999944940257,0.0007107370639599503,-0.0027271055859915336,-0.0018011738823369668,0.0,0.0,0.0
1624181096346050024,67,1624181096346050024,0.002986136284461001,-0.012075832766110444,0.0001566315827311949,3.733058037762736e-05,4.9126557815093273e-05,8.441347440260153e-05,0.9999999945336754,0.00010264013735964501,0.007041555224436011,-0.001331788223711945,0.0,0.0,0.0
1624181096442752361,68,1624181096442752361,0.005464700620858358,-0.00833755976218184,0.0001189439925926521,1.6149436010408216e-05,5.5824951648183866e-05,0.00014354480174021448,0.9999999880088178,0.009941052162000915,0.019499735537735877,-0.0007823070519739085,0.0,0.0,0.0
1624181096542911768,69,1624181096542911768,0.0071251444634620595,-0.006756792506753521,0.00018833955402780423,2.2728577480841138e-05,5.859683861532662e-05,0.00010198098802103524,0.9999999928248384,0.012879747169752806,0.01915204241785976,0.00039781266988475443,0.0,0.0,0.0
1624181096643117666,70,1624181096643117666,0.005308339154788258,-0.0059344459291491465,0.0003645249579443812,2.187574752976605e-05,4.7743121971732e-05,0.00011084968794871976,0.9999999924771844,0.0016011765609201083,0.015697211877978873,0.000840214078042949,0.0,0.0,0.0
1624181096743335962,71,1624181096743335962,0.004912725446184684,-0.0031889389434512643,0.0002485411066539275,1.741661704856147e-05,4.8661420858642316e-05,8.477394178642865e-05,0.9999999950710421,-0.0004069099265668376,0.020824382793910575,-0.000817343520604488,0.0,0.0,0.0
1624181096843754768,72,1624181096843754768,0.002797123412509359,-0.003922043320532015,0.0002480112825612661,2.2826683209218313e-05,5.700661296386358e-05,0.00011399375534080147,0.9999999916172947,-0.008293649564804944,0.011247008152222288,-0.0010868168367839273,0.0,0.0,0.0
1624181096943920612,73,1624181096943920612,0.0022451473480474726,-0.004913154985217962,0.00011185954229257566,1.5307368299379768e-05,4.662420261857537e-05,0.00012272553391102874,0.999999991265144,-0.006867310915783275,0.003930881673705651,-0.0021084673407746704,0.0,0.0,0.0
1624181097044137478,74,1624181097044137478,0.0023321605015441532,-0.00429214879263893,0.00021230964521301408,2.4686610804972624e-05,5.638934862734939e-05,0.00011413877912807862,0.9999999915915639,-0.0036239005972763865,0.004943371121563175,-0.0008982629332763311,0.0,0.0,0.0
1624181097144276857,75,1624181097144276857,0.0012028900552411743,-0.0047034887875212665,0.00041842271164898047,2.1256409777537146e-05,4.06469290419197e-05,9.19462163762704e-05,0.9999999947209306,-0.006622025020172354,0.002217665159443488,0.0009223761398622799,0.0,0.0,0.0
1624181097244271517,76,1624181097244271517,-0.0008104156674434435,-0.00700451028128679,0.0004371195972967839,2.5633344238750247e-05,4.2736563552964106e-05,8.719681928047043e-05,0.9999999949566043,-0.01157861068641979,-0.006439114529121015,0.00027532805734414097,0.0,0.0,0.0
1624181097341769934,77,1624181097341769934,-0.0023054720840243116,-0.007478238437604349,0.0003110817603428978,2.1845595094246848e-05,2.760680179652528e-05,8.651720131791485e-05,0.9999999956376925,-0.0130225047737869,-0.005596286626978126,-0.0014297606653868524,0.0,0.0,0.0
1624181097444885731,78,1624181097444885731,-0.0017696235339562086,-0.0073840838027449725,0.00039772071811908027,2.6281101644928522e-05,4.617445029605272e-05,6.84841619717692e-05,0.9999999962435602,-0.00605560285270794,-0.0036798311626902486,0.0003341021650999443,0.0,0.0,0.0
1624181097545237303,79,1624181097545237303,0.001467721863090419,-0.013308544477089096,0.00021243202111445394,2.4220224069427497e-05,5.119997775602301e-05,0.00016948461503325294,0.9999999840334424,0.008897089733520519,-0.023370957768373526,-0.0010570653915455224,0.0,0.0,0.0
1624181097645415306,80,1624181097645415306,0.0006755297440423256,-0.015630037462527415,0.0003159580510716908,3.997842383052301e-05,5.062056386519206e-05,0.00011932020221904974,0.999999990800975,0.0025763373516589673,-0.023412545090113243,-0.00011242597189178285,0.0,0.0,0.0
1624181097745482683,81,1624181097745482683,-0.00026714263117192955,-0.02043535732296547,0.00037223517824914505,3.670903460578627e-05,4.4950576624043525e-05,9.933033400944113e-05,0.9999999933826765,-0.0024379660874102324,-0.032244894892634095,-5.311926369389916e-05,0.0,0.0,0.0
1624181097845405340,82,1624181097845405340,-0.002396980524573881,-0.021278596448816058,0.000274614082899612,4.285983738086425e-05,4.309532069999885e-05,6.118965831976037e-05,0.9999999962808149,-0.009687123460248515,-0.023624262486033266,-0.0014165935921343783,0.0,0.0,0.0
1624181097945559740,83,1624181097945559740,-0.0048395478173607984,-0.020363485034198957,0.00017073257924331997,3.6466097507272086e-05,3.724270351237916e-05,6.798833409933462e-05,0.9999999963303837,-0.015451771342696442,-0.011370524055073192,-0.0024954749571100836,0.0,0.0,0.0
1624181098045761347,84,1624181098045761347,-0.005430714880750388,-0.0195035509415961,0.00017619406209091586,3.096611907637493e-05,4.1407435721020135e-05,7.808134069036562e-05,0.999999995614902,-0.01155342209339908,-0.003292067980086623,-0.0011559381918980777,0.0,0.0,0.0
1624181098145994663,85,1624181098145994663,-0.0029799231262902064,-0.015182757996295397,0.0003651632934046256,2.6350461271388683e-05,2.1385608340427982e-05,2.92240069310965e-05,0.999999998997121,0.0031174275885318473,0.013720530211375271,0.0005438673141758628,0.0,0.0,0.0
1624181098246042490,86,1624181098246042490,-0.002699561360809432,-0.014382561271370727,0.0003214441975653801,3.3013960387928266e-05,3.676345133350418e-05,5.3881987786448924e-05,0.9999999973276167,0.0035654457642478083,0.011823942201490177,-0.0007419295307805962,0.0,0.0,0.0
1624181098346191168,87,1624181098346191168,-0.0011653547163251925,-0.012811998437084296,0.00039386189951067,3.6585672409389815e-05,5.852064346209559e-05,6.948607354015187e-05,0.9999999952042415,0.008476443093661391,0.014004446160286907,-0.0005280976347921691,0.0,0.0,0.0
1624181098446156263,88,1624181098446156263,0.0006341646371888205,-0.010901447595637506,0.00012810464438986477,2.3599335662093825e-05,5.316096928026499e-05,9.494380727095591e-05,0.9999999938013149,0.012405297356648734,0.01580801250222851,-0.0021176426587343655,0.0,0.0,0.0
1624181098541757822,89,1624181098541757822,0.00037005203860459934,-0.00917763980648915,0.00011655821987448859,2.789720322941697e-05,2.5714357093265e-05,9.72711051420952e-05,0.9999999945494118,0.006914594089620258,0.017576324183899542,-0.0006690845016004272,0.0,0.0,0.0
1624181098641721487,90,1624181098641721487,0.00019075448153781598,-0.007619830510958599,8.902637680666928e-05,1.6597824950634453e-05,2.984660835915908e-05,0.00011257398055222411,0.9999999930803819,0.003790318759101775,0.01767873579764405,-0.0007209181753205429,0.0,0.0,0.0
1624181098741755724,91,1624181098741755724,0.0004738338983274374,-0.004780474080759034,0.0002810243042352489,2.3550958000672155e-05,3.716847123940994e-05,0.00010611877042278908,0.9999999934013181,0.0035349526290186966,0.02206491916105742,0.0010941484548134307,0.0,0.0,0.0
1624181098841724873,92,1624181098841724873,0.00035192256556078094,-0.0034361330400076986,0.00031466392770339535,1.9517639056012325e-05,4.3361979730577543e-05,0.00013043667819262646,0.9999999903625227,0.002188851345510446,0.019290362299014773,-3.863427643299234e-05,0.0,0.0,0.0
1624181098941701651,93,1624181098941701651,0.0019192476659551571,-0.0012664522423230908,0.00029406195068509074,1.3716733548249396e-05,3.919039829082575e-05,0.00011535296245387252,0.9999999924848141,0.007629398472005637,0.0211840750157821,-0.00026432448397481034,0.0,0.0,0.0
1624181099045807362,94,1624181099045807362,0.004831199829335769,0.004147568937630243,0.0004424433422210442,1.2513628045326513e-05,5.396297043730462e-05,0.00015133276156333714,0.9999999870148861,0.016459839914041013,0.033466960157247205,0.00042964641418342036,0.0,0.0,0.0
1624181099145982981,95,1624181099145982981,0.00536417878762094,0.0030111007241941045,0.0006168248784310346,1.8155123844171607e-05,5.598930419671602e-05,0.00015708533501094453,0.9999999859298779,0.012389656182539576,0.017600547192263363,0.0013895086698604711,0.0,0.0,0.0
1624181099241673946,96,1624181099241673946,0.005738943887372468,0.0011518926675517468,0.0004699853033782532,2.055012908973154e-05,4.890950330108444e-05,0.00015442017915687895,0.9999999866699643,0.009229246891435616,0.005251324866495424,-0.0006919100101664777,0.0,0.0,0.0
1624181099341690063,97,1624181099341690063,0.00780410735942476,-0.00034992083175035195,0.00013376649371292753,1.3792221270591728e-05,6.484258722936809e-05,0.00014391409448514617,0.9999999874469576,0.014030108238236833,-0.0011450050279475906,-0.0022484893638979888,0.0,0.0,0.0
1624181099441705942,98,1624181099441705942,0.008104156700869617,0.00015946120893106772,0.00020901053940914867,1.3505233126323266e-05,5.170940969893814e-05,0.0001392048946646697,0.9999999888828554,0.009858566136200274,0.001967957116997297,-0.0005569993521615238,0.0,0.0,0.0
1624181099541668653,99,1624181099541668653,0.008073914529224518,0.0012249123247233273,0.00027843217883946473,2.356489806769828e-05,5.33853287988383e-05,0.00013302875214743262,0.9999999894490109,0.006220081425001127,0.005617745259986538,-0.00043441109178820377,0.0,0.0,0.0
1624181099641670465,100,1624181099641670465,0.008324204041112882,0.0009616438739004694,0.00013571023499327434,1.3429389215548554e-05,5.5864231505854904e-05,0.00015476853396536558,0.9999999863727543,0.004626965597991414,0.003205925798070003,-0.0016415766872104743,0.0,0.0,0.0
1624181099741672516,101,1624181099741672516,0.005508827293321592,-0.0010889789740832492,0.000251781306155742,2.0169493142088437e-05,4.979769870484311e-05,0.00015419014765287074,0.9999999866693735,-0.007578252250662328,-0.005141803911153793,-0.0005788245366934099,0.0,0.0,0.0
1624181099841668367,102,1624181099841668367,0.004599587887866111,-0.00021075807959235844,0.00012171089208769961,7.216299090001746e-06,4.324369282690336e-05,0.00015702926200672956,0.9999999867098436,-0.007757107302509857,0.0005762759428539202,-0.0020039729988410608,0.0,0.0,0.0
1624181099941673279,103,1624181099941673279,0.0037813606389313316,-0.0008230272823979127,8.949037930618694e-05,1.360174949761415e-05,2.7250789330193216e-05,0.00011907992586064983,0.9999999924461632,-0.007459563587382229,-0.0010524276638310033,-0.001163825958048229,0.0,0.0,0.0
1624181100041660547,104,1624181100041660547,0.0032195632382489552,-0.0005745446859950548,8.562723363651366e-05,9.821719723085198e-06,3.0884400932879295e-05,0.00011367256340924942,0.9999999930141025,-0.006269910777546832,0.0009267584677554936,-0.001174689513913892,0.0,0.0,0.0
1624181100141732693,105,1624181100141732693,0.004466065960807695,-0.001092843548728075,0.00019808650900218368,2.085439912370524e-05,5.146557912754656e-05,0.00011883184646859723,0.9999999913976748,0.001185744098908783,-0.0005803919476528479,0.00020184265589631733,0.0,0.0,0.0
1624181100241756678,106,1624181100241756678,0.0037119638385113302,-0.0012575477886456906,0.00016743318963580945,1.7325548993774216e-05,4.2726580975264334e-05,0.00014072733456460334,0.9999999890350251,-0.001655388673998343,-0.0003469729493543112,-0.0003203245621367058,0.0,0.0,0.0
1624181100345803261,107,1624181100345803261,0.00470019160560698,0.001663880245220813,0.0006716095812865952,2.622958984660089e-05,7.300120627641896e-05,0.00017415605892534336,0.9999999818262336,0.0038095599135999636,0.010666287104981685,0.003217524343929607,0.0,0.0,0.0
1624181100441701174,108,1624181100441701174,0.004130220384736674,0.0024962972812855194,0.0007752444240507303,2.43796754222657e-05,4.440248662608761e-05,0.00012783434221042347,0.9999999905461996,0.0003845598977877435,0.010500319163587304,0.0016197731719349733,0.0,0.0,0.0
1624181100545798063,109,1624181100545798063,0.002767398410159352,0.002458040653960906,0.0003235704467050227,1.1532993956730706e-05,2.9008285138240297e-05,-3.994320660039934e-05,0.9999999987150081,-0.004836734659532501,0.006924119365870885,-0.0035039386664787167,0.0,0.0,0.0
1624181100645816565,110,1624181100645816565,0.0047855717074175,0.003571199455188989,0.0001989421534639195,1.2373746987899387e-05,6.030988090656624e-05,0.00018985740261550412,0.9999999800818707,0.005417648138512797,0.009005933891001423,-0.0020671623540868336,0.0,0.0,0.0
1624181100745687008,111,1624181100745687008,0.006013487110854559,-0.00018604297664480724,0.00040226505238334453,2.4302634565769785e-05,7.807594937866421e-05,0.00012591726249501744,0.9999999887291686,0.008226720907744857,-0.007768802012726471,0.0011375227428627134,0.0,0.0,0.0
1624181100845645666,112,1624181100845645666,0.007705242533915808,-0.0031186456514660627,0.0005808217204116525,2.4686143880685717e-05,6.687367540088509e-05,0.00012946905109480835,0.9999999890781183,0.012473808666510672,-0.016158152802690322,0.0012866406094304288,0.0,0.0,0.0
1624181100945627451,113,1624181100945627451,0.007594745178912798,-0.002102573245131922,0.00034040199210161743,3.921129825902785e-06,3.137886037208011e-05,0.00014464681225514748,0.9999999890386285,0.007323068431524805,-0.005618862374301918,-0.0020796708608449834,0.0,0.0,0.0
1624181101041559458,114,1624181101041559458,0.007882359315652539,-0.0018346676166486073,6.734131983681977e-05,1.2228100026682648e-06,3.7044944324973686e-05,0.0001392521669687525,0.9999999896174883,0.005760266906824506,-0.0020884937074891296,-0.002771325928904917,0.0,0.0,0.0
1624181101141606331,115,1624181101141606331,0.006113443445515843,-0.0015560254451402373,6.47142662154551e-05,2.6314506506121996e-05,4.884029753728259e-05,0.00010123479341508752,0.9999999933368273,-0.0033779404383533036,0.00020745133723536723,-0.0014613488624856078,0.0,0.0,0.0
1624181101241703749,116,1624181101241703749,0.0030002229122110618,-0.0032563318471555544,0.00018364280574348992,2.0515814007154717e-05,4.917706289326988e-05,8.205606519125779e-05,0.9999999952137427,-0.013252715812402489,-0.005743571277828912,-0.0003207396303208671,0.0,0.0,0.0
1624181101345925331,117,1624181101345925331,0.0010140195408466115,-0.005945582950212315,9.22220551494708e-05,1.4458113049496704e-05,2.502479081546701e-05,0.00012637534329343214,0.9999999915969803,-0.014730601349811207,-0.012950242705072619,-0.002050988420647125,0.0,0.0,0.0
1624181101441714764,118,1624181101441714764,0.0004074446549013148,-0.006863705090254514,3.995055770522291e-05,1.7139909547805094e-05,2.3830796260884235e-05,4.535454372796063e-05,0.9999999985406234,-0.011924899333652487,-0.010568954157526275,-0.0010391856085648482,0.0,0.0,0.0
1624181101545998812,119,1624181101545998812,0.0006830220876368288,-0.008337799839309759,1.9354990425665592e-06,2.044789280814445e-05,1.9137046485484763e-05,0.00014542448780676445,0.9999999890336697,-0.006033396596578325,-0.012140239708002926,-0.0009650041412588899,0.0,0.0,0.0
1624181101645887852,120,1624181101645887852,0.0010853068052633086,-0.008298609989196664,0.0003116566894118856,3.3881188540896006e-05,6.570535996622678e-05,9.56845677153005e-05,0.999999992689649,-0.001873997907612908,-0.0069167442458274424,0.0012615610860591323,0.0,0.0,0.0
1624181101741571665,121,1624181101741571665,0.0022525891984427793,-0.007703023378918214,0.0003441221936707092,2.2763283043568498e-05,4.175871091890492e-05,0.00010409855635969047,0.9999999934507493,0.004186569079323177,-0.0014872224455647273,0.0006615972833242758,0.0,0.0,0.0
1624181101841569185,122,1624181101841569185,0.0039022583673332762,-0.007042989338280714,0.00040933998276622787,2.8468267653428052e-05,4.2923548673086845e-05,8.362686851825601e-05,0.9999999951768189,0.009325242443096881,0.0017591289500320881,0.0005305809312084473,0.0,0.0,0.0
1624181101946122646,123,1624181101946122646,0.0023510085392787978,-0.007236274903773029,0.00047137173328847773,2.672948662634053e-05,4.777315586521649e-05,8.635443884055814e-05,0.9999999947730677,-0.00010013898414575062,0.0007308664639972069,-0.0007125165607759158,0.0,0.0,0.0
1624181102045765638,124,1624181102045765638,0.0008577859499511963,-0.006699329738494011,0.0001373584069634773,8.908372872480015e-06,4.678454506478849e-05,0.0001006764576775787,0.9999999937980315,-0.0055028968326712654,0.0031094556619433527,-0.0037380400189606427,0.0,0.0,0.0
1624181102146711111,125,1624181102146711111,0.001350120217655675,-0.00561369353704021,0.00034416949479484883,2.4126795129820055e-05,5.472044168686076e-05,0.00012326010657344124,0.9999999906152408,-0.0006770811753419054,0.006179842070480003,0.00029283922560126166,0.0,0.0,0.0
1624181102241575956,126,1624181102241575956,-0.000811708297079665,-0.005711860436661705,0.0002707504447873979,1.998632986893806e-05,-6.325266896493708e-07,0.0002980872196166715,0.9999999553720592,-0.008493445844231761,0.00452535192830867,-0.0007749765951502458,0.0,0.0,0.0
1624181102345685720,127,1624181102345685720,-6.355365532563945e-05,-0.006470981381825017,0.00024252498233829462,2.0413155653989995e-05,4.462384106848739e-05,0.00012351149435711894,0.9999999911684451,-0.0016791286002988863,0.001154869214171619,-0.00015714034627450565,0.0,0.0,0.0
1624181102441648006,128,1624181102441648006,-0.00036158723179235936,-0.008587600760050506,0.00031420986274536736,2.929882198675346e-05,3.939904863857006e-05,0.0001078993519100469,0.9999999929734944,-0.002167237712180645,-0.006016681238459365,0.0009926190325152565,0.0,0.0,0.0
1624181102541618109,129,1624181102541618109,-0.0005589972792481435,-0.010528724761954766,0.0006555448122359565,3.9469923450731265e-05,5.073764314308604e-05,6.901300040214651e-05,0.9999999955524932,-0.002123932672220813,-0.010200160272381464,0.002457968059676522,0.0,0.0,0.0
1624181102641607285,130,1624181102641607285,0.0007414961449430097,-0.010823767857829597,0.00047213889024856094,3.338575803201742e-05,3.6805564025324876e-05,0.00011361197799888504,0.9999999923115116,0.004382496272046007,-0.007666183428626679,-0.0009906534904382284,0.0,0.0,0.0
1624181102741618633,131,1624181102741618633,9.271650879042002e-06,-0.0073256351749447736,0.0004809538376907158,2.683530785526715e-05,6.287368777769953e-05,-0.00010498815486930024,0.9999999921521072,0.0005562564923743876,0.007807270488166136,-0.0014327771316119972,0.0,0.0,0.0
1624181102841694355,132,1624181102841694355,-0.00046984107980112554,-0.0075829644456689325,0.00036074749930917747,3.398276146140399e-05,4.616422739045768e-05,9.042540313331754e-05,0.9999999942686214,-0.0013524060760236015,0.005003793357565806,-0.0017717562972501405,0.0,0.0,0.0
1624181102941601276,133,1624181102941601276,-0.0029201658692140624,-0.0061231936316864174,0.0002350456902834302,2.5849715124846424e-05,4.1277968216189635e-05,9.227591081297037e-05,0.9999999945565187,-0.010391767940943411,0.008702103157214416,-0.001830623809360156,0.0,0.0,0.0
1624181103041578531,134,1624181103041578531,-0.0017665189399913056,-0.008200083690002786,0.0001130505621485141,1.3867414330778459e-05,2.6184384796552368e-05,6.778947489574653e-05,0.9999999972633089,-0.0013716751673056842,-0.0010604211431538297,-0.001687222258524519,0.0,0.0,0.0
1624181103141543388,135,1624181103141543388,-0.00014235176448181315,-0.005752921103128474,0.00021520523816268792,1.887437049771965e-05,2.7925035723757558e-05,0.00014361999885081008,0.9999999891186021,0.0061590863971939,0.008599915455629463,0.0001899965253803319,0.0,0.0,0.0
1624181103241524220,136,1624181103241524220,-0.0024443093390110276,-0.007118119800089544,0.0006743204633843933,3.082846132665408e-05,3.2234199726291024e-05,5.497981663783811e-05,0.9999999974938699,-0.004585625474376844,0.0008059776552917968,0.0024731090327047476,0.0,0.0,0.0
1624181103341637373,137,1624181103341637373,-0.002080776194628805,-0.006384622262670402,0.00048579196143430967,2.493306059725492e-05,3.65301544844145e-05,8.217870629540122e-05,0.9999999956452537,-0.0011711519175380057,0.0035860498597899727,-0.001731473549368161,0.0,0.0,0.0
1624181103445890665,138,1624181103445890665,-0.001988920861555482,-0.008055240577282831,0.0003294029272964033,2.529427260661214e-05,5.336181401163454e-05,0.0001265167509723628,0.999999990253092,-0.00011792777582410666,-0.002890861983182066,-0.002199388048501491,0.0,0.0,0.0
1624181103545968771,139,1624181103545968771,-0.002469123384406669,-0.008236299827496251,0.00026060057799738416,1.925554639998578e-05,4.2387649376983446e-05,9.829775211381608e-05,0.9999999940850096,-0.0017736798461430458,-0.0021772558975513357,-0.0016661612046142784,0.0,0.0,0.0
1624181103641636133,140,1624181103641636133,-0.0020457938295176444,-0.0058481154094269985,0.0004532704017146494,3.101533891291827e-05,3.910582198610821e-05,0.00012614475475240707,0.9999999907981199,0.001104168962979245,0.007757048172380808,0.0004437431732292128,0.0,0.0,0.0
1624181103745911360,141,1624181103745911360,-0.0026020021572353063,-0.002148036637488064,0.00037579280977096026,1.5008767142629072e-05,2.8957972163043054e-05,9.516509160581077e-05,0.9999999949398667,-0.0005841597783056152,0.018148862961083118,-0.001020230935353529,0.0,0.0,0.0
1624181103845916748,142,1624181103845916748,-0.0030286497958001927,-0.0016455293150612895,0.0006844232152898675,2.4165258559250487e-05,4.512049166788163e-05,8.276608619746234e-05,0.9999999952649555,-0.0020512197647103705,0.01404513760533346,0.001339725489913493,0.0,0.0,0.0
1624181103945822239,143,1624181103945822239,-0.0033547198497279364,-0.0017582925214295647,0.0006857517048401568,2.296261890734036e-05,4.767294171302313e-05,0.00012450035529946158,0.9999999908498122,-0.0025530834874175363,0.009079763418095358,-0.00014709062186336799,0.0,0.0,0.0
1624181104041517019,144,1624181104041517019,-0.003848812599680297,-0.0012054177689332954,0.0006060140354741017,2.1822613930550534e-05,4.19766609538409e-05,9.432419041708248e-05,0.9999999944323169,-0.0032569846884981293,0.008376824961486283,-0.0008321441724958862,0.0,0.0,0.0
1624181104145846128,145,1624181104145846128,-0.001551362641955074,0.0002845717583053986,0.000490152074783014,1.0218390483636637e-05,3.515461346211988e-05,7.25027521771302e-05,0.9999999967015214,0.007320553825001842,0.011593748678047041,-0.0013473554481437972,0.0,0.0,0.0
1624181104241568804,146,1624181104241568804,-0.0012082597844259482,0.0014572419245549818,0.00035464328821416995,1.586826861348933e-05,2.11698576483452e-05,0.00017929913934524883,0.9999999835759034,0.006409564079106562,0.01269655003954433,-0.002117148180189473,0.0,0.0,0.0
1624181104341577053,147,1624181104341577053,0.0013359096198964633,0.002426243622139161,0.0005842202849995831,1.99547632610292e-05,4.671385792507913e-05,0.0001576797265858895,0.9999999862783395,0.014000870946169239,0.012151391588355757,0.0007972954157672183,0.0,0.0,0.0
1624181104441557884,148,1624181104441557884,0.0016744272523845788,0.0009252109006456172,0.0004755664566127452,1.8975159085913307e-05,4.417345622528245e-05,9.94348002709152e-05,0.9999999939006614,0.010259993999625287,0.0035666343673730443,-0.0005280571930263674,0.0,0.0,0.0
1624181104541584730,149,1624181104541584730,0.0014236635382977566,0.0009294568953652362,0.00039688378416755744,6.429003668207237e-06,3.48625595233664e-05,0.00013530465379006542,0.9999999902179371,0.0057704317571824724,0.0026664218102534897,-0.0008691666023868852,0.0,0.0,0.0
1624181104645853996,150,1624181104645853996,0.0005316294725516472,0.0009237474203718268,0.0003047276248122754,8.394204444072185e-06,4.03214980301202e-05,8.763855778599758e-05,0.9999999953115747,0.0010691303151798316,0.0017034114819379931,-0.0017045935356768567,0.0,0.0,0.0
1624181104741568804,151,1624181104741568804,0.0015243960276239562,0.0005325506108931086,0.0003440093774120813,1.5489479490123926e-05,3.353998244410041e-05,0.00012591310336469705,0.9999999913904934,0.004867919917763074,0.0011754072839065296,0.00012042045752378436,0.0,0.0,0.0
1624181104841578722,152,1624181104841578722,0.0027233668458490233,0.0006655003524550613,0.0006620990018205568,3.305927780760435e-05,5.125160728043399e-05,0.00014647693642021355,0.9999999874124074,0.007699818374964889,0.0016924167869521306,0.0025853720111194568,0.0,0.0,0.0
1624181104941574335,153,1624181104941574335,0.002893178521544959,-2.5646635961649348e-05,0.0003840691719911448,1.4643105672729978e-05,4.430634478623202e-05,0.00012556322514908878,0.999999991028177,0.006180820869732054,-0.00039807374030149164,-0.0018976814306625404,0.0,0.0,0.0
1624181105041578770,154,1624181105041578770,0.0032378437611565508,0.004603337883600275,9.163111343642006e-05,7.101114864267396e-06,3.889855224069137e-05,0.00016146069879355445,0.9999999861834344,0.005761452275775025,0.016790350401323137,-0.0034946575002648894,0.0,0.0,0.0
1624181105145951271,155,1624181105145951271,0.002826116764784179,0.004324599818744065,0.0003750028016885647,2.1237669056499134e-05,5.251111236537869e-05,0.00014643953861797303,0.9999999876734775,0.0013497195221173113,0.009346043194461702,0.00010460037787445985,0.0,0.0,0.0
1624181105241587400,156,1624181105241587400,0.0015248185271545779,0.0026716988945891845,0.0005052589591818905,7.4579977457846746e-06,3.590240864723142e-05,0.00012131761543963252,0.9999999919686897,-0.004332644746218822,0.0013943717558830473,0.001028960828272121,0.0,0.0,0.0
1624181105341545105,157,1624181105341545105,0.002220795579288341,-0.0019287348449689705,0.00043665128430731004,2.779982008538615e-05,5.8264927655335885e-05,0.00013610974002236333,0.9999999886532275,0.00028147989586715504,-0.01525466546859491,-0.00016774313589420283,0.0,0.0,0.0
1624181105441497087,158,1624181105441497087,0.0022200210913443158,-0.006372143773158995,0.0003884448165071995,2.605668464248251e-05,2.5608287734038154e-05,0.00013461173808636061,0.9999999902724462,0.0004658927656031887,-0.02564540906115246,0.0005163794660217253,0.0,0.0,0.0
1624181105545780897,159,1624181105545780897,0.0033694862932167795,-0.004649334434132058,0.0004594887842024027,2.6930120448490054e-05,4.8977630412452975e-05,5.6956065764391527e-05,0.9999999968159564,0.004842965536420449,-0.009999404335026267,-0.00013338465894715052,0.0,0.0,0.0
1624181105645771980,160,1624181105645771980,0.003761374739634531,-0.00792979940728091,0.0004606514547653828,2.560308275257725e-05,6.25450376007982e-05,0.00014076076289223026,0.9999999878094762,0.00474126933047684,-0.01788905264084608,-0.00028403330645718515,0.0,0.0,0.0
1624181105741558075,161,1624181105741558075,0.004169933731786238,-0.009001430611599161,0.0002738113696408833,2.6467488715282804e-05,3.5109453374664924e-05,6.5146202745592e-05,0.9999999969113575,0.004720317402404078,-0.0149597921569549,-0.0019182792860815876,0.0,0.0,0.0
1624181105841535807,162,1624181105841535807,0.004018076413170441,-0.009685969397582681,0.0002803431558231086,2.8290992738042723e-05,4.7972588381178076e-05,0.00015336846615201976,0.9999999866881537,0.0022458432662813207,-0.01073800922715698,-0.0010260625416737533,0.0,0.0,0.0
1624181105941542387,163,1624181105941542387,0.0027648929578937354,-0.008380224636477591,0.0002614955651636291,3.0787179418778705e-05,5.114236077520891e-05,0.00011805192137218066,0.9999999912501477,-0.003480997493160454,-0.002266152717191527,-0.0011573371336132704,0.0,0.0,0.0
1624181106041507721,164,1624181106041507721,0.003267603867592295,-0.008931960297193179,0.0002000783676073681,3.0303817345436505e-05,5.139410507351878e-05,0.0001015784974484158,0.9999999930610382,-0.0002932659182145569,-0.0033822666948476235,-0.0014054298381018801,0.0,0.0,0.0
1624181106141419888,165,1624181106141419888,0.003295305120356288,-0.009710652756883141,0.00026295797814688084,3.221436524030219e-05,4.3296560366133175e-05,0.00011845778466926088,0.9999999915276687,4.811719809362871e-05,-0.004336561209608925,-0.00029186382861726774,0.0,0.0,0.0
1624181106241385698,166,1624181106241385698,0.0019995481128876652,-0.010808847696712967,5.8439173107488746e-05,2.43178962756925e-05,1.7952580990517303e-05,6.659442923863824e-05,0.9999999973257341,-0.004339674213697373,-0.006075815996408133,-0.002376708476778247,0.0,0.0,0.0
1624181106341374159,167,1624181106341374159,0.002958831993224936,-0.01256487077107749,-9.563047352764117e-05,2.5440327410045277e-05,3.195819314789949e-05,0.00010641828546048444,0.9999999935032761,0.0008577651913866035,-0.008395008082602556,-0.0013796344834737166,0.0,0.0,0.0
1624181106441479921,168,1624181106441479921,0.003286605295193662,-0.011939094912916079,-1.0845048115634875e-05,2.7557093666828234e-05,5.302954616483637e-05,0.00010556183473485444,0.999999992642556,0.0018027934314147748,-0.003171448147046737,-0.0007053064347103788,0.0,0.0,0.0
1624181106541598797,169,1624181106541598797,0.0024471953345444617,-0.0101853030134171,-9.315482636753882e-06,2.4914883062967373e-05,4.687666044053088e-05,7.045605341141248e-05,0.9999999961088556,-0.0019673392942649902,0.0043908708339620624,-0.00130644292289753,0.0,0.0,0.0
1624181106641644955,170,1624181106641644955,0.003577378306239811,-0.012546691395114192,-7.513226331418557e-05,3.154944596412238e-05,4.327246399732098e-05,9.110738829467427e-05,0.9999999944157549,0.0030061940614215,-0.0043781053075865875,-0.0013659321709743964,0.0,0.0,0.0
1624181106741590261,171,1624181106741590261,0.004063066302653557,-0.00902447939525694,-0.00013125312320001625,1.4647285362881366e-05,2.7270122017277553e-05,0.00011471564096774926,0.999999992941029,0.004060752078678119,0.009747650782878986,-0.001302923202373712,0.0,0.0,0.0
1624181106841556787,172,1624181106841556787,0.003590252999835218,-0.008257517639355212,0.00022913440004275533,3.093806408598095e-05,4.567026978141923e-05,0.00011307387646810176,0.9999999920856499,0.0006157248352820352,0.008823169931939982,0.0015544917518906078,0.0,0.0,0.0
1624181106941544533,173,1624181106941544533,0.0018625922517363281,-0.002744284315163776,0.000699575612522334,3.9737462851681816e-05,4.711678631136726e-05,0.00016113766801326574,0.9999999851177661,-0.00580470784345102,0.02560927404009313,0.002766409420290088,0.0,0.0,0.0
1624181107041543484,174,1624181107041543484,0.0023095410021287976,-0.0030141645251367754,0.0004824944052539049,1.7978147358392876e-05,3.354240163202473e-05,0.00011511290782100127,0.9999999926503249,-0.0022377722059165927,0.016739613825492397,-0.0004281436444301839,0.0,0.0,0.0
1624181107141484499,175,1624181107141484499,0.0029195961440721513,-0.003592230794742495,0.00025076560144617283,2.825552194351214e-05,4.1796157939520245e-05,0.00012107049344312802,0.9999999913982894,0.0010857327559682796,0.009069492059553751,-0.0022319474618139865,0.0,0.0,0.0
1624181107241413355,176,1624181107241413355,0.004644183969674688,-0.003791911566531304,-7.665191268974748e-05,2.752860275234592e-05,4.870090189409632e-05,9.924850271666864e-05,0.999999993510035,0.007280534033028485,0.006151611140147641,-0.003949167040800393,0.0,0.0,0.0
1624181107341459513,177,1624181107341459513,0.005473506798614121,-0.004499762760293858,-0.00012100264838024974,2.097607652647815e-05,4.774552601973431e-05,0.0001017650853684649,0.9999999934620863,0.00789769657460479,0.002151274644630546,-0.0020720256287756825,0.0,0.0,0.0
1624181107441525936,178,1624181107441525936,0.00547691664476057,-0.0045557501321491604,0.00016395681778998508,2.1438877985987628e-05,4.572867626670131e-05,0.00010283212452431785,0.9999999934373766,0.0052315170302297195,0.001966732195825404,0.0016467855929447371,0.0,0.0,0.0
1624181107541581631,179,1624181107541581631,0.0064722000996472965,-0.0037110783381839357,9.636799137503699e-05,2.0240102528420483e-05,3.645998405678131e-05,0.00014237962757977004,0.999999988994493,0.007588275825719223,0.005142865667948827,-0.0006967935215819029,0.0,0.0,0.0
1624181107641490459,180,1624181107641490459,0.005617990299885631,-0.0011453073402092656,-0.00025241098043953105,-2.8475180623757975e-06,3.2875993506211646e-05,0.0001637013277128669,0.9999999860564365,0.0016829194894222403,0.012260567123545695,-0.003730488751296605,0.0,0.0,0.0
1624181107741419554,181,1624181107741419554,0.005003281312008051,-0.0005759335086959091,0.0001606884999442727,1.8885648423514328e-05,5.530759128910082e-05,1.3795355899508026e-05,0.9999999981970141,-0.0012986159617938533,0.011799682636224459,0.0012743040575387615,0.0,0.0,0.0
1624181107841454268,182,1624181107841454268,0.0021759590873422943,-0.0019863618018705477,-0.00031392807656925955,-5.846763377507212e-06,5.8355844675224025e-05,0.0003264056798111997,0.9999999450098384,-0.01114248299657952,0.0016714030343462812,-0.002990616122951417,0.0,0.0,0.0
1624181107941497087,183,1624181107941497087,0.003536235223936916,-0.00147430630241507,-0.0023151879721562017,-7.647084803544656e-05,-6.125328522035764e-05,7.689688916047394e-05,0.9999999922435249,-0.0014950866051468958,0.0006260858371671899,-0.015859674858158528,0.0,0.0,0.0
1624181108041530609,184,1624181108041530609,0.00039856046809221224,-0.0016678941519748173,-0.0034927266963239887,-0.00010070829175822968,4.244622796762504e-07,0.0005393608783458738,0.9999998494737085,-0.013050194718796104,0.008756175992419134,-0.013343073944443673,0.0,0.0,0.0
1624181108141537428,185,1624181108141537428,0.002236551103039155,0.001973253963156692,-0.0004737517734017087,4.257678924401948e-05,0.00013036919306007294,0.00014956537868307578,0.9999999794106122,8.394835765611341e-06,0.01156652408919635,0.017375964582297263,0.0,0.0,0.0
1624181108241561651,186,1624181108241561651,0.006665661117898827,0.0020723063959499554,0.0011916186228119361,3.3989658140903574e-05,3.6267856654615426e-05,-0.00019626353996287792,0.9999999795049519,0.015540300983795064,0.012969438998426331,0.017808023748474774,0.0,0.0,0.0
1624181108341506481,187,1624181108341506481,0.00483332571187557,-0.0044254776600425325,0.0020218982449918036,5.342412690979193e-05,0.00013656039535400022,0.00048072605918803984,0.9999998736997485,0.005240152441973928,-0.010279145600805166,0.011441532806041873,0.0,0.0,0.0
1624181108441495657,188,1624181108441495657,0.005820065087374593,-0.0065894205636250905,0.0022601978940451086,8.476669720175761e-05,6.456118228368361e-05,-3.12069593761329e-05,0.9999999938362615,0.005482522497662229,-0.023953086958613843,0.003663400050367447,0.0,0.0,0.0
1624181108541458130,189,1624181108541458130,0.005231641862790633,-0.009631857292919243,0.0002634025353534284,1.0594118194197133e-05,-6.1910583258272406e-06,2.013333644741777e-05,0.9999999997220098,0.0021093306840904514,-0.01860892392653166,-0.013485231992908282,0.0,0.0,0.0
1624181108641415596,190,1624181108641415596,0.005293284644436556,-0.010399067156406604,-5.9213981139048014e-05,3.49015757796957e-05,4.462809827339484e-05,0.0002096247673465616,0.9999999764238021,-0.0005223202581811948,-0.016832405991720915,-0.00801866543075403,0.0,0.0,0.0
1624181108741472244,191,1624181108741472244,0.0065689181289474785,-0.008713001146685016,-0.00215799139931953,-7.46014673432021e-05,-5.491971933030437e-06,3.10229140341615e-05,0.9999999967209867,0.004798147642602618,-0.007170092634405616,-0.014619368327603877,0.0,0.0,0.0
1624181108841456890,192,1624181108841456890,0.005530292991385592,-0.005428075455848068,0.003067209369770039,0.0002101667410274944,0.00020200305803728326,0.0003145165176881212,0.9999999080519961,0.0037707809775815683,0.016604395477091707,0.027504761380161048,0.0,0.0,0.0
1624181108941458225,193,1624181108941458225,0.0031091792362634174,0.002651211197638364,0.003248093449449256,9.385924645521813e-05,-3.893049230510193e-05,0.0002650622261771961,0.9999999597084033,-0.006114973485366044,0.044945290817744746,0.010156964150173527,0.0,0.0,0.0
1624181109045540094,194,1624181109045540094,0.008785381533812727,0.005161907795367861,0.003950798426032652,0.00014292370056215984,4.240851470819825e-05,-0.00019670200816663465,0.9999999695412928,0.01907321381817121,0.04485422555386335,0.0074145801957896905,0.0,0.0,0.0
1624181109141449690,195,1624181109141449690,0.00805596788986234,0.004918495111417653,0.007846299939343958,0.0003547641143862599,0.00018476228941943898,-0.00016720708200287273,0.9999999060235176,0.01026685707214729,0.033046363541915175,0.024382722769085183,0.0,0.0,0.0
1624181109241419792,196,1624181109241419792,0.006490273103780985,0.0005989358191272609,0.0031352292587409586,5.525469784494013e-05,2.3453232009937704e-05,-1.1880196766669896e-05,0.9999999981278287,-0.007942880301068714,-0.007888015564059807,-0.022837614778826905,0.0,0.0,0.0
1624181109341447592,197,1624181109341447592,0.014879279724490331,-0.0011256526762931298,-0.001389730332011303,-4.4837661327622355e-05,8.638233758832165e-06,-0.00021536827357838064,0.9999999757657023,0.03216450791693374,-0.007007848428253745,-0.03379965395073488,0.0,0.0,0.0
1624181109441447735,198,1624181109441447735,0.009546623044502447,-0.0014283964066916291,-0.000706573345854925,0.00020266436716580603,6.860684712778876e-05,0.0001364430774131811,0.9999999678017368,-0.007541158665954027,-0.023362710963721108,-0.017774449589329513,0.0,0.0,0.0
1624181109545746565,199,1624181109545746565,0.0068418690118399106,-0.0014561130362446108,0.00412243405087409,0.00018149372501883535,1.9092209300487816e-05,0.00020501829003079626,0.9999999623314736,-0.015212920948254735,-0.00712969617607608,0.02625773171569646,0.0,0.0,0.0
1624181109641665220,200,1624181109641665220,0.010227076823778282,-0.010009674968439072,0.000592725561728396,4.721340501749083e-05,0.00017256248472152108,-8.13041462403246e-06,0.9999999839634564,0.004796934119392429,-0.01179914454812353,-0.013482834527478109,0.0,0.0,0.0
1624181109745495081,201,1624181109745495081,0.010418443852462423,-0.009487251309397692,-0.0027026777139565216,0.00011307216837942189,5.3580615319314786e-05,-8.213563512541867e-05,0.9999999887987365,0.00975593000495878,-0.019701560012468287,-0.02637281954973382,0.0,0.0,0.0
1624181109841402292,202,1624181109841402292,0.007473491617705508,-0.009670489908645476,-0.0021345527750360575,3.716294793880602e-05,0.00010452927089402226,0.00016763718858342212,0.9999999797951266,-0.02324830607741879,-0.004337968454514285,-0.014938103656810073,0.0,0.0,0.0
1624181109941432714,203,1624181109941432714,0.010245564428935575,-0.008331442988462967,0.0005521293229919467,7.796345634548287e-05,0.00020982138613820549,4.700720082785222e-05,0.9999999738434707,-0.0021278646518611416,-0.019064506512800852,0.011602606700664113,0.0,0.0,0.0
1624181110041446447,204,1624181110041446447,0.008141172591625704,-0.008209698083387106,0.004262730332787704,0.00026030881958262703,0.0002518691590082027,-5.870332854391606e-05,0.9999999326775475,-0.007777548445019589,0.024605468909275105,0.035412772494041775,0.0,0.0,0.0
1624181110141516924,205,1624181110141516924,0.0048068447940921135,-0.009105570938908894,0.0032423136949519316,-8.443909664817582e-06,-4.740042208231082e-05,6.590163309271244e-05,0.9999999966694052,-0.025736641735309693,-0.015527955835715425,-0.003386215623638892,0.0,0.0,0.0
1624181110245605230,206,1624181110245605230,0.001899614354259754,-0.008100871679799665,0.005203289616639167,0.00016591334510191266,-9.229658898341605e-05,0.00011418429220226267,0.9999999754579916,-0.012301698209696461,-0.011216530762070166,0.022450306011872936,0.0,0.0,0.0
1624181110341500521,207,1624181110341500521,0.0037578633695574846,-0.007848371989638558,0.000955663601645468,-8.229076182710255e-05,-0.00019323607532906352,-3.058822538775383e-05,0.999999977476172,-0.011401485849928844,0.011950853563361551,-0.030465893233746405,0.0,0.0,0.0
1624181110441454887,208,1624181110441454887,0.005021648700403995,-0.006515964247933637,0.002730847746353383,0.0001705322961249714,0.0002339474596916771,5.539332471267903e-05,0.999999956559417,0.0014846600483762427,-0.012577908601229164,0.004635029707145688,0.0,0.0,0.0
1624181110541416883,209,1624181110541416883,0.003927010418070063,-0.005212754824874747,0.00415276011421832,0.0002693166662214203,0.0002670750476314319,0.00010375460056553086,0.9999999226871822,-0.000556430327705673,0.031088424225751893,0.013555208192026845,0.0,0.0,0.0
1624181110641395330,210,1624181110641395330,0.00553154798639087,-0.006555342986506723,0.0036977813979186336,0.00010150265362867334,0.00020087620676577703,-7.857774379341343e-05,0.9999999715857167,-0.0015146780506159543,-0.010337311407504969,-0.00769711234819518,0.0,0.0,0.0
1624181110745682001,211,1624181110745682001,0.001244053504074575,-0.007954624941669472,0.005734682380258045,0.000425577163141355,0.0007115919591139853,8.853834979451354e-05,0.9999996523408683,-0.017473959003677902,-0.021135165932566514,0.009795877685359356,0.0,0.0,0.0
1624181110845627308,212,1624181110845627308,-0.005498401839532579,-0.013352393409329932,0.006613457288319217,0.00039753721631014156,0.0012381859402387043,7.737920300005068e-05,0.9999991514357062,-0.03677189956933678,-0.018090408858292342,0.0163189103353538,0.0,0.0,0.0
1624181110945860386,213,1624181110945860386,-0.012454339098729656,-0.014037371049770287,0.00807717234269452,0.0002844449106437407,0.0009765847806193922,-0.00020020608857978159,0.9999994626452131,-0.042710620532502075,-0.021068590785391902,0.012191725795256719,0.0,0.0,0.0
1624181111045495749,214,1624181111045495749,-0.017240472861271543,-0.013281082560974425,0.009747885120836582,0.0002461028638235631,0.0005744119504484812,-0.00039408653351835057,0.9999997270899766,-0.029489559266394186,-0.010220966442090548,0.023908315173992042,0.0,0.0,0.0
1624181111145503521,215,1624181111145503521,-0.01990784255327783,-0.0121802423237634,0.009182181159862421,0.0001794173938336629,-0.00022382608661401736,-0.00011451512845879488,0.9999999522987478,-0.013471774207017099,0.0038337302876666375,0.0026783461338797075,0.0,0.0,0.0
1624181111245690584,216,1624181111245690584,-0.018576610701103995,-0.00767419939450647,0.005694765712008297,0.00014344895187993212,-0.00036465585600364744,-0.00017946603793161177,0.9999999071201842,0.004535203563912958,0.02672843921234409,-0.025221702744111188,0.0,0.0,0.0
