%time,field.header.seq,field.header.stamp,field.pose.pose.position.x,field.pose.pose.position.y,field.pose.pose.position.z,field.pose.pose.orientation.x,field.pose.pose.orientation.y,field.pose.pose.orientation.z,field.pose.pose.orientation.w,field.twist.twist.linear.x,field.twist.twist.linear.y,field.twist.twist.linear.z,field.twist.twist.angular.x,field.twist.twist.angular.y,field.twist.twist.angular.z
1624165222199725389,0,1624165222199725389,-0.00017783177114519494,-0.0030896822403593594,0.0010050711794916442,-6.876429821163577e-05,-4.455420271808894e-05,-7.222750914872074e-05,0.99999999403479,-0.000850037743817765,0.0007686057532941283,-0.0009207042117229502,0.0,0.0,0.0
1624165222299722672,1,1624165222299722672,-0.0024992168391192943,-0.004597023517870946,0.00021717607060732586,-5.6363231890051624e-05,-6.121091932794997e-05,-0.00029906487369274286,0.9999999518183034,-0.023818413118032688,-0.013175048915224002,-0.007730317078298141,0.0,0.0,0.0
1624165222399544477,2,1624165222399544477,-0.0022885225989914275,-0.004963399135902356,-0.0005895124736562648,-4.8402241454175835e-05,-7.279935979003512e-05,-0.00010916658105968811,0.9999999902200652,-0.008078098526911642,-0.006275197088374805,-0.00843340159195821,0.0,0.0,0.0
1624165222499534845,3,1624165222499534845,-0.00011883773811966062,-0.004177707249107183,-0.00030146869622295954,-3.74800348832892e-05,-3.746898502178805e-05,-0.00011389671482720412,0.9999999921094287,0.009478591950630853,0.0031429822738244457,0.0002627863022359334,0.0,0.0,0.0
1624165222599487782,4,1624165222599487782,-0.0011387209026744172,-0.0060493190910713155,-0.00018070136641351736,-5.856869778911998e-05,-4.438398802138676e-05,-3.885450815290164e-05,0.9999999965450457,-0.0007155813178189498,-0.006475215584730856,0.0014406842718284489,0.0,0.0,0.0
1624165222699404001,5,1624165222699404001,-0.0014989002465780833,-0.0034371712188460825,0.00033987129170625426,-3.583414155587203e-05,-5.475206281892485e-05,-8.193230653734205e-06,0.9999999978254965,-0.0014289144769741486,0.011974985737769388,0.005640895765475671,0.0,0.0,0.0
1624165222799405575,6,1624165222799405575,-0.0013909248778760975,-0.0041459226647364445,0.0009067950496308934,-4.102991810317785e-05,-4.52703239768961e-05,-0.00017427060016114265,0.9999999829484484,-0.0004060630915759351,0.004265340152014345,0.0063096175974126055,0.0,0.0,0.0
1624165222899647951,7,1624165222899647951,-0.0018694728292967002,-0.003457109218018985,0.00045376217567421484,-5.491492142844205e-05,-7.442145402273721e-05,-0.00011863175160549586,0.9999999886861511,-0.002593343768703362,0.007547978944623033,-0.0013158130867564413,0.0,0.0,0.0
1624165222999651432,8,1624165222999651432,-0.002454893035572613,-0.004258458136714907,7.278567234481775e-05,-6.119535434624776e-05,-5.528690836465406e-05,-3.812960434238982e-05,0.9999999958723075,-0.005553932563568006,0.0009391917476318547,-0.0027895969695518313,0.0,0.0,0.0
1624165223099424124,9,1624165223099424124,-0.0015603777107647955,-0.0037705226173924103,2.8025479659711137e-05,-2.96450394019217e-05,-3.347572931338034e-05,-0.0001442012775977382,0.9999999886032667,0.0013251140229876756,0.004249358856690841,-0.001085748761264329,0.0,0.0,0.0
1624165223199440241,10,1624165223199440241,-0.0015943931289713591,-0.0028197192920824273,-4.6892229260524394e-05,-2.9968650236590922e-05,-3.321182253330408e-05,-0.00015052157831501334,0.9999999876710515,0.001035049930220554,0.00833601917906076,-6.53191054780177e-05,0.0,0.0,0.0
1624165223299599409,11,1624165223299599409,-0.002067367521597742,-0.004957413621583704,-1.3486497540395544e-05,-5.138120596543909e-05,-4.765745764173602e-05,3.0239264152336055e-05,0.9999999970871595,-0.002007591186558591,-0.004316402436411281,0.001409130024529402,0.0,0.0,0.0
1624165223399439812,12,1624165223399439812,-0.0010198774402231303,-0.0069788419745173726,-0.000344076658145034,-6.013395278376742e-05,-6.46418577259174e-05,-1.3284530348427237e-05,0.9999999960144261,0.004373363546613724,-0.011196226541087834,-0.0012483104833131175,0.0,0.0,0.0
1624165223499456882,13,1624165223499456882,-0.002353082073428759,-0.007354593142196394,-0.00022995440241329598,-3.3501958801491825e-05,-7.050990844428419e-05,-0.0003191277363505586,0.9999999460317252,-0.004280790535873934,-0.007655254342351117,0.0010966345531918298,0.0,0.0,0.0
1624165223599663019,14,1624165223599663019,-0.00331468326197411,-0.007276231965383291,-0.00042177854061335046,-5.001729343579041e-05,-5.468038002871701e-05,-0.00011646639977734309,0.9999999904719488,-0.007437445608329762,-0.0034717661022305186,-0.0005322675071974096,0.0,0.0,0.0
1624165223699453354,15,1624165223699453354,-0.003941248420904066,-0.0072810492392276285,-0.00016985381184364112,-3.2357161299116135e-05,-4.970968131594157e-05,-3.7665194749461606e-05,0.9999999975316438,-0.007695331778060211,-0.001184752761770496,0.0018840267405352456,0.0,0.0,0.0
1624165223799624681,16,1624165223799624681,-0.004962725267222026,-0.00535588217186616,-2.597559462667225e-05,-3.3918695840022554e-05,-3.188192860655336e-05,-0.00018327933848298223,0.9999999821208704,-0.00920713893622177,0.00866054599538859,0.0025542497423163783,0.0,0.0,0.0
1624165223899428129,17,1624165223899428129,-0.004016401904093782,-0.005316790005121984,-1.5634243468567382e-05,-3.805037314409504e-05,-3.149317324637215e-05,-0.00015106670154397178,0.9999999873695964,-0.0003553484154616912,0.006545530378121388,0.0010294018887882883,0.0,0.0,0.0
1624165223999658585,18,1624165223999658585,-0.0035767640323354005,-0.00524560772539279,-0.0002919310296098269,-5.3470611741477896e-05,-4.782399184719877e-05,-8.593224819727156e-05,0.9999999937346997,0.002452075912351805,0.004866135339270876,-0.0009415949534771185,0.0,0.0,0.0
1624165224099393845,19,1624165224099393845,-0.002006513024211648,-0.005599561677871442,-1.1572779910206577e-05,-3.7473779176936986e-05,-5.868088961543449e-05,-8.001519998153349e-05,0.9999999943749135,0.009451411483780016,0.0016333153245554803,0.0018568366937172555,0.0,0.0,0.0
1624165224199561834,20,1624165224199561834,-0.0018905124592003024,-0.006150251447386665,0.00024791010163634913,-3.0332979379572708e-05,-6.351902621954094e-05,-6.520975463090428e-05,0.9999999953964605,0.005462959643105352,-0.0009996937752924256,0.0033165643045106083,0.0,0.0,0.0
1624165224299598455,21,1624165224299598455,-0.003037277279527395,-0.00509446692796023,0.0001291982363530991,-5.1298751650874845e-05,-5.806838020895015e-05,-1.6421695407596847e-05,0.9999999968634086,-0.002475103569140191,0.0048372332589319885,0.0007508599888279735,0.0,0.0,0.0
1624165224399714947,22,1624165224399714947,-0.003384172264260929,-0.006360325308917292,-0.0002397934694820478,-4.951454822393982e-05,-2.8510383224193315e-05,-7.598068937870636e-05,0.9999999954811951,-0.00361735529652976,-0.0023160611714164612,-0.002346301269170323,0.0,0.0,0.0
1624165224499667406,23,1624165224499667406,-0.004211728345272856,-0.007238499111754007,6.33203836511513e-05,-2.4506337231735767e-05,-3.1814335277285695e-05,-4.487703956575723e-05,0.9999999981866623,-0.0060419397701679525,-0.00448964225341076,0.0019670156401283665,0.0,0.0,0.0
1624165224599614859,24,1624165224599614859,-0.003798786107052685,-0.007260126464852242,-3.517966654655096e-05,-4.265982669127262e-05,-5.307861119208226e-05,-5.8114072907156894e-05,0.9999999959927695,-0.0014149973629531392,-0.0014260155847346566,0.0011180184040302707,0.0,0.0,0.0
1624165224699579954,25,1624165224699579954,-0.003523284230437324,-0.005555265614677827,0.0003306815290198412,-3.1666073621405194e-05,-6.049454558685576e-05,8.051810871252854e-05,0.9999999944272442,0.001515133824755451,0.00676880322930628,0.0036929063240362433,0.0,0.0,0.0
1624165224799361229,26,1624165224799361229,-0.004373835693375302,-0.006333508116736432,0.00040343801737536514,-3.0667668021018794e-05,-6.368631435142831e-05,-5.6003448512058255e-05,0.9999999959335728,-0.0032636277856299303,0.0006298271663737484,0.0020302897018788487,0.0,0.0,0.0
1624165224899354219,27,1624165224899354219,-0.0032051817220954434,-0.005950955957938831,7.678155791490874e-05,-5.2375295476121597e-05,-7.597621026927311e-05,-8.95836550238344e-05,0.999999991729598,0.003398862345505796,0.0038763020412338044,-5.9656627306336595e-05,0.0,0.0,0.0
1624165224999337196,28,1624165224999337196,-0.00266829662502739,-0.006053451942469134,-0.00015249637173614085,-4.890309259730155e-05,-3.625152382440766e-05,-2.7993071556987333e-05,0.9999999977553422,0.003951582026399802,0.002930590963384402,-0.0007383141420556726,0.0,0.0,0.0
1624165225099576712,29,1624165225099576712,-0.0022813091192549454,-0.0060474141466352336,-0.00020002877364676372,-5.010286483222172e-05,-4.16765452703953e-05,-9.841142748638063e-05,0.9999999930339707,0.0036666927323668937,0.0031554193124004384,-0.0005716281983819374,0.0,0.0,0.0
1624165225199522495,30,1624165225199522495,-0.0025764798939750615,-0.00603982399473286,-0.00024078882048534,-4.5569401499625285e-05,-4.359546896522255e-05,-0.00013986205633171366,0.9999999882307252,0.0005687683696552251,0.002602438781326066,0.0003552243248446492,0.0,0.0,0.0
1624165225299378633,31,1624165225299378633,-0.0044008396739081595,-0.005437087973224729,-0.00015731790610931808,-5.163559275701996e-05,-6.106942625972634e-05,2.2701615783695053e-05,0.9999999965444534,-0.007882086941343229,0.005015104487876457,0.001704404705862246,0.0,0.0,0.0
1624165225399599075,32,1624165225399599075,-0.0044756886792797585,-0.006279429500761886,-0.00014270430695241857,-4.7873459446177644e-05,-6.152076984183655e-05,-0.0001575951016359863,0.9999999845435448,-0.004820956765933695,0.0003181937494813091,0.0009233281933886713,0.0,0.0,0.0
1624165225499388695,33,1624165225499388695,-0.004952001001741224,-0.006357303134585153,-0.00024087813414380496,-4.7237020616164715e-05,-6.235969178327584e-05,-0.00015112964295918994,0.9999999855198713,-0.004655151986883219,0.0003077177752140957,5.791246213970251e-05,0.0,0.0,0.0
1624165225599375010,34,1624165225599375010,-0.00511698114870352,-0.006823319433927445,-0.00044084473640205237,-5.2378640550133964e-05,-6.428314564169729e-05,-2.9593510975810786e-05,0.9999999961241786,-0.003966242497913899,-0.0010251441525974381,-0.0017153340645756116,0.0,0.0,0.0
1624165225699355602,35,1624165225699355602,-0.005286866242324591,-0.007348828848658435,-0.00010985728001724137,-3.8714138294742366e-05,-4.534802509386576e-05,-0.00012423306013781992,0.9999999905054489,-0.0030772543379469696,-0.0019235757120479576,0.0022262049754208455,0.0,0.0,0.0
1624165225799341440,36,1624165225799341440,-0.0039006158840841224,-0.007841610548764682,-6.004897813976534e-05,-4.502985292865781e-05,-4.777497855304663e-05,-0.00018915923879544075,0.9999999799543113,0.004807296744973565,-0.0020948398876593725,0.0020689588161072517,0.0,0.0,0.0
1624165225899437428,37,1624165225899437428,-0.002867121137586897,-0.008161427765414333,-0.00034014015699273696,-4.952031115520757e-05,-4.345971056644197e-05,-0.0001045077134484513,0.9999999923685535,0.007274273428811371,-0.0013230125490256307,-0.0002248190627611923,0.0,0.0,0.0
1624165225999230146,38,1624165225999230146,-0.002634564595038656,-0.007603378042309971,-6.492348764860607e-05,-3.450161269680712e-05,-5.156669532497494e-05,-3.245588147945933e-05,0.9999999975485532,0.005499992157918685,0.0019221498437186073,0.002448137780726774,0.0,0.0,0.0
1624165226099290371,39,1624165226099290371,-0.0035512007289647506,-0.006685283386801788,0.00016170332461838387,-2.3853795127229226e-05,-6.347916523832554e-05,-9.568956086674659e-05,0.9999999931224373,-0.0010095425056787944,0.004986412331845817,0.002782397280347736,0.0,0.0,0.0
1624165226199346304,40,1624165226199346304,-0.004099203917040485,-0.006442669863024427,9.167215780319424e-05,-3.8880619979607414e-05,-5.0698247537176434e-05,-9.94114779198426e-05,0.9999999930176583,-0.0033041252431172787,0.004764675992017132,0.0002642541816582414,0.0,0.0,0.0
1624165226299382210,41,1624165226299382210,-0.0033489474999861294,-0.007210564793055954,-0.0002667352498926067,-4.855080756232135e-05,-3.858895331119247e-05,-8.420644760076502e-05,0.9999999945314794,0.0010790006289064292,0.0004422504327870509,-0.0017637809819603073,0.0,0.0,0.0
1624165226399405479,42,1624165226399405479,-0.0031059206638346074,-0.00764117345870525,-0.00018511689140207992,-4.950081552347841e-05,-4.6286456608630806e-05,-4.39329666219118e-05,0.9999999967385497,0.0016952803485990146,-0.0009568885629662313,0.0005275683161356014,0.0,0.0,0.0
1624165226499460220,43,1624165226499460220,-0.0037714487360751316,-0.006926948417503401,-0.00022459137418199757,-4.159785653653118e-05,-4.646686845829143e-05,-0.00012184231176431324,0.9999999906324353,-0.0014039660670521308,0.0034634792121546036,0.00011625662082155369,0.0,0.0,0.0
1624165226599599600,44,1624165226599599600,-0.0035185364968104223,-0.007058230210647748,-0.00031589441740176923,-4.5063419100335056e-05,-4.884656939339039e-05,-0.0001111359104058179,0.9999999916160403,0.00025366491518941797,0.0025779208716834694,3.923409701600918e-05,0.0,0.0,0.0
1624165226699338913,45,1624165226699338913,-0.0034987867233354925,-0.0056391287225202895,-0.00039080992591140423,-4.56800123489958e-05,-5.392828697903538e-05,4.9232478870478826e-05,0.9999999962906041,0.0003299500032296404,0.007785079539917,3.6194043265340325e-06,0.0,0.0,0.0
1624165226799525499,46,1624165226799525499,-0.0029659999158932956,-0.005448884823464294,-0.00010963971721449298,-3.317639934534097e-05,-5.3080603744443376e-05,-0.0001573536110198043,0.9999999856607928,0.002309653035716098,0.005591497684818004,0.002046700706901586,0.0,0.0,0.0
1624165226899472713,47,1624165226899472713,-0.0029636791970556174,-0.00710125211168289,-4.9003130357070195e-05,-3.8690918965106686e-05,-4.041082563539011e-05,-7.532487326677848e-05,0.9999999955980544,0.0005330637219141874,-0.0025303626408866393,0.0013936925874765602,0.0,0.0,0.0
1624165226999449968,48,1624165226999449968,-0.0021794602151686115,-0.00654110731705288,1.6708864645990684e-05,-3.396814143113713e-05,-4.416102948508847e-05,-0.00011247763127349608,0.9999999921223588,0.0038592380669554387,0.001647679710298635,0.0017674430620386041,0.0,0.0,0.0
1624165227099492550,49,1624165227099492550,-0.002476446874181628,-0.0061606823300872264,-0.00016619944035236526,-4.427772226423552e-05,-3.9602533022654014e-05,-0.00013016537615118898,0.9999999897640315,0.0008093678593542901,0.003437460091817708,-0.0008391115149732529,0.0,0.0,0.0
1624165227199553728,50,1624165227199553728,-0.0022133978084694344,-0.00654445846786307,-0.00033557403382620035,-4.48593800473138e-05,-4.7656515988725846e-05,-8.327408489412243e-05,0.999999994390942,0.0014980009524091084,0.0010735832084726627,-0.0012467982675380272,0.0,0.0,0.0
1624165227299512863,51,1624165227299512863,-0.0027666245456182763,-0.0073322046616316194,-0.00040039868232590823,-4.3152478338376886e-05,-5.627034141329144e-05,-0.00010970307853240911,0.9999999914683553,-0.0014764711601430811,-0.0025784942916057094,-0.00017500566564041832,0.0,0.0,0.0
1624165227399323702,52,1624165227399323702,-0.0028788075315427054,-0.007522648182377731,-0.00042073218295944235,-4.53388276702759e-05,-5.824593822142018e-05,-7.263855228743538e-05,0.999999994637703,-0.0015608471827692353,-0.0011162098307334759,0.0012002019121076291,0.0,0.0,0.0
1624165227499506474,53,1624165227499506474,-0.0030343146259232605,-0.0073630676090486406,-0.0003958315436989288,-4.703887614034111e-05,-4.917195898535489e-05,-8.556737927928264e-05,0.9999999940238244,-0.0016324281142059151,1.6623831573105846e-05,0.00034232822878218805,0.0,0.0,0.0
1624165227599315643,54,1624165227599315643,-0.0028900688598409796,-0.006984669890945809,-0.00020961999867964655,-3.032579262164869e-05,-3.2056360743635775e-05,-8.736630446097235e-05,0.9999999952099129,-0.0005118478000428234,0.0024053566985051613,0.001378220197152929,0.0,0.0,0.0
1624165227699521542,55,1624165227699521542,-0.003337986111518548,-0.007086143717520421,-0.00013074214627992395,-2.347569967091454e-05,-2.774835123910787e-05,-0.0001956673286103223,0.9999999801965884,-0.002655280654957664,0.0008516135827037281,0.0018421472657317646,0.0,0.0,0.0
1624165227799259424,56,1624165227799259424,-0.004095269460728101,-0.007376372150286407,-0.00010477682574164233,-3.703333631038416e-05,-4.967159573068285e-05,-0.00011515055615926371,0.9999999914507872,-0.004405121182789699,-0.0002610975677953634,0.001493140682917672,0.0,0.0,0.0
1624165227899479866,57,1624165227899479866,-0.004883597657443319,-0.007069126092579742,-0.00045773785168009206,-4.912112450165485e-05,-5.025306090373125e-05,-0.00011373382599242351,0.999999991063161,-0.00571848796883014,0.0019392032765213458,-0.002025751957067281,0.0,0.0,0.0
1624165227999349833,58,1624165227999349833,-0.00440849020732386,-0.00710520553856271,-0.00014868962143639456,-2.334429480389066e-05,-5.914522876183714e-05,-0.00010419417666987442,0.9999999925502091,-0.0012147973791051146,0.0019830899337329464,0.0015864546371556227,0.0,0.0,0.0
1624165228099544287,59,1624165228099544287,-0.0042629343982721335,-0.007085769206112462,-0.0002263635114440201,-3.232315267865882e-05,-5.1864449116949146e-05,-4.8371634542983426e-05,0.9999999969627176,-4.0463715590041346e-05,0.0016247027765450253,-0.00023035566999919058,0.0,0.0,0.0
1624165228199242592,60,1624165228199242592,-0.0033903221858432963,-0.006299779773816297,-0.00022817250278058963,-4.512917524031406e-05,-4.615013986171667e-05,-0.00012695221992157688,0.9999999898583065,0.004016593460342427,0.005580561422440207,0.00040996393501613207,0.0,0.0,0.0
1624165228299252987,61,1624165228299252987,-0.0026028415786861557,-0.00782919589818389,-0.0002081267060609723,-3.963760490125746e-05,-3.427219468741519e-05,-0.00011370006160128492,0.9999999921632639,0.005459056913866937,-0.0029309130137442326,0.0004822533627834039,0.0,0.0,0.0
1624165228399241686,62,1624165228399241686,-0.0032386662199927717,-0.00777585453895426,-0.0002413234659604798,-3.7357148724411836e-05,-4.157772988076206e-05,-0.00011590282220600913,0.9999999917211132,0.0004261838358161369,-0.0010942715950429394,0.00023567127946424972,0.0,0.0,0.0
1624165228499212027,63,1624165228499212027,-0.004477316397992723,-0.007141288213422108,4.203470043311808e-05,-2.823427230246703e-05,-4.359692045415279e-05,-0.0001556552111948926,0.9999999865367717,-0.004989356369347643,0.0019566884559898403,0.0026558429671751415,0.0,0.0,0.0
1624165228599242449,64,1624165228599242449,-0.003920955569358625,-0.007494343676111824,-0.00018463319464786067,-4.2479325957586346e-05,-6.776896210116213e-05,-8.682831414999043e-05,0.9999999930318363,-0.0005784347630604977,0.0009280962735177113,0.00017917808117491694,0.0,0.0,0.0
1624165228699406385,65,1624165228699406385,-0.003582574821615466,-0.007079632376560277,-0.0003566730100355295,-4.0911270231154296e-05,-5.638194442123003e-05,-2.3716684450467858e-05,0.999999997292408,0.0011266223453723755,0.003378671574270042,-0.0009890760687028058,0.0,0.0,0.0
1624165228799227715,66,1624165228799227715,-0.003111235687735514,-0.007163125985193243,-0.0005890169473780319,-5.0351834191222087e-05,-4.072205507859414e-05,-6.257861404887952e-05,0.9999999959451382,0.0024036835320431567,0.0024208111377668727,-0.001895914308745205,0.0,0.0,0.0
1624165228899221897,67,1624165228899221897,-0.003393996786730439,-0.008449808293818806,-0.0005870874390624862,-4.7658731899310875e-05,-3.919680125733571e-05,-5.902536716655178e-05,0.9999999963541067,-0.001022230669645623,-0.003124598255123312,-0.000693976398789624,0.0,0.0,0.0
1624165228999453545,68,1624165228999453545,-0.003050570175688653,-0.007916319664267764,-0.00018143980181322192,-2.3742411147411046e-05,-2.4429812681433263e-05,-2.8206258290969268e-05,0.9999999990219202,0.001512521155623353,0.0009906281206372857,0.0028189549468142037,0.0,0.0,0.0
1624165229099252939,69,1624165229099252939,-0.003075621654712214,-0.0074844657505418865,-0.00012201266106008318,-4.058797272698637e-05,-4.3884816994721105e-05,-7.524331741334037e-05,0.999999995382567,0.0015877656251730562,0.0031454449234982265,0.002405208946943851,0.0,0.0,0.0
1624165229199302435,70,1624165229199302435,-0.003629450132024363,-0.007964062750674687,-9.030373123438947e-05,-4.062923297827366e-05,-6.97650695867513e-05,-2.264297050962442e-05,0.9999999964846733,-0.0018207200005622357,0.00022128607194396967,0.00244934581421352,0.0,0.0,0.0
1624165229299608231,71,1624165229299608231,-0.0036334187182433452,-0.009370051037898746,-0.00023398030662331236,-2.8254736844535207e-05,-4.648439551996624e-05,7.72060273755111e-05,0.9999999955400253,-0.0014693227971254944,-0.00474994317930242,0.00010484145407255651,0.0,0.0,0.0
1624165229399528742,72,1624165229399528742,-0.0043346091000859045,-0.00791947162081991,-0.00033956918479242254,-4.50395395110228e-05,-5.854015022674063e-05,-0.00011128143391541839,0.9999999910804417,-0.003838993025725924,0.004202332275921725,-6.049406609063266e-05,0.0,0.0,0.0
1624165229499323606,73,1624165229499323606,-0.0030524195542385806,-0.006813953747652066,-0.0003348947206294286,-3.2182369890239665e-05,-3.3098334380606565e-05,-5.491506428549216e-05,0.9999999974265409,0.003280564877017016,0.007598952454122591,-0.000181464560051512,0.0,0.0,0.0
1624165229599256992,74,1624165229599256992,-0.0037824405329337073,-0.0074150398102290445,-0.00032568422327201163,-4.8312671045442094e-05,-3.2280541483435966e-05,-5.2881839074321773e-05,0.999999996913657,-0.0013779606608172686,0.0029136360325227283,0.0005519176288903356,0.0,0.0,0.0
1624165229699190378,75,1624165229699190378,-0.0035289697688419704,-0.007217556527528457,-0.00037261092271622043,-4.451208874662129e-05,-4.215859951356565e-05,-7.447257485097093e-05,0.999999995347556,0.0003015382226340211,0.003601270321680005,-6.36768785394338e-05,0.0,0.0,0.0
1624165229799223423,76,1624165229799223423,-0.0046141564020168845,-0.007822126263310684,-0.00039692318150252816,-4.0593575574287636e-05,-5.750612948694455e-05,-0.00013339470992545664,0.9999999886255031,-0.005361239267662615,-0.0003634266004158087,0.00036908425801616897,0.0,0.0,0.0
1624165229899188757,77,1624165229899188757,-0.004956953414435453,-0.00736670941197708,-0.00012794976311339374,-3.8028746887502064e-05,-5.987459302585587e-05,-7.834291074725404e-05,0.9999999944155913,-0.004408326664211901,0.002483351081255131,0.0022837398881914183,0.0,0.0,0.0
1624165229999331474,78,1624165229999331474,-0.005190489159930986,-0.007920923102652898,-0.00017158360454267953,-2.9383686290935485e-05,-4.571568540191549e-05,-0.0001243258940816308,0.9999999907948465,-0.003942897577814687,-0.0003779633339348887,0.00037826242977845987,0.0,0.0,0.0
1624165230099311590,79,1624165230099311590,-0.00542386039671326,-0.007735804363839697,-0.0001941822405641085,-2.9170266576926383e-05,-4.277991907609132e-05,-0.00010325898276235219,0.9999999933282507,-0.0037123499291605026,0.0012198937521087391,0.0007024523097778202,0.0,0.0,0.0
1624165230199340343,80,1624165230199340343,-0.005258506807339972,-0.007541271527421514,-0.00028486159148828145,-4.430746114133638e-05,-3.7540782672448814e-05,-7.655299277440372e-05,0.9999999953835617,-0.0014261906673628342,0.0022234809207091373,0.00015140213399852508,0.0,0.0,0.0
1624165230299353600,81,1624165230299353600,-0.004404320446701923,-0.007312054399767967,-0.0004456958491443268,-4.264380661543915e-05,-4.347593235767569e-05,-6.833012241241625e-05,0.9999999958111448,0.0033518455243950872,0.003383187309392103,-0.000675998198058552,0.0,0.0,0.0
1624165230399200439,82,1624165230399200439,-0.0038344546888579687,-0.007063929823862234,-0.0001883557101562555,-3.929874218204033e-05,-4.8001909045353095e-05,-0.00015023072790079541,0.9999999867910496,0.00436127231141243,0.0032573285245340745,0.002584340392105543,0.0,0.0,0.0
1624165230499254227,83,1624165230499254227,-0.004480485338779484,-0.0073129050083029995,-0.0001330538864757252,-4.0930291594887284e-05,-4.5711864817430826e-05,-4.7457486855785155e-05,0.9999999969914343,-0.0002245952047625257,0.002033124999807142,0.0011427333358256077,0.0,0.0,0.0
1624165230599474430,84,1624165230599474430,-0.004388749571924637,-0.007206720598244581,-0.00014525461182313883,-3.4982969501368006e-05,-5.242874248882882e-05,-7.251542499579076e-05,0.9999999953844383,0.000388480919464286,0.0013610151182942034,-0.0001776883163391585,0.0,0.0,0.0
1624165230699423075,85,1624165230699423075,-0.00397035225784181,-0.00740094779056248,-0.00012680704852778094,-4.249211323489294e-05,-4.0210757358188584e-05,-5.200646372083075e-05,0.9999999969363936,0.0017267686206586107,0.00036640384788102663,0.0009066524550810308,0.0,0.0,0.0
1624165230799236298,86,1624165230799236298,-0.004075167477554262,-0.008195481920125609,-0.00027729822429449426,-3.860075262173509e-05,-3.450553888123526e-05,-8.213644589804307e-05,0.9999999952864486,1.0161433385641027e-05,-0.002265285425548698,-0.0002093654605195745,0.0,0.0,0.0
1624165230899399757,87,1624165230899399757,-0.004056345333652542,-0.009244817946295891,-0.00038594413457436027,-4.212897828125158e-05,-4.436771060764898e-05,-7.27009928941695e-05,0.9999999954855816,-0.00012784849495301527,-0.004785213669811291,-0.0006385040728847695,0.0,0.0,0.0
1624165230999171734,88,1624165230999171734,-0.004238556033724258,-0.010357952419035246,-5.709987847294819e-05,-1.783346651102211e-05,-4.467515254866473e-05,-7.851414253124675e-05,0.9999999957607841,-0.0007206305711496906,-0.007044853445570125,0.0022786987616603073,0.0,0.0,0.0
1624165231099187136,89,1624165231099187136,-0.0044200492087136094,-0.010056831410347085,1.0533939111130497e-05,-3.319931590341955e-05,-4.765109186169345e-05,-9.506157379649045e-05,0.9999999937952079,-0.0006390360950188549,-0.002857183828104554,0.0017480820969468592,0.0,0.0,0.0
1624165231199386835,90,1624165231199386835,-0.003626190716827915,-0.00937327853092327,-2.4232950166692218e-05,-4.004563439754044e-05,-5.8153485687562146e-05,-3.601792011288159e-05,0.9999999968585841,0.003403977843296812,0.0022260180171760134,0.0009436953144713815,0.0,0.0,0.0
1624165231299175262,91,1624165231299175262,-0.004092149652816821,-0.009031980773719335,-0.0003086261211185452,-3.598598780348211e-05,-4.481920810199318e-05,-0.00011521449056497848,0.9999999917109041,-4.4539827415820445e-05,0.003408011671180592,-0.0012004063525404736,0.0,0.0,0.0
1624165231399170399,92,1624165231399170399,-0.0038733405390187978,-0.00880461037500511,-0.0005822436424876733,-3.914240843121701e-05,-4.347381493602151e-05,-6.242228372106671e-05,0.9999999963406483,0.000857632054415413,0.0034869671087866365,-0.002310533581738587,0.0,0.0,0.0
1624165231499350309,93,1624165231499350309,-0.0037412294645653163,-0.008194430212715759,-0.00043833093323097477,-4.289816252128222e-05,-4.551570754396463e-05,-7.412982125728202e-05,0.9999999952963878,0.0005023387765109979,0.00571704010663447,0.0009106905038306469,0.0,0.0,0.0
1624165231599168062,94,1624165231599168062,-0.004086355872804317,-0.007278323269390256,-0.0004464868385236225,-3.993165795569681e-05,-4.118297999459323e-05,-7.581055962497271e-05,0.9999999954810603,-0.0011748588138434926,0.008174806354154667,0.00019475324517014247,0.0,0.0,0.0
1624165231699132442,95,1624165231699132442,-0.004742430968095659,-0.0074157709175967585,-0.00042528406196745954,-3.9171104176335264e-05,-4.413153107047649e-05,-6.422504056134218e-05,0.999999996196557,-0.003432387831408903,0.004865240021151572,0.0007917507146778279,0.0,0.0,0.0
1624165231799159050,96,1624165231799159050,-0.004814596144800523,-0.007958009101502512,-0.00021466081087993794,-2.289845615726756e-05,-4.290561675481223e-05,-0.00011741412541497705,0.9999999919243149,-0.002178167380126167,0.0008006280541904814,0.0019266317962217323,0.0,0.0,0.0
1624165231899220228,97,1624165231899220228,-0.004478894887611305,-0.008572060310008308,-0.00021935976891255895,-3.137688948542288e-05,-4.6948103647420614e-05,-0.00010152970523238978,0.9999999932515112,6.568887748731192e-05,-0.0015082084679295601,0.0007697394324603368,0.0,0.0,0.0
1624165231999199152,98,1624165231999199152,-0.004983955418754591,-0.008724761114698125,-0.00014453981571823155,-2.23082070305098e-05,-3.98959308764582e-05,-0.00011621398807337078,0.9999999922024525,-0.0018072796396649028,-0.0017170634655281278,0.0005713342790088865,0.0,0.0,0.0
1624165232099214554,99,1624165232099214554,-0.004315266175923583,-0.008952266944395295,-0.00018583844361576008,-3.3257063814477645e-05,-3.710325935699304e-05,-0.00011702998461844118,0.9999999919106173,0.002133805240113765,-0.0010108865504454845,0.0012240657495849465,0.0,0.0,0.0
1624165232199131966,100,1624165232199131966,-0.0047486220763380506,-0.008450014685271604,-0.000361472721906594,-3.9279570457947835e-05,-5.4905733723803106e-05,-7.435849224164472e-05,0.9999999949566131,-0.0003154790830310725,0.0020540212314772055,-0.0004937651266830859,0.0,0.0,0.0
1624165232299127579,101,1624165232299127579,-0.0038485862695797294,-0.009443715295305927,-0.0003677731538486037,-3.311200836370526e-05,-4.397248006285477e-05,-7.914349438267573e-05,0.9999999953531292,0.0032815406814473893,-0.0021960490198382103,8.704789792842458e-05,0.0,0.0,0.0
1624165232399299860,102,1624165232399299860,-0.003426745966546067,-0.009494795274142908,-0.00021510017356696914,-2.0949665257041954e-05,-4.1582355179529054e-05,-4.773190190077528e-05,0.9999999977768095,0.0037353172331556486,-0.0014819569256959667,0.0013835971355230948,0.0,0.0,0.0
1624165232499088764,103,1624165232499088764,-0.004533507302698878,-0.008908568787713978,-0.0003435259988249236,-3.647384717465642e-05,-3.779381657705883e-05,4.305454638125275e-05,0.9999999976937631,-0.00250913383773968,0.0021797436524408874,-0.0005070440021327707,0.0,0.0,0.0
1624165232599246979,104,1624165232599246979,-0.0043851331480517855,-0.008419504027905155,-0.00020698354751553242,-2.799763485747009e-05,-3.662409774625151e-05,-2.9964643025236468e-05,0.9999999984884312,-0.0008823798310226018,0.003909576754114815,0.001156903049550459,0.0,0.0,0.0
1624165232699076176,105,1624165232699076176,-0.0022257704648692774,-0.009760993124192064,-0.0004106107615699382,-3.880594535422665e-05,-4.6128515144634974e-05,2.6817570515646513e-06,0.9999999981795006,0.00870524840846415,-0.0016416773717938876,-0.0006551942343236682,0.0,0.0,0.0
1624165232799154997,106,1624165232799154997,-0.001521494916348529,-0.009902858069879394,-0.00036647898655592766,-3.334396430844362e-05,-4.232054345328255e-05,-6.0785832207805904e-05,0.9999999967010839,0.007844570856114553,-0.00040462126350069856,6.064200819232363e-05,0.0,0.0,0.0
1624165232899137735,107,1624165232899137735,-0.0016558033193769758,-0.010223473076943143,-0.00023626482878477974,-2.4847298488229096e-05,-2.9952672537248623e-05,-4.339515202600299e-05,0.9999999983011212,0.003891292751189634,-0.0013059341878414801,0.0014571667511278574,0.0,0.0,0.0
1624165232999311209,108,1624165232999311209,-0.002655355881126668,-0.009992116714745538,-0.0002673343771687336,-2.8990889180330052e-05,-4.660045861995507e-05,-3.515101207918941e-05,0.9999999978761316,-0.0024282504562383326,-4.7404921448448165e-05,0.00030274056818961625,0.0,0.0,0.0
1624165233099069595,109,1624165233099069595,-0.0027104786517377875,-0.009965685574689418,-0.0002082155342196409,-1.6065658663854045e-05,-3.41830258841498e-05,-5.158699675472698e-05,0.9999999979560643,-0.0015173406395062078,0.0009654995641083181,0.00101438898508561,0.0,0.0,0.0
1624165233199088812,110,1624165233199088812,-0.0033707635074464795,-0.010510234057566969,-0.0004468480230227036,-3.265805527755494e-05,-4.493059479529269e-05,-4.852624817548329e-05,0.999999997279914,-0.003955945418886142,-0.000962248346287977,-0.0009412634916336011,0.0,0.0,0.0
1624165233299159527,111,1624165233299159527,-0.003971885101865782,-0.00978319079756543,-0.0004395824426930865,-2.8919663896990228e-05,-4.326282945502731e-05,-6.415462716569219e-05,0.9999999965880476,-0.004860020622051399,0.0026555168485243733,-0.0004038910767780559,0.0,0.0,0.0
1624165233399183512,112,1624165233399183512,-0.004342127119781018,-0.010144152683321583,-2.8186820231062857e-05,-1.2404106166492344e-05,-5.236732106092685e-05,-8.110949336604626e-05,0.9999999952624916,-0.004625601028854123,0.00018763548546118385,0.0030202795384823055,0.0,0.0,0.0
1624165233499200344,113,1624165233499200344,-0.003630264063130836,-0.010848072472655847,-0.00022165650454084013,-3.4455826962027076e-05,-4.9532289683420067e-05,-9.838579436911298e-05,0.9999999933397575,-0.00027640778273113967,-0.0016205716174798764,-1.8065363187780466e-06,0.0,0.0,0.0
1624165233599198818,114,1624165233599198818,-0.003409177933408899,-0.010547445990571428,-0.00047716185753203587,-3.066867073394588e-05,-3.6352612822576885e-05,-4.730765066000773e-05,0.9999999977499183,0.0010080571718255648,0.0012168111157408032,-0.0014922486219591427,0.0,0.0,0.0
1624165233699365854,115,1624165233699365854,-0.004281310251654196,-0.010085002775909492,-0.000720332202871407,-4.006600289520212e-05,-3.912727543757616e-05,-6.080151352534601e-05,0.999999996583439,-0.003662750226906465,0.0023155128490253253,-0.002386967405305356,0.0,0.0,0.0
1624165233799117565,116,1624165233799117565,-0.003525366393558535,-0.010634214005817896,-0.00015882120237043903,-1.5156911228479615e-05,-3.3590416384162e-05,-6.984348291599978e-05,0.9999999968818847,0.0008486373771171953,0.00032047883838063956,0.0034767051768774576,0.0,0.0,0.0
1624165233899127960,117,1624165233899127960,-0.004421637080270866,-0.010123178445483258,-7.748380391810547e-05,-2.3236733749509888e-05,-3.9362369071836013e-05,-4.982658098611271e-05,0.9999999977139497,-0.003214849977089158,0.0028880654646695142,0.0013232205834840221,0.0,0.0,0.0
1624165233999099255,118,1624165233999099255,-0.004723582054935788,-0.009384069384390525,-0.0002450228226470552,-3.593488717287496e-05,-4.5537758864308084e-05,-6.440244147196077e-05,0.9999999962436255,-0.0031317789215284655,0.0058045465472652226,0.0004620063699270248,0.0,0.0,0.0
1624165234099186897,119,1624165234099186897,-0.003929721076684297,-0.009197813689076424,-0.00011975994467335711,-2.4212808753160956e-05,-4.6681829765013544e-05,-9.058616183104949e-05,0.9999999945143108,0.0019369926607447794,0.004749799279929025,0.0008809150809753288,0.0,0.0,0.0
1624165234198976755,120,1624165234198976755,-0.003945580488169812,-0.009597370739239297,-0.0002835664226906659,-2.8057847178965505e-05,-3.8786906131680504e-05,-6.531698522557511e-05,0.9999999967209758,0.0005765491868412053,0.0013901771892227384,-0.00026586924621051894,0.0,0.0,0.0
1624165234299184084,121,1624165234299184084,-0.0039959828375232325,-0.010122680332535926,-0.00036908616333032135,-3.580290881650789e-05,-3.877856089676895e-05,-9.501611023404664e-05,0.9999999940931203,-0.00022794928125854718,-0.0011423647783546272,-0.0008758542411255511,0.0,0.0,0.0
1624165234399064541,122,1624165234399064541,-0.0043875230370615135,-0.009651455118161017,-0.00045442734037520874,-3.6823970367092095e-05,-4.425688830453662e-05,-4.701966329928551e-05,0.9999999972372007,-0.0015328816694871127,0.0015005359891052895,-0.0006021359440213815,0.0,0.0,0.0
1624165234499295473,123,1624165234499295473,-0.004176405360224514,-0.009413268435005983,-6.2154470181559615e-06,-1.0815977428761495e-05,-3.865721419336311e-05,-6.336861205973736e-05,0.9999999971864901,0.0001377710004454389,0.0023930996025057086,0.003075445043716487,0.0,0.0,0.0
1624165234599086285,124,1624165234599086285,-0.004134086487852026,-0.009638120461390202,-4.260818931200505e-05,-2.2642804465620324e-05,-3.2885668791845764e-05,-4.562110732884248e-05,0.9999999981622375,2.0218879316196044e-05,0.0002568911038493384,7.30049505762117e-05,0.0,0.0,0.0
1624165234699033260,125,1624165234699033260,-0.003692887084814567,-0.01092578753443422,-1.1287841511111326e-05,-1.6980300373864047e-05,-5.127702100919673e-05,1.7466478937069594e-06,0.9999999985396052,0.0018112585639472793,-0.004760592066674176,0.0005243942758358512,0.0,0.0,0.0
1624165234799026489,126,1624165234799026489,-0.003698217534972074,-0.010103456113883911,-0.00024827680233339066,-1.6603566680606865e-05,-4.1929226055112886e-05,4.923477124278021e-05,0.9999999977710622,0.000786154728600425,0.0016607477150954834,-0.0006480314932929745,0.0,0.0,0.0
1624165234899045229,127,1624165234899045229,-0.003953942276179049,-0.01102137755878728,-0.0003553974907182104,-2.5238702222687752e-05,-3.189897127304547e-05,-1.4992308785984458e-05,0.9999999990603099,-0.00152823387621076,-0.0022516263624843408,-0.0011204700720159485,0.0,0.0,0.0
1624165234999105692,128,1624165234999105692,-0.004582341795245953,-0.011392971921481839,-0.0003425954276026828,-1.6483072394196345e-05,-3.291968439857484e-05,5.513034645535829e-06,0.9999999993070675,-0.004023830287003715,-0.002085417881479008,5.652578486957166e-05,0.0,0.0,0.0
1624165235099123001,129,1624165235099123001,-0.005296468226278133,-0.010067553979209786,0.0008800169551663391,1.5680159967070706e-05,-4.216816376087e-05,-0.0003914364268700169,0.9999999223767114,-0.005090254528290174,0.008113977987455646,0.008296602832286542,0.0,0.0,0.0
1624165235199295521,130,1624165235199295521,-0.0059166122867603185,-0.009084988572714378,0.0015394026869791934,-2.5691114877906055e-05,-7.08974429449243e-05,0.00010979832186750862,0.999999991128887,-0.005256947940979531,0.00963308738734862,0.007845019652594157,0.0,0.0,0.0
1624165235299093008,131,1624165235299093008,-0.005902803838535365,-0.010398699155887373,-9.296751917670851e-05,-5.200051746162587e-05,-4.632865063374123e-05,-0.00010813203713862582,0.9999999917284957,-0.0030572881873247365,-0.005886370989033822,-0.007194194737447004,0.0,0.0,0.0
1624165235399073839,132,1624165235399073839,-0.004559128941069981,-0.01181296468168373,-0.00039163378014372085,-7.3435304341925214e-06,-7.827012076498283e-05,-0.00023005935769614643,0.9999999704462392,0.003512068460979478,-0.0035096623128530987,-0.005535258528079331,0.0,0.0,0.0
1624165235499237776,133,1624165235499237776,-0.005164688563512839,-0.010928187369624705,-2.6550507898860154e-05,-6.564399841711567e-05,-9.80067088153906e-05,-2.9056633014000275e-05,0.9999999926205946,-0.0009621511369154083,0.004116018916647013,0.0021038597176640398,0.0,0.0,0.0
1624165235599002838,134,1624165235599002838,-0.004615276617908302,-0.010390630085371427,-0.0003308431461388493,-4.64869814714168e-05,-2.374975470870804e-05,7.977982978114327e-05,0.9999999954550072,0.0021184959176317056,0.003641416384309519,-0.002710386415791535,0.0,0.0,0.0
1624165235699157476,135,1624165235699157476,-0.003774938313641922,-0.009910013923542129,-9.261115344895532e-05,-3.207772187860052e-05,-5.7833645656325185e-05,-0.000130472928414822,0.9999999893015145,0.005484965706023876,0.0030251892146886403,0.002135347196084322,0.0,0.0,0.0
1624165235799202442,136,1624165235799202442,-0.0041642931207025325,-0.009922280811717428,0.0007366488248753888,-2.919053572653876e-05,-6.653629154185092e-05,-0.0001440438715443987,0.9999999869860605,0.002297792106940766,0.005676536010603912,0.007134929418781144,0.0,0.0,0.0
1624165235898983955,137,1624165235898983955,-0.0046945710683868784,-0.007905839169462246,-0.000613238685788238,-0.00014039279619574525,-0.00011984985010275709,0.00013223341288518773,0.9999999742200617,-0.0010504114541604525,0.012807743723423335,-0.006729653167178757,0.0,0.0,0.0
1624165235999224901,138,1624165235999224901,-0.005257337299104229,-0.009098043981327554,0.00015429247393958158,-1.4528365768774005e-05,-6.452766976850627e-05,1.5142679912789713e-05,0.9999999976978652,-0.0031756878728733257,0.001732256230266807,0.0039360869458986685,0.0,0.0,0.0
1624165236099046707,139,1624165236099046707,-0.004361141164586632,-0.01108123311199746,-0.0005076321538180462,-3.1048386043417385e-05,-5.935932899724022e-05,-0.00023437838635205857,0.9999999702895815,0.0019223615539710353,-0.005470821610127059,-0.0038782380713929306,0.0,0.0,0.0
1624165236199056625,140,1624165236199056625,-0.00406891366571751,-0.009956745158683524,-0.00016840643058526993,-4.0759922572927986e-05,-8.362934376552202e-05,-9.18565097387166e-05,0.9999999914535334,0.003140624771071654,0.005006598844382311,0.0024021862110725155,0.0,0.0,0.0
1624165236299237013,141,1624165236299237013,-0.0035691499434984835,-0.009787417106544424,-0.0002635823259041741,-8.0282410180455e-06,-3.4346637532944215e-05,-1.4567505198873976e-05,0.999999999271783,0.003875490588321783,0.003492947507161237,-0.0014148509706868688,0.0,0.0,0.0
1624165236399065495,142,1624165236399065495,-0.002527475514759471,-0.009395551477335637,-0.0003835122309360994,2.438041963917491e-05,-2.148584622101934e-05,-0.000235087820735049,0.9999999718387954,0.005427828488258131,0.006221140560571604,0.0002710309636877635,0.0,0.0,0.0
1624165236499188662,143,1624165236499188662,-0.0029355394010511546,-0.00841007824606597,0.0011652828996299553,6.871009228692822e-05,5.896630443384362e-05,-5.6673136986101286e-05,0.9999999942949875,0.001034626970339638,0.01065457624399814,0.010438190205665766,0.0,0.0,0.0
1624165236599263191,144,1624165236599263191,-0.004019864461452945,-0.00804249603730159,0.001098306671936364,-8.085261803300261e-05,-3.272511410747185e-05,-1.1870664517514853e-05,0.9999999961254646,-0.0033200895052801654,0.005719697020889708,0.005945145751260826,0.0,0.0,0.0
1624165236698989391,145,1624165236698989391,-0.005217132874051379,-0.007458306220994226,0.0005240611856254348,4.2396962251342895e-05,1.799635433049128e-05,-2.122996932739628e-05,0.9999999987139188,-0.006314936171554368,0.007441919570070589,-3.6624259015261354e-05,0.0,0.0,0.0
1624165236799000263,146,1624165236799000263,-0.005969017096584424,-0.007434627173056251,0.0017560911414195102,2.4011497992765942e-05,3.065352745575593e-05,-0.00013785284356982255,0.9999999897401615,-0.00704583823563582,0.008336156586941828,0.008986934692825257,0.0,0.0,0.0
1624165236898913145,147,1624165236898913145,-0.007012866990792158,-0.007500109465224173,0.0016678223462490828,5.022492667495255e-05,1.3606383579652882e-05,-2.1366419849286453e-05,0.9999999984178596,-0.009537442285325534,0.00832215798541817,0.003722521755417739,0.0,0.0,0.0
1624165236999300241,148,1624165236999300241,-0.00858433559967525,-0.006675086615852839,0.006453377244975392,0.00023200900135432093,4.047408744884711e-05,-1.4738261514736946e-05,0.9999999721581871,-0.002043908088890425,0.011828710855456717,0.03975314558538563,0.0,0.0,0.0
1624165237098958492,149,1624165237098958492,-0.007905235140931463,-0.009880745795069003,0.009042778242585738,0.0003996512402924355,9.181442064475832e-07,-0.00031170841888655934,0.9999998715579042,-0.008469863994144084,-0.01597504265124028,0.02572435295852186,0.0,0.0,0.0
1624165237198999166,150,1624165237198999166,-0.009051754639730295,-0.008211371662066286,0.002551764920634728,-0.00010073240485595117,0.00014191459745466827,-0.00015027398216637712,0.9999999735654397,0.0007571949693355286,0.007397269532440697,-0.03188181814452251,0.0,0.0,0.0
1624165237299017429,151,1624165237299017429,-0.011996615295995106,-0.006429280470180514,0.0020246159417696657,-8.59325556619148e-06,-0.0001857818979476823,-0.00017406219837311733,0.999999967556756,-0.01480197320614822,0.016631765176109838,-0.013136701962096872,0.0,0.0,0.0
1624165237399061203,152,1624165237399061203,-0.0116144046473089,-0.004581987991057343,0.005232928180119759,0.0001825678673885144,3.963573908523923e-05,-0.0002918425982510553,0.9999999399628986,-0.011609699584919126,0.01587130157357898,0.02111719185600891,0.0,0.0,0.0
1624165237499065876,153,1624165237499065876,-0.009725838938430997,-0.00500281854933747,0.006978059952831476,0.0002708801487855107,-7.268108399416128e-05,-0.00039430063242669726,0.9999998829341614,0.01215836184202858,0.0009654771050852653,0.019053648552217823,0.0,0.0,0.0
1624165237599074364,154,1624165237599074364,-0.010128108483539447,-0.0045450337065719515,0.005503264714409563,7.770176763074076e-05,2.8235051530873908e-05,-0.00018257224824032582,0.9999999799162556,0.010804884487974852,0.008994804616134118,0.0011354072377696527,0.0,0.0,0.0
1624165237699199438,155,1624165237699199438,-0.011041669456895865,-0.005092023486428924,-0.00011505660658025014,-0.0001837706462832011,-0.00013228284088849564,-0.00011354677099288293,0.9999999679183248,-0.005955939186044207,0.004238229341241489,-0.041758041180612854,0.0,0.0,0.0
1624165237799021006,156,1624165237799021006,-0.013077100235234484,-0.006638251668312641,0.004576750694700978,0.00017898197235755319,0.00010336902993332873,-0.00026171062273642017,0.9999999443938824,-0.015803022802244465,-0.011423567574612922,0.024950525008197957,0.0,0.0,0.0
1624165237898949862,157,1624165237898949862,-0.01339149886345538,-0.00930061405615498,0.007431983328530815,0.0002107289521789207,-0.00010985099564564574,-0.00041063281791853127,0.999999887453332,0.005153246519850007,-0.019055412620888685,0.029861763024664083,0.0,0.0,0.0
1624165237998934269,158,1624165237998934269,-0.01075666413663866,-0.009740135658394865,0.006843770646597313,0.0001283819560736292,-0.00015271931265028066,-0.00020186173372331264,0.9999999597233222,0.02050152373693879,-0.010471511217094505,0.010394555925454477,0.0,0.0,0.0
1624165238098868132,159,1624165238098868132,-0.007359839382017807,-0.009055691660833929,0.003250122486197619,-4.248609024281812e-05,-0.00012240078226315447,-0.00016950957634923448,0.999999977239702,0.02070644106528716,-5.855288132095883e-05,-0.025644951529435113,0.0,0.0,0.0
1624165238199076891,160,1624165238199076891,-0.005594851204179013,-0.006718811454749691,0.004039170206819572,0.0002466033297204484,2.2525233372933017e-05,-0.000221335069527964,0.9999999448450577,0.019555879376626794,0.006361484607591672,-0.0026780648797113116,0.0,0.0,0.0
1624165238299089670,161,1624165238299089670,-0.004793837404838667,-0.005590126302139096,0.003403588674586819,8.831870773484823e-05,-5.88025266945966e-05,-0.00030552268463238233,0.9999999476989375,0.024973132217606213,0.014891352209799064,-0.002061026951136722,0.0,0.0,0.0
1624165238398894310,162,1624165238398894310,-0.006566628382329218,-0.005406693785412809,0.0030634212174543538,8.280018652167e-05,9.888648670893673e-05,-0.000245315044241196,0.9999999615930192,0.0057120856958754115,0.007273927724911172,0.0024094079364523928,0.0,0.0,0.0
1624165238498903513,163,1624165238498903513,-0.009407901675247236,-0.007477297509732929,0.00447013118601119,6.225871797989314e-05,7.96054603980926e-06,-0.000250898041272357,0.9999999665552862,-0.012801496471542006,-0.00599727479105024,0.012021579264425063,0.0,0.0,0.0
1624165238599060535,164,1624165238599060535,-0.009401373040158145,-0.007702701343761519,0.008246406828755664,0.0002574522305545732,-0.0004621926594086244,-0.0002033009389531347,0.9999998393824577,0.008409113862143488,-0.0017951152304985344,0.04300783011661443,0.0,0.0,0.0
1624165238699150562,165,1624165238699150562,-0.0009959025250837158,-0.0077129564817845836,0.005199041350183947,0.00010461046525390847,-0.0007512803944044257,-0.00019707608821968885,0.9999996928976287,0.06045181844251441,0.003468570075814495,-0.006868463486668204,0.0,0.0,0.0
1624165238799349785,166,1624165238799349785,0.01298591652957172,-0.01609712015905399,-0.00035904418160434526,-0.00016352720330629105,-0.0010633370298732563,-3.821004393466983e-05,0.999999420556394,0.08497129577913452,-0.04067117785515739,-0.040968618028134396,0.0,0.0,0.0
1624165238899300814,167,1624165238899300814,0.02842151904951438,-0.01747494379896763,-0.0030453802215272066,8.753972888268856e-05,-0.0008722345146008193,9.503079081639748e-05,0.9999996112563304,0.1038643379937931,-0.021843622638748686,-0.03833986889833896,0.0,0.0,0.0
1624165238999152184,168,1624165238999152184,0.03438059412088446,-0.016709162188235326,-0.003421161683460578,5.718490286154915e-05,-0.0005303856711409297,-0.00012158100077060591,0.9999998503194403,0.06275369854507631,-0.017007754085253714,-0.013517501338147959,0.0,0.0,0.0
1624165239099338293,169,1624165239099338293,0.0359095271725184,-0.015156431467508221,0.0027078825386536807,0.00034486228994031956,-8.87201847486548e-05,0.0002751959383106466,0.9999998987329161,0.022157768028200544,-0.004519563063846233,0.028454673174299398,0.0,0.0,0.0
1624165239199082851,170,1624165239199082851,0.027331050131185138,-0.013095686647737458,0.0010412607375309656,2.062163351775225e-05,5.4598659846234464e-05,0.00012345587954204062,0.9999999906761488,-0.04651094176678962,0.004621095929952383,-0.00035488224811216704,0.0,0.0,0.0
1624165239299309969,171,1624165239299309969,0.021864847445363097,-0.009080945497522678,0.0002357147245239782,8.231675588696018e-05,-1.455243709307015e-05,-0.0001229962213184733,0.9999999889420125,-0.06667768020151088,0.019685712700215574,0.000804810800263124,0.0,0.0,0.0
1624165239399276018,172,1624165239399276018,0.015193785390809149,-0.008461330098704298,0.012971964389082085,0.0011812901439853564,-0.0006655828891989105,-0.0004924934889391186,0.9999989595010055,-0.09208162060948408,-0.007022671941382783,0.06470831300491382,0.0,0.0,0.0
1624165239499286652,173,1624165239499286652,0.007059772712077649,0.0101892759611528,0.018537089132466735,0.0019258044132783995,-0.0021278343387783143,-0.001652478766398569,0.9999945164410814,-0.10538985753402672,0.06637022801959477,-0.0153051087256105,0.0,0.0,0.0
1624165239599113703,174,1624165239599113703,-0.006032044082179014,0.035499555347858126,-0.004315884351501287,0.002746647231411345,-0.0020761942853923425,-0.0027042304336261785,0.9999904161960524,-0.13208521946719742,0.14975049190766196,-0.25566620382648486,0.0,0.0,0.0
1624165239699154139,175,1624165239699154139,-0.018717998612524874,0.0504938998873258,-0.04938660629355416,0.0024696083046136332,-0.0033029860210241867,-0.002239745981971554,0.9999889873673705,-0.14772761212082697,0.14342167050737442,-0.4500872755229305,0.0,0.0,0.0
1624165239799162865,176,1624165239799162865,-0.024391620420881492,0.05624715889510919,-0.08836341792027565,0.0028695414643606903,-0.0035669901942152753,-0.002913964622826279,0.9999852754530103,-0.11994983367565785,0.09539366348026862,-0.46616700726906185,0.0,0.0,0.0
1624165239899123669,177,1624165239899123669,-0.03408963511438688,0.05330459585785909,-0.1335475709016995,0.003796764553482517,-0.0038266969175250734,-0.0022744415125941267,0.9999828837961923,-0.1251340606500093,0.023790661255690536,-0.5259359877346788,0.0,0.0,0.0
1624165239998111010,178,1624165239998111010,-0.03374195487724571,0.05038992741386539,-0.17955433551405595,0.002613129898269946,-0.005016131275103261,-0.0025987484021002165,0.9999806280552758,-0.07879163350618293,-0.005946209071424489,-0.5393361476004152,0.0,0.0,0.0
1624165240099161863,179,1624165240099161863,-0.028545842134597068,0.05181795227274125,-0.22722647030468035,0.0024337429790321032,-0.005156906737121926,-0.002335669211922654,0.9999810137483935,-0.0216304903679565,-0.0005615330245902599,-0.5430188920286314,0.0,0.0,0.0
1624165240198946953,180,1624165240198946953,-0.02743770221256753,0.0554604726903473,-0.26825241839431435,0.0024658997101997997,-0.005880095545527524,-0.0024520289704544006,0.9999766654121671,-0.01989739442867471,0.0028615691181204314,-0.5034615758052865,0.0,0.0,0.0
1624165240299102068,181,1624165240299102068,-0.018252215753594786,0.0515172650920207,-0.3162481210200705,0.0034291731637773218,-0.006141954659177339,-0.0025737204332687757,0.9999719461702029,0.028372644347437116,-0.0245528214982301,-0.526062017955391,0.0,0.0,0.0
1624165240399282217,182,1624165240399282217,-0.0049516263061379455,0.05230141340983766,-0.3934069314327768,0.0030893354445544305,-0.006186883917973292,-0.0027615190752851254,0.9999722758587894,0.07498433721054157,-0.010056534635949122,-0.7103668390673767,0.0,0.0,0.0
1624165240499033451,183,1624165240499033451,0.014790954734072166,0.04437302092257215,-0.5012110918922068,0.0024645948855716465,-0.005437244421888738,-0.0030624225808122585,0.9999774916031836,0.13409577448902854,-0.05766323823247224,-0.950616348581173,0.0,0.0,0.0
1624165240599000692,184,1624165240599000692,0.020996279897755207,0.044960935046315625,-0.634181691414632,0.0024576193491531303,-0.004521831108584118,-0.0026124023843380854,0.9999833441134182,0.07631270782978054,-0.031193637773639406,-1.1869126261274774,0.0,0.0,0.0
1624165240698846579,185,1624165240698846579,0.024640878238101724,0.042934655703490594,-0.7770269985528636,-0.0005596702766810921,-0.0020564850073433536,-0.0020318956133623277,0.9999956645099639,0.03138744755763108,-0.040124048965339366,-1.3534239957879923,0.0,0.0,0.0
1624165240799107075,186,1624165240799107075,0.020494377469849348,0.03980495456337327,-0.9022630150937656,-0.0005756816787430145,-0.00048797630051849674,-0.002089951589226822,0.9999975312829535,-0.03302299461889371,-0.05514540455910234,-1.3287716027404766,0.0,0.0,0.0
1624165240899081945,187,1624165240899081945,0.025587064615259072,0.042348262997660764,-1.001116935698845,0.0011659071918526042,0.004659409262034203,-0.0016893075173334455,0.999987038318884,-0.005135421881446618,-0.02665351505072653,-1.1614949178218101,0.0,0.0,0.0
1624165240999240398,188,1624165240999240398,0.032218597743027357,0.03571270381804462,-1.079464945477652,0.005173235322687335,0.006843047696275786,-0.0015828526778075235,0.9999619517320815,0.007089451473737747,-0.0660282150685479,-0.9806314165515724,0.0,0.0,0.0
1624165241099269152,189,1624165241099269152,0.027659544570480595,0.03856135951669893,-1.1765344767589798,0.008803602122203656,0.005014822545263687,-0.0017212570545100101,0.9999471913149093,-0.05669318387476671,-0.009755112906044312,-0.9949512555545454,0.0,0.0,0.0
1624165241199265957,190,1624165241199265957,0.015019922765339857,0.03658986049976491,-1.2930282119974894,0.012908594434627664,0.002335524983883158,-0.0014260467515667806,0.9999129361616159,-0.12959526404388086,-0.015557698103528987,-1.1004848042337891,0.0,0.0,0.0
1624165241298903227,191,1624165241298903227,0.0030810748127196087,0.0334632697419818,-1.406516976994105,0.01594593802013338,-0.00023521851205724208,-0.0010909373055577969,0.9998722326320573,-0.14767436811334717,-0.022135053794726123,-1.151085158346315,0.0,0.0,0.0
1624165241399258852,192,1624165241399258852,-0.012762161753443748,0.03858595577485854,-1.521964920688703,0.01695516997442882,-0.0038139399455368265,-0.0010618456637196724,0.9998484127891217,-0.171167222376365,0.03029685596101125,-1.1592590614177125,0.0,0.0,0.0
1624165241499030828,193,1624165241499030828,-0.029760868832025562,0.04297857458655638,-1.653857452051892,0.016289748851728587,-0.008047244065268449,-0.0015309820464551485,0.9998337572012583,-0.17971726610254254,0.047716504449443226,-1.2760617064539188,0.0,0.0,0.0
1624165241599238396,194,1624165241599238396,-0.04531401793187598,0.04497402340635773,-1.7868591563016272,0.014351316749353422,-0.010824310819830159,-0.0016583282202086642,0.9998370486985662,-0.165899572507402,0.036044671479112826,-1.329523666547361,0.0,0.0,0.0
1624165241699238777,195,1624165241699238777,-0.05910707710262632,0.04710395322360185,-1.9143917284684824,0.012370129455282718,-0.012502793961441156,-0.0017849803326301038,0.9998437247317891,-0.1475283018857319,0.03084503173247556,-1.296982437306044,0.0,0.0,0.0
1624165241799207687,196,1624165241799207687,-0.07218374874688605,0.0579682977693883,-2.0359681112499666,0.011508196797557376,-0.015235626994858233,-0.0016581223687111434,0.9998163269854415,-0.13340415586280777,0.08299462753403063,-1.256080147399566,0.0,0.0,0.0
1624165241897283077,197,1624165241897283077,-0.08495058387761356,0.06501618982794968,-2.1639834997659895,0.010024519156846113,-0.017478134722046165,-0.00169273155981086,0.9997955583428472,-0.12362041826015639,0.07271746951113982,-1.2851471608655398,0.0,0.0,0.0
1624165241997242451,198,1624165241997242451,-0.09862853239049048,0.07028436679376264,-2.283116501737101,0.00960347889754765,-0.017711165988524277,-0.0012577686694281822,0.9997962321444662,-0.12501811946227548,0.05905644016070972,-1.196312804827124,0.0,0.0,0.0
1624165242097249985,199,1624165242097249985,-0.10641700545365745,0.07543455320381207,-2.400632000198286,0.009094346779573794,-0.015767916083229035,-0.0006384581785689726,0.9998341152661796,-0.08657519682525558,0.04692574976720413,-1.1476226643089575,0.0,0.0,0.0
1624165242197249174,200,1624165242197249174,-0.11033889412351251,0.07617935644331315,-2.5173247968834325,0.009043765546523733,-0.013035389976389497,-0.00048123651304847123,0.9998740207267239,-0.053057362134053515,0.014697596982816637,-1.161395353037777,0.0,0.0,0.0
1624165242297977686,201,1624165242297977686,-0.11247511206758912,0.07129307151907809,-2.633802487031291,0.010419080210973302,-0.01269879346717314,-0.00041726018483991624,0.9998649955398363,-0.031847434666334426,-0.029959039618680103,-1.127599274336044,0.0,0.0,0.0
1624165242398554087,202,1624165242398554087,-0.11606496523369078,0.06850352465746772,-2.7520714235460146,0.012756857454950466,-0.01217742786194899,-0.0008118277348955186,0.9998441447416553,-0.03721061490603706,-0.030977796820183277,-1.12809226542818,0.0,0.0,0.0
1624165242497200966,203,1624165242497200966,-0.12191796186162975,0.06928301537387685,-2.860472504000635,0.013902088607513975,-0.012548152628828893,-0.0009334628219148343,0.9998241867673605,-0.05390637959680653,-0.0024435011762660858,-1.0926130994115588,0.0,0.0,0.0
1624165242598588705,204,1624165242598588705,-0.12920439596771313,0.0793365723341274,-2.9674629724168136,0.013631022003707161,-0.01514699453430189,-0.000797340718614679,0.9997920423985137,-0.06351918608292785,0.06025467988344399,-1.069825758486488,0.0,0.0,0.0
1624165242697285652,205,1624165242697285652,-0.12971110080699835,0.08989242509878269,-3.076175015882744,0.012500509594189205,-0.017474713753216197,-0.000749150164037221,0.9997688784979554,-0.013438513851118446,0.09116651491495122,-1.122227537278221,0.0,0.0,0.0
1624165242797138691,206,1624165242797138691,-0.12573123949140425,0.10112745314401467,-3.188767969157679,0.011017030271886021,-0.01962624404072587,-0.0009031647275744021,0.9997462777536187,0.03349987827178651,0.10151656601157033,-1.140784455269812,0.0,0.0,0.0
1624165242898077250,207,1624165242898077250,-0.12016176544763066,0.1100878447458103,-3.308911992680737,0.009627857536936263,-0.02032436704430836,-0.0008729178825965015,0.9997466991582243,0.05900291185750802,0.09606603627558839,-1.1190479517153378,0.0,0.0,0.0
1624165242997084856,208,1624165242997084856,-0.11662589813834615,0.1174999356046982,-3.4227040804791375,0.007619217837910556,-0.018849061182258053,-0.0008405052643759793,0.9997929555477391,0.051011386092131204,0.07668621218856492,-1.1206393682934364,0.0,0.0,0.0
1624165243097241402,209,1624165243097241402,-0.10951665745909873,0.1215462002235707,-3.5244508105582617,0.006391284626584798,-0.01652284880122956,-0.0010838885779658075,0.9998424736596065,0.07287281635888622,0.04922932479273085,-1.0478119892303752,0.0,0.0,0.0
1624165243197200775,210,1624165243197200775,-0.09811380473880835,0.12713960407476782,-3.625513844787386,0.004747752086609408,-0.01453919303454208,-0.0011817727189217641,0.9998823301414843,0.10605108167678674,0.04492258137232706,-1.0089285875669425,0.0,0.0,0.0
1624165243297195673,211,1624165243297195673,-0.08343333864789643,0.12724579037844724,-3.7241071936196946,0.006024673590025336,-0.015189027525578632,-0.0012614005824586412,0.9998656937906335,0.1374871975692318,0.015482028618885674,-0.9925360586584941,0.0,0.0,0.0
1624165243397124290,212,1624165243397124290,-0.07103754104048554,0.12681793619488033,-3.8260614636329517,0.0069564385095819276,-0.01612650961023593,-0.000989982299055088,0.9998452698222834,0.13779262426573652,-0.006664143697728639,-1.0364562225716358,0.0,0.0,0.0
1624165243497960567,213,1624165243497960567,-0.05611256801971956,0.12367770963156371,-3.933430204991433,0.00786924128721945,-0.01700624977484362,-0.0010003469268037562,0.9998239154051466,0.15657899865765357,-0.029607164873432533,-1.0857700066460316,0.0,0.0,0.0
1624165243598719120,214,1624165243598719120,-0.035972466963838934,0.1160737584514337,-4.0515683095821275,0.009605064372070102,-0.016526110060069703,-0.0006827910155418735,0.999817065377968,0.19647189053447833,-0.0621220869283729,-1.1729709129038657,0.0,0.0,0.0
1624165243698958158,215,1624165243698958158,-0.014827437524477932,0.11540791287063011,-4.172279546488063,0.009321441636378717,-0.015638384840596202,-0.0006760425706187453,0.9998340335334325,0.21838205063645486,-0.03380898077448779,-1.2520180820849618,0.0,0.0,0.0
1624165243797785759,216,1624165243797785759,0.009893817852543648,0.11602718099910159,-4.29686027107344,0.008112598125301676,-0.01368994218674135,-0.0006959811060947833,0.99987313537507,0.24153862492049916,-0.01129220913238298,-1.2496605146587902,0.0,0.0,0.0
