%time,field.header.seq,field.header.stamp,field.pose.pose.position.x,field.pose.pose.position.y,field.pose.pose.position.z,field.pose.pose.orientation.x,field.pose.pose.orientation.y,field.pose.pose.orientation.z,field.pose.pose.orientation.w,field.twist.twist.linear.x,field.twist.twist.linear.y,field.twist.twist.linear.z,field.twist.twist.angular.x,field.twist.twist.angular.y,field.twist.twist.angular.z
1609055982634431839,0,1609055982634431839,-0.0009773180820022054,0.0056470939470345035,0.0007881434247824002,-6.877451639127959e-05,-3.571527548384735e-05,0.00012717908953953326,0.9999999889099818,-0.0012690730843186468,0.001926540313984008,0.0014282141802530264,0.0,0.0,0.0
1609055982734516144,1,1609055982734516144,-0.005196716686063344,0.008773568566493613,0.0005570772453606098,-6.246310435922017e-05,1.2689319498030114e-05,7.857914703423333e-05,0.9999999948813293,-0.041505909945889805,0.03431935327269579,-0.001368013170277833,0.0,0.0,0.0
1609055982834575415,2,1609055982834575415,0.0003526611139740937,0.0025703212569272763,0.0007181630694603022,-3.0320714434989068e-05,-1.631723577076553e-06,8.580214888026395e-05,0.9999999958579908,0.02266001852855258,-0.027914040589456603,0.0007685939069766296,0.0,0.0,0.0
1609055982934544325,3,1609055982934544325,0.002703695324407664,0.006954074430149558,0.000615455653386129,-2.7450415745751332e-05,-2.716104444924531e-06,2.9641258698980186e-05,0.9999999991802458,0.024815734588947192,0.010139113012826766,0.0005169735309513467,0.0,0.0,0.0
1609055983034482002,4,1609055983034482002,0.0006805403992249887,0.006641092685836079,0.0007409136441749611,-3.644519953670757e-05,3.3033460434129904e-05,0.00020033409205739568,0.9999999787233931,0.002067881913022842,0.004598746049219096,0.0019547834969246333,0.0,0.0,0.0
1609055983134457350,5,1609055983134457350,-0.0026204919680638617,0.010550145894831353,0.0006627480064565917,-6.966146643182812e-05,1.757230799861947e-05,8.89415736778708e-06,0.9999999973796926,-0.016754176657368548,0.021765175170501135,0.0007058738537293135,0.0,0.0,0.0
1609055983234447956,6,1609055983234447956,-0.0033583944724223797,0.011258560280978496,0.000825148400307235,-4.9295436433595076e-05,4.3421043898456095e-05,0.0001013098427948053,0.9999999927104433,-0.014502906981328414,0.018628750970497713,0.0013276837291777365,0.0,0.0,0.0
1609055983334441185,7,1609055983334441185,-0.0028397763739186005,0.007559170275705424,5.207117641898831e-05,-4.192994425739626e-05,-3.3573099357140125e-06,6.827518932140082e-05,0.9999999967845523,-0.00694807150010825,-0.00521624208605579,-0.0038863493564105837,0.0,0.0,0.0
1609055983434406757,8,1609055983434406757,-0.0031018958273860402,0.008030411929284133,-0.0001096667486453265,-4.918299486089808e-05,-1.0048030269817654e-05,0.00022567927647360424,0.9999999732744663,-0.004947367132984673,3.940368319008906e-05,-0.002266058095112577,0.0,0.0,0.0
1609055983534471750,9,1609055983534471750,-0.0024665193711182927,0.00919708417112284,-2.1073464359470543e-05,-3.706711956029822e-05,-1.0226495583626347e-05,0.00013916541386328778,0.9999999895772175,-8.91320291063211e-05,0.006221629752744562,-0.00012049120869239141,0.0,0.0,0.0
1609055983634477854,10,1609055983634477854,-0.0032340842761655166,0.006788794725431892,0.0004656580742333243,-3.1884950011604745e-05,1.372828180532884e-05,0.00011783158838140992,0.9999999924553008,-0.004549195045348774,-0.006282368594462912,0.0037195409530368043,0.0,0.0,0.0
1609055983734443426,11,1609055983734443426,-0.0037575049827666728,0.006676549855374188,0.00039549692882316536,-3.919293367496058e-05,1.0669307408661649e-05,8.184082007373154e-05,0.9999999958260808,-0.0051799875433357,-0.0040726731109154615,0.001470413321544245,0.0,0.0,0.0
1609055983834506750,12,1609055983834506750,-0.00492966709386854,0.008694784010895176,0.0004372666338385731,-4.866240699031642e-05,1.406379186954787e-05,7.711930920466684e-05,0.9999999957433968,-0.007955070996441074,0.006914709306786295,0.0012231184085666025,0.0,0.0,0.0
1609055983934511662,13,1609055983934511662,-0.003333463274658579,0.004140840421807533,0.00030644512917698467,-5.148995099010469e-05,1.381454681770813e-06,0.00016168825236397656,0.9999999856018932,0.002077331752744679,-0.013451952692460424,-0.0003047827522452047,0.0,0.0,0.0
1609055984034505844,14,1609055984034505844,-0.0034662445024213552,0.004988249481517822,0.00025328138953789473,-3.648440320467265e-05,1.9897039210040027e-05,9.976327660190748e-05,0.9999999941601424,0.0009615849152651889,-0.004290682619996147,-0.00023480042798522697,0.0,0.0,0.0
1609055984134447575,15,1609055984134447575,-0.003101115587324411,0.0073732306524366825,8.787576306861405e-05,-4.8014253707839674e-05,3.075510044160469e-05,0.00016595460534835245,0.9999999846039116,0.002897785160800908,0.007899547224734738,-0.0014334044939168047,0.0,0.0,0.0
1609055984234430075,16,1609055984234430075,-0.003213084469101705,0.009610368337677613,6.578154838302406e-05,-3.864410800533086e-05,3.390593031270268e-06,0.00012561967387903636,0.9999999913574169,0.0012783283964129147,0.015173059532365443,-0.0008333559657757691,0.0,0.0,0.0
1609055984334445715,17,1609055984334445715,-0.0013023361920376218,0.008197766152261962,-8.928757896912677e-05,-5.899629017512618e-05,2.960289749823565e-06,0.00011220064144491132,0.9999999919608451,0.008909261951852824,0.005170992125448222,-0.00036794318950493293,0.0,0.0,0.0
1609055984434386969,18,1609055984434386969,-0.0008771230553325099,0.009458626255492356,0.00013524788280688954,-4.984116714968878e-05,-1.0754140717076657e-05,6.493977515717781e-05,0.9999999965915167,0.007157633148682583,0.009290027036918818,0.0016946695394667061,0.0,0.0,0.0
1609055984534419537,19,1609055984534419537,-0.0009247079131051142,0.007963189157203093,0.0003971487871692254,-4.314533652278498e-05,-7.264054545221697e-07,8.952406299342086e-05,0.9999999950616985,0.0034093436259852302,0.0011912760328566252,0.0027734651715563175,0.0,0.0,0.0
1609055984634435654,20,1609055984634435654,-0.00044865537401592674,0.009354302107992946,0.0002038995767243068,-6.182423282887121e-05,1.712763322172525e-05,-3.555398258713334e-06,0.9999999979358848,0.004073979368408683,0.0072283583689382045,0.00063391374794483,0.0,0.0,0.0
1609055984734443665,21,1609055984734443665,-0.0008677605787449969,0.006901258739879936,0.0004212270103187556,-4.3561591832155574e-05,4.128888754531711e-05,0.0001100724935510477,0.9999999921408317,0.00017843232183855024,-0.004289162864492761,0.0016398354164506009,0.0,0.0,0.0
1609055984834426880,22,1609055984834426880,0.00044080421853134237,0.009676566189778094,0.0003143713775762283,-4.6541803209338444e-05,2.2200259388587267e-05,7.831332969566326e-05,0.9999999956040164,0.006791108623921718,0.009417842091392048,-0.00036669431489103413,0.0,0.0,0.0
1609055984934325218,23,1609055984934325218,0.0004485243962003524,0.008069144301312623,0.0003423175939318182,-5.883914166226822e-05,1.5017992643282337e-05,8.459217651105885e-05,0.9999999945782903,0.003375048648680945,0.0008782343354911959,0.0007285394229486245,0.0,0.0,0.0
1609055985034329414,24,1609055985034329414,-0.0010197501937841962,0.007393120170155464,-1.274321484338471e-05,-5.0721607136229676e-05,2.7796949708868455e-05,0.00012064744067496052,0.9999999910494224,-0.004682715016667095,-0.001545215418067329,-0.002193177943708877,0.0,0.0,0.0
1609055985134367943,25,1609055985134367943,-0.003269730687544208,0.01060401929521444,-0.0002514913426757923,-4.921869082106207e-05,2.140428500474378e-05,0.00013957632589028102,0.9999999888189138,-0.012135509728066977,0.011561645310839749,-0.0015840147320694072,0.0,0.0,0.0
1609055985234344959,26,1609055985234344959,-0.004365387785144151,0.011856514130155522,0.0004766186120871654,-4.3117547780867325e-05,3.401656991683098e-05,2.7337259979512344e-05,0.9999999981182128,-0.01192473733321267,0.013335277019283196,0.004322103582326311,0.0,0.0,0.0
1609055985334342003,27,1609055985334342003,-0.003909479051562409,0.012139012156276888,0.0004979881895671464,-4.032867697068284e-05,1.7003495668885896e-05,7.235321494232367e-05,0.999999996424746,-0.0053421404188542165,0.010867000901183924,0.0018576639841844022,0.0,0.0,0.0
1609055985434362411,28,1609055985434362411,-0.004527806382709287,0.010746470216788194,0.00043420225239180094,-4.360078878465939e-05,1.5808296627796282e-05,9.099052181498305e-05,0.999999994784897,-0.005722275371608196,0.0024077487071505043,0.0010952907403630962,0.0,0.0,0.0
1609055985534376144,29,1609055985534376144,-0.0053592859025882655,0.007654297064067882,0.0002773257970930696,-3.807482988311194e-05,-1.4852355162412378e-05,9.934588056180945e-05,0.9999999942300557,-0.007831469084281954,-0.009523497718761587,-0.0007540312675169982,0.0,0.0,0.0
1609055985634405613,30,1609055985634405613,-0.003881358840327732,0.007707223868577239,-1.3422508263443292e-05,-4.601140301215708e-05,2.179204969528143e-05,0.0001148260508025079,0.9999999921115178,0.0016070609733119037,-0.004932716823406007,-0.0020571110345452407,0.0,0.0,0.0
1609055985734364033,31,1609055985734364033,-0.003593564078810411,0.00686263600370162,9.638399658350976e-05,-5.1935801287894804e-05,7.57699510049758e-05,4.233711587438906e-05,0.9999999948845779,0.002195032653406409,-0.005308071937091981,-0.00037628672140890265,0.0,0.0,0.0
1609055985834353685,32,1609055985834353685,-0.003833500124448573,0.012605124420757443,0.00037190330530569667,-5.554161948983684e-05,1.9250038170197553e-05,9.873148369820486e-05,0.9999999933983289,0.0013265464274251882,0.01877543134476449,0.0024544849674008463,0.0,0.0,0.0
1609055985934375763,33,1609055985934375763,-0.005915342681940495,0.0142036146525181,0.0006251832231663484,-4.673454205332339e-05,4.327104998742179e-06,3.8793828077457515e-05,0.9999999981460983,-0.008396534267136976,0.01870271360997394,0.0038017886370704957,0.0,0.0,0.0
1609055986034370422,34,1609055986034370422,-0.00491130790926941,0.013938596130533021,0.0005629221090636753,-4.9638122860525655e-05,2.888416360409634e-05,0.00010655024285393564,0.9999999926744036,-0.00013507933324397297,0.012835878222645014,0.0011373761744038337,0.0,0.0,0.0
1609055986134385824,35,1609055986134385824,-0.004484113649997583,0.01638649856746101,0.0002479013463434961,-6.696010631675996e-05,-1.561521094540747e-05,0.00010125524866213371,0.9999999925099414,0.0026477009568913247,0.017816383255425797,-0.0003153653337325886,0.0,0.0,0.0
1609055986234381199,36,1609055986234381199,-0.004344891304682205,0.013632993847832333,0.00013320628418443328,-7.198506185826937e-05,-4.281312360564106e-06,7.272068144347666e-05,0.9999999947557617,0.0013975169245184502,0.002381856340039623,-0.00036218856058116753,0.0,0.0,0.0
1609055986334351063,37,1609055986334351063,-0.005997900905979679,0.010468140267659909,0.00024909499089942284,-4.649304132450651e-05,2.581039329401283e-06,9.115702029658547e-05,0.9999999947610665,-0.00651178493703854,-0.010309913903071368,0.0004231161193022719,0.0,0.0,0.0
1609055986434322357,38,1609055986434322357,-0.00583045128014173,0.008149237323118822,0.0003688627404732406,-2.39639935176164e-05,1.2300187501578406e-05,8.810124511862947e-05,0.9999999957563018,-0.003736578072775964,-0.014274852224328737,0.0013756655253602704,0.0,0.0,0.0
1609055986534344912,39,1609055986534344912,-0.002820456152398662,0.007735069978805573,0.0004779574616714313,-3.9110309841358425e-05,1.6393417759459184e-05,8.36046687516892e-05,0.9999999956059495,0.011584324007104229,-0.009437429877333502,0.0014887120876082881,0.0,0.0,0.0
1609055986634356499,40,1609055986634356499,-0.0016848014831063235,0.008619010046135208,0.0002970078684151394,-6.151224590790546e-05,-9.878619835191117e-07,0.00010292048887767575,0.9999999928113202,0.012398904001785536,-0.0009267420465139745,-0.000305415248546829,0.0,0.0,0.0
1609055986734314919,41,1609055986734314919,-0.0024546338666725,0.0101113075597164,0.00019206675567036356,-5.748594720493642e-05,-6.5173194404591745e-06,9.935774321986142e-05,0.9999999933904649,0.004961119894561019,0.005075812966771155,-0.0004754695595611813,0.0,0.0,0.0
1609055986834289074,42,1609055986834289074,-0.0024304524239887916,0.01039752084686072,0.0005476242969996252,-4.8758645116310764e-05,1.3152734084259788e-05,8.308985069393256e-05,0.9999999952728386,0.002883141981571005,0.005573709933497519,0.0016443227453465164,0.0,0.0,0.0
1609055986934261084,43,1609055986934261084,-0.003953835528190185,0.009486740496753453,0.0007173962701167364,-3.1926404926058184e-05,3.740035353540962e-05,9.221048118069605e-05,0.9999999945395731,-0.0047355415069532825,0.0007978473731313817,0.0016558149211474342,0.0,0.0,0.0
1609055987034273148,44,1609055987034273148,-0.004114027505454723,0.010493960020624358,0.0006501332686173996,-5.660429728984194e-05,5.807781995622463e-06,7.939132299768571e-05,0.9999999952296215,-0.003258800463919735,0.005371367305498709,0.000859923724078367,0.0,0.0,0.0
1609055987134310961,45,1609055987134310961,-0.0027183232267216978,0.009747819060227427,0.0003719245285619764,-5.2739698883627034e-05,-9.853802695777677e-06,8.904933325123805e-05,0.9999999945958226,0.004549887131709503,0.001574109066222247,-0.0010340676947399546,0.0,0.0,0.0
1609055987234300613,46,1609055987234300613,-0.0025053781943329,0.008680172089497267,0.0003378062488661022,-4.254533422560705e-05,-4.209339447584829e-06,0.00012565809510203726,0.9999999911911106,0.004112888313379829,-0.001989042925861848,-0.0009812516525720683,0.0,0.0,0.0
1609055987334278107,47,1609055987334278107,-0.003337114928288417,0.007108601725139742,0.0001186237817938955,-3.120600601009175e-05,-7.671446023922982e-06,0.00010043618201596315,0.9999999944399545,-0.0016209075111781423,-0.006909480943407184,-0.0018873679402632417,0.0,0.0,0.0
1609055987434252262,48,1609055987434252262,-0.0028332904143316922,0.0063650672590727896,5.900926128520312e-05,-4.442203498214622e-05,2.7770456467122632e-05,7.355260513612097e-05,0.9999999959227501,0.0011792195422816287,-0.005673810856826465,-0.0009642351144062828,0.0,0.0,0.0
1609055987534293890,49,1609055987534293890,-0.0025062811063842143,0.0092114971920369,0.00021742762070030272,-5.2538996863676306e-05,4.272268869762161e-05,9.669091448530343e-05,0.9999999930326469,0.0030247341728540534,0.007620234467543551,0.0014381015834612904,0.0,0.0,0.0
1609055987634244680,50,1609055987634244680,-0.0016082839912196483,0.007421894047052814,0.000733578618369993,-3.070617835721763e-05,2.1023338191815886e-05,5.88066793776192e-05,0.9999999975784619,0.005618394880963996,-0.0018566933802276813,0.004237078145660091,0.0,0.0,0.0
1609055987734263659,51,1609055987734263659,-0.0023836709172834693,0.008050162661551629,0.00048672441512430945,-3.647181144790849e-05,-9.244113222601606e-06,5.9108787802260314e-05,0.9999999975452522,0.00022661133676533766,0.0020240639407224158,0.0004066258048204723,0.0,0.0,0.0
1609055987834260464,52,1609055987834260464,-0.002604793574257575,0.008672886715735195,0.00012339505451534265,-4.1230406526082786e-05,3.2372709258643e-05,0.00013044491141423988,0.9999999901180923,-0.0009817848302526903,0.0054295083825411155,-0.0016919141566598011,0.0,0.0,0.0
1609055987934263945,53,1609055987934263945,-0.0027776781990137686,0.009888162901771415,-4.864245579897628e-05,-5.038043649344273e-05,1.7907728297143276e-05,9.066700620312926e-05,0.9999999944603082,-0.001229113785321934,0.008576216788248235,-0.001962672558850124,0.0,0.0,0.0
1609055988034247875,54,1609055988034247875,-0.004529718002295025,0.009917841784021907,0.00020809863645507336,-3.46768388117994e-05,5.7076722918097635e-06,7.804725926349241e-05,0.9999999963367815,-0.007842229206370895,0.006960759972303914,0.0023300264018192044,0.0,0.0,0.0
1609055988134229183,55,1609055988134229183,-0.004865738329512963,0.006480480750564102,0.00044564590842957076,-4.692031955138599e-05,1.5622941288886236e-05,0.00012786283102141088,0.9999999906027508,-0.006565323082417301,-0.006942705186870748,0.002839314871382871,0.0,0.0,0.0
1609055988234164715,56,1609055988234164715,-0.0026188684560494767,0.00742675945253381,0.0006196683874087453,-3.582696778741651e-05,7.14707049133091e-06,7.156586803171287e-05,0.9999999967718363,0.005901297508017515,-0.0004953516260544025,0.0022511494762542635,0.0,0.0,0.0
1609055988334093809,57,1609055988334093809,-0.0035595918015595774,0.007459109174487778,0.0006700218533639024,-2.875093148275553e-05,-2.04143338845436e-05,6.625401780465515e-05,0.9999999971835208,-0.0002983713995089333,0.000231725920562721,0.002014591089727245,0.0,0.0,0.0
1609055988434114933,58,1609055988434114933,-0.004454745785407734,0.007829824510563601,0.0003771987622030771,-5.3209083336454353e-05,2.4584506709309335e-05,0.00011802702927708708,0.9999999913170068,-0.003539754609555751,0.003164294052558342,-0.0006334263162989437,0.0,0.0,0.0
1609055988534145594,59,1609055988534145594,-0.004536012639294405,0.0105669980431621,-0.00014633185835049342,-7.703292994894847e-05,1.4353311467214955e-05,9.931068965305143e-05,0.9999999919986474,-0.0014545287149965354,0.013223322811512856,-0.0031982106134494613,0.0,0.0,0.0
1609055988634201288,60,1609055988634201288,-0.0036355736387709073,0.010353959663380138,-6.99145782753497e-05,-5.619264893833286e-05,-3.5551237874639324e-08,5.3809469106578045e-05,0.9999999969734614,0.002927444926857093,0.00902028974813393,-0.00032608418132284685,0.0,0.0,0.0
1609055988734200954,61,1609055988734200954,-0.0025743563061746753,0.009395440869933639,0.00038678720710701755,-4.954079972476466e-05,1.8929199806817833e-06,8.39071448462744e-05,0.9999999952508566,0.005865049016411824,0.003925566462847634,0.0028454659894091698,0.0,0.0,0.0
1609055988834231138,62,1609055988834231138,-0.0024700631228062315,0.008262018247296506,0.0004192568317685004,-4.462821659394799e-05,2.8106823852873774e-05,9.329710893126554e-05,0.9999999942569865,0.004077959591955596,-0.001816742730857654,0.0010713424833779803,0.0,0.0,0.0
1609055988934252262,63,1609055988934252262,-0.003404022130345476,0.009762814742186923,8.903635060652755e-05,-6.606894839767548e-05,1.665661160018944e-05,9.362232135711052e-05,0.9999999932961542,-0.0007583137915591516,0.005379504246004723,-0.001031046911323426,0.0,0.0,0.0
1609055989034281492,64,1609055989034281492,-0.001738665296758168,0.010260707080905753,0.0004444081210935079,-6.776491356677099e-05,2.465698676333323e-06,3.56147386438701e-05,0.9999999970667117,0.006577391388049423,0.006632220246861782,0.001859346268956401,0.0,0.0,0.0
1609055989134296417,65,1609055989134296417,-0.001338572890415686,0.010459755059797198,0.00047873486498761395,-4.9736209080337e-05,9.017736470566615e-06,4.172057756055653e-05,0.9999999978521901,0.005638068821430307,0.005689958100483465,0.0015567341483360081,0.0,0.0,0.0
1609055989234274864,66,1609055989234274864,-0.0007059537305384692,0.00798167947900232,0.0006558664905114201,-3.292358641704935e-05,-4.301447185751225e-07,8.152012994333268e-05,0.9999999961351581,0.005172727736680976,-0.004478657447299931,0.0020797554677095594,0.0,0.0,0.0
1609055989334239721,67,1609055989334239721,-0.0007085048410331804,0.006343213348406309,0.000625283567968769,-4.9961043468904425e-05,1.8809370060903493e-05,7.481337108164621e-05,0.9999999957765283,0.0031815900343215436,-0.008245764273743104,0.0010375773450614866,0.0,0.0,0.0
1609055989434148312,68,1609055989434148312,-0.0016130401202954525,0.005267908360963439,0.00022338299837283576,-6.134945890839455e-05,1.4725897394909499e-05,0.00010747999531237701,0.9999999922337183,-0.0016728301051217994,-0.008533194756544222,-0.0011045676093833176,0.0,0.0,0.0
1609055989534081936,69,1609055989534081936,0.0001220844710669005,0.0049109157674183225,0.0004685791746861182,-4.2447387656483854e-05,1.4814417666583515e-06,9.93002850508127e-05,0.9999999941677361,0.0063585711382702515,-0.005394065803862042,0.002121434069387657,0.0,0.0,0.0
1609055989634089708,70,1609055989634089708,-0.0012281330973367057,0.006886763781686903,0.0005414139032110273,-4.026204150757099e-05,4.849085277954438e-06,0.00010085713144190975,0.9999999940916442,-0.0011792142532986143,0.005665732587291971,0.0015030500308287906,0.0,0.0,0.0
1609055989734120369,71,1609055989734120369,-0.0018381780766877417,0.009882548914157312,0.0003061843128508508,-5.390652770377648e-05,8.418781635793047e-06,0.00010148664205358618,0.9999999933618335,-0.0025806344660646253,0.015272250004896591,-0.0016318254571634394,0.0,0.0,0.0
1609055989834130049,72,1609055989834130049,-0.0028767157173217577,0.00849943541112348,0.00036619452083360793,-3.8394329195979916e-05,1.0518307570839482e-05,7.803890023559024e-05,0.9999999961625831,-0.006239105647995099,0.00575487397990926,0.0007074393450098645,0.0,0.0,0.0
1609055989934144974,73,1609055989934144974,-0.004290637088783875,0.006829622511998172,0.0002727277173869981,-3.6026240667073866e-05,5.202480946637488e-06,0.00015562713539801418,0.999999987227617,-0.009250252029411607,-0.001295812124842032,0.0001978991311651977,0.0,0.0,0.0
1609055990034195662,74,1609055990034195662,-0.0014187525444520571,0.005794118819238674,0.0002253971651147479,-4.431715294430459e-05,-5.558121993632689e-07,0.00011279097680339472,0.999999992656936,0.006063741911913143,-0.003270836801092355,-0.00016752234162925722,0.0,0.0,0.0
1609055990134147167,75,1609055990134147167,-0.002057341643040182,0.007586070321257733,0.0002309798178279098,-4.571739278797528e-05,-7.042548434126977e-06,8.87992127256673e-05,0.9999999949875095,0.0015929821827985824,0.005672680626592652,0.0004736875915369378,0.0,0.0,0.0
1609055990234165907,76,1609055990234165907,-0.0019545068205412187,0.00825865793568245,0.00040942982816451987,-3.2586958033636834e-05,1.5239654402305615e-05,0.00011402136859488989,0.9999999928524834,0.001811185729678969,0.007251674602304872,0.0012524595906377332,0.0,0.0,0.0
1609055990334153891,77,1609055990334153891,-0.0007477998404292231,0.007880824720416287,0.0006112918006508818,-3.193141520647284e-05,1.0644682146308019e-05,8.783525451757263e-05,0.9999999955760198,0.005829095747844131,0.004409439350205676,0.0020039033351083157,0.0,0.0,0.0
1609055990434121609,78,1609055990434121609,7.320467222123527e-05,0.007488657527593796,0.00045048911641425024,-4.480528398600623e-05,1.867847069980085e-05,9.808973909374236e-05,0.9999999940110003,0.006973963591943583,0.002944509371915082,0.0002147042675803893,0.0,0.0,0.0
1609055990534049988,79,1609055990534049988,-8.814825889242892e-05,0.01027343677503183,0.00037320438170488935,-5.773472914817256e-05,1.2609642174505277e-05,0.00010037289453527125,0.9999999932164889,0.004293645086112857,0.012648114264421658,3.690795016383096e-05,0.0,0.0,0.0
1609055990634069204,80,1609055990634069204,-9.285155011110505e-06,0.010478999746046927,0.000447380741720195,-5.9231944633837815e-05,5.793524870236011e-07,7.776522822136455e-05,0.9999999952219041,0.002946280516311393,0.009596946167671145,0.0014257196483065564,0.0,0.0,0.0
1609055990734110594,81,1609055990734110594,-0.0014976259352921012,0.01133788459533719,0.0005667590087766547,-3.7486143076552e-05,6.867037512363038e-06,6.108579237691995e-05,0.9999999974080782,-0.004123645536924896,0.010817625421744298,0.0020684283202279563,0.0,0.0,0.0
1609055990834053755,82,1609055990834053755,-0.003110067069752881,0.010727733544450025,0.0008584434998889241,-2.7785763816344445e-05,1.2468473132542156e-05,8.909396209306805e-05,0.9999999955673761,-0.008912631357615232,0.0062976193314549355,0.0031776189957349404,0.0,0.0,0.0
1609055990934089184,83,1609055990934089184,-0.003790099169277259,0.008613928580515072,0.00039133030881923083,-4.8237104886580045e-05,4.235972690975852e-06,8.935251046824586e-05,0.9999999948356828,-0.008676436863859882,-0.0028719431645875294,-0.0012836977827150992,0.0,0.0,0.0
1609055991034117699,84,1609055991034117699,-0.00210458217841956,0.00849112021675869,1.0360268925640631e-05,-5.0037759480809814e-05,1.3224025638907607e-05,6.291314307006404e-05,0.9999999966816411,0.0015478857563166713,-0.0013572983649671301,-0.002933617250925663,0.0,0.0,0.0
1609055991134146214,85,1609055991134146214,-0.0009533134284045825,0.012353732222596881,-0.00014970462750327988,-5.91438498657501e-05,1.709885550767396e-05,0.00010361610124442268,0.9999999927366677,0.006449606938699438,0.014528482301332229,-0.0015377790306120855,0.0,0.0,0.0
1609055991234130383,86,1609055991234130383,-0.0010329825237299732,0.01076808468213004,-9.196887236388359e-05,-4.896724696270328e-05,8.444975404329872e-06,0.00010866268282207145,0.9999999928616549,0.0034997213156760564,0.004792974236625282,0.0004438893257574794,0.0,0.0,0.0
1609055991334129333,87,1609055991334129333,0.000153741038031305,0.00930048787037126,0.00043075473900362396,-1.887125617025612e-05,-4.282610389744435e-06,9.04092507721497e-05,0.9999999957258496,0.006389144240077039,-0.001629271637507802,0.00324885254971556,0.0,0.0,0.0
1609055991434158802,88,1609055991434158802,-0.0011296856023829366,0.009640980352582734,0.0007097033653824133,-2.7162823306463862e-05,3.258092457108109e-05,0.0001101322308169821,0.9999999930357768,-0.0009741571610590825,0.001780807001070829,0.0035981724064964534,0.0,0.0,0.0
1609055991534107447,89,1609055991534107447,-0.0011212416460276715,0.009114010510945925,0.0004999236200749446,-4.260998924784776e-05,2.903046178285625e-05,0.00016829370287524517,0.9999999845094241,-0.0005449509871837348,-0.00032592941385534277,0.00041511839864439215,0.0,0.0,0.0
1609055991634071827,90,1609055991634071827,-0.0013542544007539305,0.009019405336959361,0.00024203562980098066,-4.919209194905594e-05,1.6906822677721943e-05,6.264292096087135e-05,0.9999999966850796,-0.0010060322660879575,-2.726109843501491e-05,-0.0007693720002251708,0.0,0.0,0.0
1609055991734028578,91,1609055991734028578,-0.0009705321765183424,0.007674870168728901,-6.868097013854492e-05,-6.896452841503438e-05,2.1148515667126924e-06,8.551212953196467e-05,0.9999999939635471,0.0012666182954430897,-0.003688829948979898,-0.0016281878665483096,0.0,0.0,0.0
1609055991833997726,92,1609055991833997726,-0.0009127871890628219,0.007070519930597298,8.620704770543655e-05,-3.5097956097724334e-05,-5.087833661636714e-06,6.682353181075346e-05,0.9999999971384302,0.0010794838390404233,-0.0037071845417438434,0.0007791391010175067,0.0,0.0,0.0
1609055991933979511,93,1609055991933979511,-0.0004883213376044852,0.008210141268606046,0.00012566209373865366,-5.3550991413247e-05,-1.5631695349278713e-05,5.7020986923846086e-05,0.9999999968182729,0.0022762907326713444,0.0024567334000724387,0.0007355966660579166,0.0,0.0,0.0
1609055992033982515,94,1609055992033982515,-0.001037497289009245,0.008844252125040029,0.000590901548620661,-2.6963504036365043e-05,3.787062836414599e-05,8.578910801682773e-05,0.9999999952395053,-0.0014041968498715437,0.00455558387013655,0.003555651262032045,0.0,0.0,0.0
1609055992134001017,95,1609055992134001017,0.00012987743263293266,0.01066865130902711,0.0005333200166059347,-4.302609939359895e-05,2.6620891422735472e-05,0.00011151793228654917,0.9999999925019152,0.004038184682203494,0.010674867210415016,0.0014161245441790872,0.0,0.0,0.0
1609055992234009743,96,1609055992234009743,0.0009748547057314405,0.013036122471230658,0.0004769664683467576,-5.160875639934805e-05,1.7212906239539263e-05,3.594320625307045e-05,0.999999997874167,0.006452018883826752,0.01619955704456096,0.0007148439563709266,0.0,0.0,0.0
1609055992334029198,97,1609055992334029198,0.00020199140842332275,0.010179824665096366,0.0003064465406177526,-5.8028221300442416e-05,8.1832261701348e-06,2.551562297978882e-05,0.9999999979573542,0.0006899815465817461,0.001276139216356241,-0.0009286814490177604,0.0,0.0,0.0
1609055992434067488,98,1609055992434067488,0.000905023589557553,0.007405719741263618,0.00030069525795734165,-4.025560452761905e-05,1.5055590154479613e-06,9.919886681585359e-05,0.9999999942683997,0.002982238440418452,-0.008108594731666703,6.491668691686935e-05,0.0,0.0,0.0
1609055992534090996,99,1609055992534090996,0.0006302194413178683,0.008909438563643506,0.00017510175337719406,-6.176337238471976e-05,3.57687942667291e-05,7.007514829949379e-05,0.9999999949976738,0.0010965631641482922,0.0011002314192454562,0.00015330755824395235,0.0,0.0,0.0
1609055992634044647,100,1609055992634044647,-1.139749639896425e-05,0.007098346065408324,0.0006336994784592844,-2.6772497729824743e-05,1.8198124078056637e-05,7.824985505012766e-05,0.9999999964145083,-0.0015712088327029788,-0.004741332614108458,0.0035527559512655367,0.0,0.0,0.0
1609055992734009981,101,1609055992734009981,-0.0005462893136352294,0.007651045214400415,0.0005464811262875415,-3.787974387376591e-05,-1.5317776840457585e-06,0.00010376382337732189,0.9999999938979213,-0.002559047552729098,-1.1840493321370674e-05,0.002335168811795012,0.0,0.0,0.0
1609055992834012270,102,1609055992834012270,-0.0003474757849569549,0.008113369919951876,0.0010297975853936756,-1.3622232094710919e-05,2.9945000848338603e-08,3.477913229352493e-05,0.9999999993024208,-0.0002799184735524879,0.0023481794711730946,0.004171401597275577,0.0,0.0,0.0
1609055992933989048,103,1609055992933989048,-0.0026790912446134412,0.009103451119278452,0.0006937710793226364,-4.2314262820200893e-05,-1.927454193767416e-06,4.0895466230646017e-05,0.9999999982666729,-0.009053529256643832,0.006697331459714368,-0.0002206731386580679,0.0,0.0,0.0
1609055993033969402,104,1609055993033969402,-0.0035189822867498395,0.01026688348893293,0.0005384145121364924,-3.307263541054196e-05,3.57453645321359e-06,5.867218224903248e-05,0.9999999977254976,-0.009229722052125286,0.00982200930698395,-0.0007345236523713146,0.0,0.0,0.0
1609055993133959532,105,1609055993133959532,-0.0030595645008904366,0.01058968800139518,0.00026874896441377217,-4.661362576686456e-05,1.9264003481820664e-05,2.716919745048138e-05,0.9999999983589501,-0.0032467785254742844,0.008551657396369153,-0.002132495775252403,0.0,0.0,0.0
1609055993234006166,106,1609055993234006166,-0.0025108100743462393,0.00868782683826304,0.000703035670108947,-2.8924624359053834e-05,1.8755227580992882e-05,8.065500233951288e-05,0.999999996153187,9.893437257583407e-06,5.727195479277199e-05,0.002447404300852302,0.0,0.0,0.0
1609055993333993196,107,1609055993333993196,-0.0003781930430954647,0.0085492811190315,0.0009006994648167772,-2.5613104305174863e-05,5.534559796048816e-06,0.00010487506223897844,0.9999999941572775,0.008714941446133691,0.001515419243504076,0.00285894607922606,0.0,0.0,0.0
1609055993434021711,108,1609055993434021711,0.0007826266248198136,0.007910997537484617,0.0011172315511822491,-1.4881606571607892e-05,-3.4668326209298183e-06,7.056401653616158e-05,0.9999999973936169,0.009816558415354377,-0.000746493101813642,0.0028601419786325783,0.0,0.0,0.0
1609055993533962965,109,1609055993533962965,-0.00043450802140195286,0.007734978276245484,0.0007374116931286502,-3.276791925283821e-05,-2.7717838237477846e-06,4.226559611373779e-05,0.9999999985660977,0.00038870836989696525,-0.00031234919320735047,-0.0012964796196488506,0.0,0.0,0.0
1609055993633981466,110,1609055993633981466,-0.0009355264994689342,0.009038614664915907,0.0006630608390917799,-3.209030640041216e-05,2.5364354236127596e-05,7.405130874738051e-05,0.9999999964216301,-0.0014685310684591872,0.005079855524895522,-0.001091365309598685,0.0,0.0,0.0
1609055993733968496,111,1609055993733968496,-0.001501353000436201,0.008796765580206001,0.0004744359456185735,-4.4137302829208244e-05,3.1283381498184705e-05,8.719183115267345e-05,0.9999999947354141,-0.002916740163273408,0.003506929414954149,-0.0017642826929705482,0.0,0.0,0.0
1609055993833949089,112,1609055993833949089,-0.002353841883748209,0.009449770619768979,0.00046510926564756916,-3.063815173841024e-05,-1.796448502261584e-05,6.569619008004207e-05,0.9999999972112932,-0.0047215107274278635,0.005648454996565943,0.0004235716603117137,0.0,0.0,0.0
1609055993933968067,113,1609055993933968067,-0.003753698691259626,0.008191281476227283,0.00048162869967018665,-2.4129507628743753e-05,-1.9804906150051298e-05,0.00010373083682826121,0.9999999941327206,-0.009099759088677392,6.521034754550844e-05,0.0006990916840703475,0.0,0.0,0.0
1609055994033921719,114,1609055994033921719,-0.0037930804865146544,0.009350632476048658,0.0004112445667719846,-3.0268344274487017e-05,2.5113647733221455e-05,7.053754353765795e-05,0.999999996738791,-0.005665691197959608,0.004034703861226103,-0.0007244045325279485,0.0,0.0,0.0
1609055994133963108,115,1609055994133963108,-0.0028377196954596055,0.01151441713036449,0.00014645203249901754,-3.2479203082689485e-05,3.824141669453568e-05,6.537420383368107e-05,0.9999999966044517,-0.00028226125304954205,0.012040858558254673,-0.0026254602357933736,0.0,0.0,0.0
1609055994233991623,116,1609055994233991623,-0.0018630547034313022,0.010323514636271982,0.00037912127664355085,-3.068114805035976e-05,2.972525935296208e-05,5.081566999584113e-05,0.9999999977964192,0.0034463237474732147,0.004831996154125631,0.0014470529685177904,0.0,0.0,0.0
1609055994334022999,117,1609055994334022999,-0.002032136730313953,0.009434510651329083,0.00046086309349523125,-4.609950172653756e-05,1.3127053691360502e-05,7.065317684022096e-05,0.9999999963553201,0.001954047091968131,0.0007701342904228832,0.0019176704890777028,0.0,0.0,0.0
1609055994433972836,118,1609055994433972836,-0.0025234506238948824,0.009135648660943498,0.0006029982307462136,-4.048302455064496e-05,-2.5503392520904905e-05,5.62240118890014e-05,0.9999999972747785,-0.0002476617495084173,0.000267764417282504,0.002195891886597816,0.0,0.0,0.0
1609055994533926010,119,1609055994533926010,-0.004142240533303265,0.011184866131540926,0.0006707391734935091,-3.055805871396772e-05,-4.922391721180795e-07,8.197032926380881e-05,0.9999999961734116,-0.0065174461140415675,0.008243856318530456,0.0012933089792454024,0.0,0.0,0.0
1609055994633896828,120,1609055994633896828,-0.004040862159493014,0.011779825443102902,0.0006468862840710949,-3.4944746976967324e-05,3.60738422662944e-05,4.230482172524941e-05,0.9999999978439197,-0.003533207939438769,0.008584474946479171,0.00036575076701808986,0.0,0.0,0.0
1609055994733857393,121,1609055994733857393,-0.0018450449062354813,0.011461032199720556,0.0004502269558235646,-4.3797009767662686e-05,1.4824129135539217e-05,8.763300448757506e-05,0.9999999950912591,0.006626989028878832,0.005839744982482325,-0.000858746969207874,0.0,0.0,0.0
1609055994833901882,122,1609055994833901882,-0.002013494795511057,0.01070240353119828,0.00032867028089110745,-4.9411876183737846e-05,-1.8117645246233312e-05,9.646815929620163e-05,0.9999999939620529,0.003940743368983156,0.0017075858459899293,-0.0008442426606795931,0.0,0.0,0.0
1609055994933890104,123,1609055994933890104,-0.002840951526017418,0.01105887461781808,0.00045900584677874355,-3.508518614470282e-05,-5.092143317430373e-06,6.105086150846539e-05,0.9999999975079427,-0.0002328736410864337,0.0028689186822166064,8.275480614578857e-05,0.0,0.0,0.0
1609055995033890963,124,1609055995033890963,-0.002027721069459992,0.010944908197304273,0.0004256060184595906,-2.95110297572023e-05,-1.0557531247329665e-05,6.552496169185841e-05,0.9999999973620552,0.002366447420214235,0.0027777677124465674,-0.0001419909099341195,0.0,0.0,0.0
1609055995133873940,125,1609055995133873940,-0.0022567928335754904,0.009814642786588352,0.0004273027510331196,-3.094216914998653e-05,3.3079502154063515e-05,9.844850897759084e-05,0.999999994128107,-0.0001393904350151078,-0.0010044326806831739,-0.00014963750459811345,0.0,0.0,0.0
1609055995233897448,126,1609055995233897448,-0.0007480240380729479,0.009271394220316774,0.0005454715859403134,-2.9805835177693822e-05,4.718239533251028e-05,5.7719103558542215e-05,0.9999999967769666,0.00649990593575448,-0.0017793082373743915,0.0008395988532297907,0.0,0.0,0.0
1609055995333946228,127,1609055995333946228,-0.00073792691123289,0.010193036001523765,0.0004590267501109068,-3.856963748091967e-05,1.0057155880988548e-05,0.00010323684867389529,0.9999999938766919,0.005234225412258797,0.0030689336113648874,0.0004714702023512036,0.0,0.0,0.0
1609055995433947563,128,1609055995433947563,-0.001052608121990073,0.009835812579667463,0.00046219546300441746,-3.6635585626630784e-05,-1.2250560584840168e-05,0.00012821371947315107,0.9999999910344971,0.001874760699421693,0.0020942404298607982,0.000970912245164658,0.0,0.0,0.0
1609055995533929586,129,1609055995533929586,-0.0008288433500142663,0.011617432883215598,0.0005484605631054601,-2.5550504934516458e-05,1.3713962001346991e-05,2.3405450138427838e-05,0.9999999993056395,0.0014320439944424483,0.008352212433003249,0.00028643503061282405,0.0,0.0,0.0
1609055995633887529,130,1609055995633887529,-0.002352256395927884,0.009848185220046511,0.0003049496963757075,-3.2463978855964455e-05,3.7120798692481425e-05,8.440950388321233e-05,0.9999999952215832,-0.006042622153499723,0.0003145372934477853,-0.001083897413336121,0.0,0.0,0.0
1609055995733889341,131,1609055995733889341,-0.0023172075743202723,0.009668202833248625,0.00022822953096047476,-3.8914510093698163e-05,3.923799786827325e-05,0.00011184951054451924,0.9999999922178613,-0.00404853046404541,0.0009080299001980234,-0.00047655241755418365,0.0,0.0,0.0
1609055995833837748,132,1609055995833837748,-0.003535615710097945,0.01006581154218616,0.00040294611502635276,-2.680941545462875e-05,2.909548263483187e-06,5.915161027965226e-05,0.9999999978869365,-0.006801768866271821,0.0018901383213729016,0.001154289239747662,0.0,0.0,0.0
1609055995933854103,133,1609055995933854103,-0.0019758307423467414,0.012128995061904138,0.00038054010274476583,-3.879879847514973e-05,-1.2423796423814286e-05,6.733176707656413e-05,0.9999999969033652,0.0021345357923990994,0.009841525332145188,0.0007900974122940021,0.0,0.0,0.0
1609055996033845425,134,1609055996033845425,-0.0016097217330438643,0.010549531489052133,0.00067963264995273,-2.4049453802957726e-05,-6.291155794018845e-07,0.00010925357482190105,0.9999999937424396,0.001968818566011319,0.0027533330231233367,0.0021285598804110907,0.0,0.0,0.0
1609055996133857727,135,1609055996133857727,-0.0005991364314471277,0.011315174852596557,0.00042836403209813056,-4.6389690737657324e-05,2.2497490127212624e-05,8.398101658197598e-05,0.9999999951445225,0.004745697556356614,0.005420401392281429,-0.0009829519915826933,0.0,0.0,0.0
1609055996233455181,136,1609055996233455181,-0.0019902420259160455,0.010970833288003906,0.0005712692993425514,-2.6260188304972607e-05,4.927842809860651e-05,7.751544831540263e-05,0.9999999954366955,-0.0024286563646491437,0.003102974058035373,0.0008104074890659385,0.0,0.0,0.0
1609055996333808899,137,1609055996333808899,-0.002666292339581912,0.013050139755095563,0.0003279415291833817,-3.719140372518877e-05,6.1207459526306e-06,7.299894833527541e-05,0.9999999966252424,-0.003392857167686455,0.009902126838086889,-0.0008832678058622297,0.0,0.0,0.0
1609055996433868885,138,1609055996433868885,-0.003362191876381316,0.013868888988092213,0.0005206112167897133,-3.72837071020025e-05,-1.8417625246143485e-05,8.030952852734763e-05,0.9999999959105456,-0.0042718003260155115,0.009954548474146964,0.0016204338963648115,0.0,0.0,0.0
1609055996533470869,139,1609055996533470869,-0.005087912920846271,0.011797651169246864,0.0005530106471123815,-3.933968496733121e-05,-1.6076772150542927e-05,5.434987043126461e-05,0.9999999976200062,-0.010117278454255032,-0.0005845225063051771,0.0011425065698428048,0.0,0.0,0.0
1609055996633827686,140,1609055996633827686,-0.003693936569649194,0.010972905068467789,0.000620812498044084,-3.194730839418759e-05,1.3614752868655106e-05,0.0001297077292295075,0.9999999909849538,-0.0011318815957246653,-0.002097396521060462,0.0002537342997227769,0.0,0.0,0.0
1609055996733831167,141,1609055996733831167,-0.0053750736258925584,0.011282891818217714,0.0005902037687275873,-4.249735520059698e-05,2.3652350149968363e-05,5.168345547023182e-05,0.9999999974816779,-0.007521087721239907,-0.0005265943275775575,0.00028576861293751145,0.0,0.0,0.0
1609055996833849907,142,1609055996833849907,-0.003946530109219632,0.010277143905917926,0.0006513420386813746,-2.7106826331895112e-05,1.6131396221253786e-05,9.228013404200635e-05,0.9999999952446844,0.001507330534584221,-0.0022684361457087623,0.00152024305573776,0.0,0.0,0.0
1609055996933821440,143,1609055996933821440,-0.0033842979085689073,0.010097429523913919,0.0005280173798943907,-3.835685782914116e-05,-1.4897872137782655e-05,8.736732626149579e-05,0.9999999953368742,0.0040040651352435536,-0.0014700131791215703,0.00021240979539176243,0.0,0.0,0.0
1609055997033791304,144,1609055997033791304,-0.00292818783357258,0.010213833416322279,6.955663738416289e-05,-5.574765691690023e-05,-7.721681408145345e-06,6.951427670652587e-05,0.9999999960001664,0.004364775981293111,0.00015744776950838476,-0.0025332717075232706,0.0,0.0,0.0
1609055997133808136,145,1609055997133808136,-0.002570667487298054,0.011204131357434043,0.00029382377208962273,-5.401543187044041e-05,1.0183297846890203e-05,4.861143673922775e-05,0.999999997307778,0.0040570322513129595,0.004904148409167986,0.0007055733671025902,0.0,0.0,0.0
1609055997233791828,146,1609055997233791828,-0.003786669270113387,0.013199552493168868,0.0001879298804774445,-1.749593901880243e-05,3.9003089818397944e-05,-2.7997795915187496e-05,0.9999999986943843,-0.0020128627672773712,0.01078253009232924,-0.00039419621957124284,0.0,0.0,0.0
1609055997333826780,147,1609055997333826780,-0.002841456704908827,0.014415648549271071,0.000535705390467181,-3.871088463223117e-05,9.596686598589913e-06,4.2077473733138225e-05,0.9999999983194262,0.0028624581051946143,0.012497073918206326,0.0029990485923533415,0.0,0.0,0.0
1609055997433823586,148,1609055997433823586,-0.004832104951542096,0.012342542687545687,0.0007562778711174083,-3.726143240731221e-05,-2.554290520382529e-05,0.00011014433903642515,0.9999999929136822,-0.006268438241078195,0.0014067899816569557,0.0027163295002996693,0.0,0.0,0.0
1609055997533787489,149,1609055997533787489,-0.005262720021513641,0.013028116965004569,0.000718321780118689,-3.2254121627497414e-05,-8.479550197751518e-06,7.649733172776435e-05,0.9999999965179607,-0.005554005444654385,0.004446788049845413,0.0015164148374321735,0.0,0.0,0.0
1609055997633745909,150,1609055997633745909,-0.0022188766331551644,0.01173503681813882,0.0004803266511437952,-4.3952761093652994e-05,2.3914607027124047e-05,9.13711180102872e-05,0.99999999457378,0.007850285733597386,-7.289885128124434e-05,-0.0011255274545140224,0.0,0.0,0.0
1609055997733771563,151,1609055997733771563,-0.0009160817829292291,0.009243686312967948,0.00041376679446398585,-4.19428438076297e-05,1.631848072990936e-05,0.00013033537067969856,0.999999990493596,0.00973641237048654,-0.007649209082815568,-0.00014163708957312573,0.0,0.0,0.0
1609055997833755255,152,1609055997833755255,-0.0005664827730215725,0.00992505075690896,0.0003363932441878228,-4.153666857196427e-05,1.8010649413968394e-05,0.00012916543473486525,0.9999999906333038,0.008237142280553719,-0.0019144903252547238,-0.0003014731622020404,0.0,0.0,0.0
1609055997933718920,153,1609055997933718920,-0.0007272198561868841,0.010308199946368814,0.00034969246530419234,-4.206579989759999e-05,4.554822373746913e-06,8.379121429245287e-05,0.9999999955943747,0.004612459829327913,0.0012075850138761246,0.00019332100980095875,0.0,0.0,0.0
1609055998033788443,154,1609055998033788443,-0.0013474011258267468,0.01154050621246446,0.0003334212647795272,-4.054012243274902e-05,-2.7620402508505486e-06,8.102964629536571e-05,0.9999999958915311,0.000608376826450035,0.006368985124783013,0.0002338936368905774,0.0,0.0,0.0
1609055998133798361,155,1609055998133798361,-0.0018247373200095379,0.013263275916369551,0.00020927734848260173,-5.228488088176518e-05,7.641192680146615e-06,0.00010267218090541198,0.9999999933331619,-0.0016524312295997342,0.011014706677419002,-0.0007320653820717833,0.0,0.0,0.0
1609055998233832836,156,1609055998233832836,-0.002053388613375759,0.012057475963501324,0.0005402433859399338,-3.438805715262681e-05,9.23827174834231e-06,7.328697332964029e-05,0.9999999966805664,-0.0026693482725159297,0.002692988696679394,0.002216966053048136,0.0,0.0,0.0
1609055998333755016,157,1609055998333755016,-0.0024523152929180956,0.011527837517216841,0.0008530697442209392,-2.1639963485668477e-05,8.197066038381924e-07,9.5500272090783e-05,0.9999999952053678,-0.0031837829056498273,0.0012858018961022272,0.0034767508374277728,0.0,0.0,0.0
1609055998433698177,158,1609055998433698177,-0.0013397026152168613,0.01069199289122643,0.0009101522220463738,-3.249863978293242e-05,8.55280951974481e-06,9.00804027635176e-05,0.9999999953781036,0.0019769939253962265,-0.0009057286022036699,0.0019313152349100487,0.0,0.0,0.0
1609055998533652306,159,1609055998533652306,-0.00040730592855542456,0.009765180075054244,0.0005984573791552137,-4.167966711189445e-05,1.9155969918996822e-05,0.00010097820746420835,0.999999993849627,0.004746850146483636,-0.0026358280239069895,-0.0007909387471634441,0.0,0.0,0.0
1609055998633695841,160,1609055998633695841,0.0002015536152779869,0.010671477600870668,0.00034607568447553403,-4.6405649552825535e-05,1.3112745776969986e-05,4.6576376643889115e-05,0.9999999977526053,0.0057631488952568175,0.0025879848634632967,-0.0027601781503737897,0.0,0.0,0.0
1609055998733746052,161,1609055998733746052,0.0016551592194390817,0.010894727320645359,0.0004667893476218194,-4.2911921772689295e-05,1.9368167080714232e-05,6.716432238673433e-05,0.9999999966361964,0.009620782514637757,0.0037699177403697597,0.0004476270369949283,0.0,0.0,0.0
1609055998833722830,162,1609055998833722830,0.0008503842220573712,0.010734292902855448,0.0007033854182119796,-2.3745004503520543e-05,2.026733189645962e-05,6.597907073941862e-05,0.9999999973360851,0.0023873169316135116,0.0019909953229199267,0.0012837657480422226,0.0,0.0,0.0
1609055998933762074,163,1609055998933762074,0.0016418771684067264,0.011492104284909089,0.0008131621734550937,-5.231239621418198e-05,-1.1816019590641517e-05,3.4264126604769e-05,0.9999999979748807,0.004834988680463991,0.00548615084718112,0.00203603684906178,0.0,0.0,0.0
1609055999033793211,164,1609055999033793211,0.00019159832859063145,0.012602677642147885,0.000614349200819767,-4.099187583330845e-05,1.0343374787139738e-05,7.395145085664843e-05,0.9999999963719298,-0.0025070763986912038,0.008259861498300694,-0.0001365550257158791,0.0,0.0,0.0
1609055999133737326,165,1609055999133737326,-0.0013760763855623747,0.012221877970388557,0.0006092426345986932,-3.905853620771401e-05,8.811869924758716e-06,6.791203964790938e-05,0.9999999968923662,-0.007643816624257716,0.004413246115542966,0.0008213665016626072,0.0,0.0,0.0
1609055999234097481,166,1609055999234097481,-0.0008087448064913896,0.011195617475258119,0.0007615835838616422,-3.5106326243065006e-05,1.632782251345661e-05,0.0001029626429306635,0.9999999939498194,-0.003133391422632344,0.0007440910649833487,0.0018103815991071957,0.0,0.0,0.0
1609055999333613873,167,1609055999333613873,-0.0002845377200368166,0.007732686468763965,0.00047189603630192075,-3.3134196542316423e-05,9.314984480371454e-06,0.00010685740777712306,0.9999999936984239,-0.0006053593028356504,-0.010335799443431555,-0.0008052541673286414,0.0,0.0,0.0
1609055999433626175,168,1609055999433626175,0.00038928980230605776,0.008002162356086364,0.0004795107482827698,-3.468417597396002e-05,-7.021644844877315e-06,7.942664633064133e-05,0.9999999962195548,0.002181317616371864,-0.004535271238868144,0.00017602730125144636,0.0,0.0,0.0
1609055999533685923,169,1609055999533685923,-0.0007824409565175383,0.00948914044576842,0.00030866276783644847,-4.2946849452537226e-05,4.453783749401915e-06,8.589814324722845e-05,0.9999999953786193,-0.0026509004313611446,0.003288367421924192,-0.0009736426052768416,0.0,0.0,0.0
1609055999633746386,170,1609055999633746386,-0.002593282276913036,0.012192526580103462,0.0002901235836685731,-3.6261781090761546e-05,9.85128653290169e-06,0.00010239030481597513,0.9999999940521296,-0.008195036626950859,0.012475642914025663,-0.0009828046275740469,0.0,0.0,0.0
1609055999733720779,171,1609055999733720779,-0.0015374298184410015,0.011862424739978868,0.00029740546790331374,-4.726764050118674e-05,1.564644489311349e-05,0.00011286015496013764,0.9999999923917714,-0.0014045079457854874,0.008107499396507453,0.00020933934211767708,0.0,0.0,0.0
1609055999833699465,172,1609055999833699465,0.002665691831292943,0.007913196364637151,0.0008658615689696093,-4.304396370446666e-05,2.678215768816235e-05,0.000228728947487482,0.9999999725564995,0.01433831545476309,-0.006341224510334522,0.0033445125235037824,0.0,0.0,0.0
1609055999933675528,173,1609055999933675528,0.000648006791722898,0.009159562941459122,0.0009472974725462313,-3.0793660998064445e-05,3.09618948874846e-06,6.141527657618632e-05,0.9999999976351623,0.0017802640613571504,0.00019411837740324935,0.0019409823373368088,0.0,0.0,0.0
1609056000033663511,174,1609056000033663511,0.0006417867155051982,0.010748375658687956,0.0009119915749915888,-4.100615640952305e-05,3.048887236487115e-06,8.514322576852166e-05,0.9999999955299136,0.0012554877719419904,0.006622308643361155,0.001501367442933504,0.0,0.0,0.0
1609056000133657455,175,1609056000133657455,1.0954511102548661e-07,0.013226037384632352,0.000712128930014855,-4.0898599807897246e-05,3.6472415444882935e-05,7.90493126454921e-05,0.9999999953741342,-0.001161392008100521,0.014437412444844679,-0.00037368505122677056,0.0,0.0,0.0
1609056000233661652,176,1609056000233661652,-0.000694396205240371,0.01268498032858995,0.0008617870094816494,-3.607044088303292e-05,2.740452054136052e-05,9.521818089873221e-05,0.9999999944407044,-0.003970459556535266,0.0088737582307345,0.0018073503212518366,0.0,0.0,0.0
1609056000333639622,177,1609056000333639622,0.0015391399737292907,0.01275674850284309,0.0007581082087247243,-3.140065858525882e-05,2.446227660089559e-05,7.960511878356624e-05,0.9999999960393086,0.006418949099740879,0.007264322268172457,-5.165716647056811e-05,0.0,0.0,0.0
1609056000433612585,178,1609056000433612585,0.0002477654607507437,0.011918089135218201,0.000631517309130399,-4.1323772970841635e-05,-4.584069313844515e-06,0.00011712746358840331,0.9999999922762426,-0.0011511860419482125,0.0028079357991020668,0.0004460152737573034,0.0,0.0,0.0
1609056000533615828,179,1609056000533615828,-0.0013677564752850114,0.012213710746955233,0.000658394659563073,-3.9462832905823375e-05,6.150639751257725e-06,8.90275959731351e-05,0.9999999952394689,-0.006554188828967033,0.003166671979737613,0.0008575264068475508,0.0,0.0,0.0
1609056000633644104,180,1609056000633644104,-0.0038872847805179094,0.013724087239672904,0.0007174343478335522,-3.5978407452077795e-05,4.6282638390331436e-06,7.325304723532638e-05,0.9999999966590601,-0.013810004092916129,0.008463101345588045,0.0007152924294565768,0.0,0.0,0.0
1609056000733645439,181,1609056000733645439,-0.0017907476425758975,0.01407391257080375,0.0009709448036870538,-3.582867383088554e-05,2.0351579193802598e-05,5.74283603137613e-05,0.9999999975020494,-0.0007450550449673472,0.008597682728328788,0.0019374814129135612,0.0,0.0,0.0
1609056000833652496,182,1609056000833652496,-0.002257932146187476,0.01345032286937718,0.0007858613022193519,-3.6881158763611695e-05,5.137837206558834e-06,9.709118737921629e-05,0.9999999945933397,-0.0021530419492311187,0.0035060272547701417,0.0005417879892822639,0.0,0.0,0.0
1609056000933651209,183,1609056000933651209,-0.0007829010168860021,0.01565031340672425,0.0007398605710088115,-3.674932501599788e-05,4.77230391748196e-06,7.214151703440798e-05,0.999999996711154,0.004588688051272198,0.010553143578293706,-0.0003726234739079765,0.0,0.0,0.0
1609056001033620358,184,1609056001033620358,-0.001153911735154388,0.015162729506870238,0.0004631893584678641,-4.1202789024163405e-05,1.5570090170504488e-05,8.385724691982136e-05,0.9999999955139293,0.0011952628069201643,0.006013404756663085,-0.0017381104210346674,0.0,0.0,0.0
1609056001133579254,185,1609056001133579254,-0.0029552029847916455,0.016002786600576094,0.0005069669907085723,-3.865052826652838e-05,1.0427185127885014e-05,8.419606158533364e-05,0.9999999956542136,-0.006744648845292527,0.007174920688141146,-0.00022456312695740693,0.0,0.0,0.0
1609056001233576775,186,1609056001233576775,-0.0021460830805078842,0.014703645653569887,0.0006054791535160716,-3.791542387273468e-05,1.1725870717729485e-05,0.00010417398672000325,0.9999999937863487,-0.0013074049109861492,0.0010707616191310068,0.0009811382952018802,0.0,0.0,0.0
1609056001333564281,187,1609056001333564281,-0.001776081707175059,0.013050283957868811,0.0007620742313770681,-3.478623110055787e-05,7.491472195022295e-06,9.078026627794438e-05,0.9999999952463658,0.0007197391047147426,-0.0038131937656556304,0.0021619859746125755,0.0,0.0,0.0
1609056001433563948,188,1609056001433563948,-0.0032972971176817773,0.011134319774416018,0.0007082464566618265,-3.396244499820517e-05,4.992132822849016e-06,0.00011040265863190152,0.9999999933164377,-0.005568005735358162,-0.008316818711388908,0.0008607846921474009,0.0,0.0,0.0
1609056001533572674,189,1609056001533572674,-0.004789043922615947,0.011150560295071044,0.000558651827386751,-2.9368092801033436e-05,7.219007550513251e-06,9.88115911529708e-05,0.999999994660831,-0.008903415405713388,-0.004891014496323003,-0.00043809465342139586,0.0,0.0,0.0
1609056001633571386,190,1609056001633571386,-0.002334751591148789,0.009764158325124301,0.0005821878742843169,-3.8168437272614755e-05,9.353393582307565e-06,0.00012437869032837904,0.9999999914928079,0.0034288307234751694,-0.006646844875936063,0.00011719968957344003,0.0,0.0,0.0
1609056001733584166,191,1609056001733584166,-0.0005435426429694559,0.013271554065555207,0.0006040716247393273,-3.2365646750241374e-05,2.313350131418186e-05,7.199868092176725e-05,0.9999999966167433,0.009534815185359195,0.009617373557998082,0.00018122345523685,0.0,0.0,0.0
1609056001833573103,192,1609056001833573103,0.00035104744889474104,0.015622171769820017,0.0005997842459490503,-4.937369009360947e-05,1.608510730709098e-05,7.583089878832355e-05,0.999999995776587,0.009669256759346443,0.015044944843986035,0.0001751277935844418,0.0,0.0,0.0
1609056001933582306,193,1609056001933582306,-0.0001522317999978255,0.01370817542688861,0.0005758091876445097,-4.894889935337692e-05,5.306710399144287e-06,9.132706680880475e-05,0.9999999946176006,0.0030106362258573256,0.00443853454510772,0.0006358227843355897,0.0,0.0,0.0
1609056002033585072,194,1609056002033585072,-0.0002014296796130646,0.012496294955702708,0.0005397996346615544,-4.6992364008853035e-05,6.2008536281791374e-06,0.00011619059171574083,0.9999999921265016,0.0009161945869842214,2.835803815076296e-05,0.0002938240319935137,0.0,0.0,0.0
1609056002133625269,195,1609056002133625269,-0.00110979333695255,0.01420064238502247,0.000732534690638205,-3.796469065332916e-05,1.6646038213441898e-05,7.942845939867261e-05,0.9999999959863508,-0.002676250285275489,0.007330355794416629,0.0012708270512971872,0.0,0.0,0.0
1609056002233597279,196,1609056002233597279,-0.001669753060333092,0.013369252305122455,0.0008204153262169193,-3.370284472146667e-05,2.734677817725889e-05,0.00010787908401343121,0.9999999932391828,-0.003795194613343515,0.002857453731355564,0.0015032902824881947,0.0,0.0,0.0
1609056002333583117,197,1609056002333583117,-0.001186059032558297,0.011848609535512016,0.0007870341378184115,-3.6343338671746816e-05,7.5258230349391795e-06,9.9340342835734e-05,0.9999999943770047,-0.0007301335877276508,-0.0016905157091470328,0.0008988977236230125,0.0,0.0,0.0
1609056002433533192,198,1609056002433533192,-0.0029340804641362368,0.010170626021414985,0.0007369244122507678,-3.608882664462958e-05,6.034769079332553e-06,0.00013029345323992893,0.9999999908423922,-0.00772353118343672,-0.005642296744041094,0.0004315375943693474,0.0,0.0,0.0
1609056002533488989,199,1609056002533488989,-0.0036220189352644773,0.009528824875579546,0.0007058063188938833,-2.8700127901545542e-05,-6.082714681287015e-06,0.00010462119191923071,0.9999999940968494,-0.007549910429938154,-0.004687665350682251,0.00028266655166188934,0.0,0.0,0.0
1609056002633507252,200,1609056002633507252,-0.0025021136414837813,0.008651772564263919,0.000599921889680873,-3.234713407257909e-05,1.4144357507569815e-05,0.00010587577163800836,0.9999999937719553,-0.00047793008850314893,-0.005207055569796702,-0.000343744405622252,0.0,0.0,0.0
1609056002733527899,201,1609056002733527899,-0.0013307668426862582,0.010151485550456333,0.0005083643478782171,-4.139646021929726e-05,5.246215996631581e-06,7.516479486347322e-05,0.9999999963045257,0.004085482947962818,0.003147576193289833,-9.368893875276403e-05,0.0,0.0,0.0
1609056002833565712,202,1609056002833565712,-0.00028006632248008646,0.014164501962310689,0.0005636547652782261,-3.7768048588925806e-05,2.1544747470506906e-05,8.658115740066393e-05,0.9999999953065448,0.007156807734073543,0.016961795050099274,-0.0004099966395035425,0.0,0.0,0.0
1609056002933545113,203,1609056002933545113,0.0004748216159638892,0.013993863827048448,0.0005824785613589427,-4.600209106423016e-05,1.4516614434229718e-05,0.00011395490663895609,0.9999999923436709,0.007082006928873918,0.011561620013385319,0.0006104310607576619,0.0,0.0,0.0
1609056003033564329,204,1609056003033564329,-0.0015481723480895938,0.013912794949353708,0.0006496665465324723,-3.6948777334589966e-05,1.1752356721560757e-05,6.158484755325941e-05,0.9999999973519812,-0.003869995563829066,0.007988003719539682,0.001789968730431054,0.0,0.0,0.0
1609056003133484602,205,1609056003133484602,-0.0008679722773963754,0.013572984216638329,0.0006841041419141325,-4.047084920473625e-05,1.4534480823388863e-05,9.687808071193406e-05,0.9999999943827412,7.61197316772183e-05,0.00477219743228495,0.0010586509472951767,0.0,0.0,0.0
1609056003233443975,206,1609056003233443975,4.778472709860736e-05,0.013773492094979755,0.0007192662162127522,-3.011234886257171e-05,2.018902764906071e-05,0.00010042090030367012,0.9999999943006386,0.003926545959450682,0.005382341784255624,0.0016504872043934977,0.0,0.0,0.0
1609056003333462715,207,1609056003333462715,-0.001059126236068206,0.011049229427861514,0.000799335256760075,-3.5939105405713444e-05,1.1260108314037166e-05,9.97825493389806e-05,0.9999999943125092,-0.002112721407318088,-0.003893668554340096,0.0013951518193775,0.0,0.0,0.0
1609056003433466196,208,1609056003433466196,-0.0011452296236202648,0.010837943563352867,0.0006860783330633325,-3.113401236169485e-05,6.317990930371578e-06,0.00011351532622669364,0.9999999930525061,-0.0013574423563218136,-0.002517685486234409,0.00013269647303275562,0.0,0.0,0.0
1609056003533447742,209,1609056003533447742,0.0006326512429827889,0.011696681154307359,0.0005769896568953378,-3.85347019233151e-05,1.6069459137197288e-05,8.899004091075302e-05,0.9999999951688031,0.005998987981957277,0.0023700108189819886,-0.000684152443850617,0.0,0.0,0.0
1609056003633034706,210,1609056003633034706,-0.0010824784665536926,0.011470788902741861,0.0006456434183517157,-2.735400187067015e-05,9.798774604881175e-06,0.00010629413813866999,0.9999999939286418,-0.0028409254905061134,0.0013335206547547113,0.0009346144562298862,0.0,0.0,0.0
1609056003733460188,211,1609056003733460188,-0.0008551723888983092,0.010910795954364616,0.0006455566483117578,-3.4852065470859146e-05,1.22459330207567e-05,0.00010337310150802037,0.999999993974679,-0.0006087050806363944,-3.3125129255734105e-05,0.0010634755851237957,0.0,0.0,0.0
1609056003833480597,212,1609056003833480597,-0.00045991783754007316,0.011615864816662463,0.0005468212541719345,-4.8981153607150305e-05,1.250198929098917e-05,0.00014440755432014481,0.9999999882954955,0.0016555364624021812,0.003310489240825604,-3.621779858709029e-05,0.0,0.0,0.0
1609056003933495283,213,1609056003933495283,-0.0011110753311894023,0.011048071826688101,0.0004398363348607168,-3.541570396795863e-05,1.6093614447256774e-05,0.00013922352082742508,0.9999999895517608,-0.0019284843917036234,0.0012510112418140824,-0.00014892091194468923,0.0,0.0,0.0
1609056004033539534,214,1609056004033539534,-0.0007431020665193563,0.011710712560179857,0.00041352918109450223,-3.805093293811297e-05,3.382514633205533e-05,5.2378142218177785e-05,0.9999999973322513,0.0005452117861065443,0.004170955358514146,2.341717063113384e-05,0.0,0.0,0.0
1609056004133553028,215,1609056004133553028,-0.0007465746646848096,0.011454059094125571,0.00066999632087186,-3.565823804795638e-05,1.087350527312706e-05,0.00010700991695704428,0.9999999935795612,0.0005028752471728928,0.0027266334694081313,0.0022917084118887123,0.0,0.0,0.0
1609056004233523130,216,1609056004233523130,0.00019245173501172786,0.011618995254398596,0.0010272789206076046,-2.8912758820140338e-06,-1.017627414221973e-05,2.0210929619387343e-05,0.9999999997397948,0.004228233769615133,0.003511783716511905,0.0029861737146730013,0.0,0.0,0.0
