%time,field.header.seq,field.header.stamp,field.pose.pose.position.x,field.pose.pose.position.y,field.pose.pose.position.z,field.pose.pose.orientation.x,field.pose.pose.orientation.y,field.pose.pose.orientation.z,field.pose.pose.orientation.w,field.twist.twist.linear.x,field.twist.twist.linear.y,field.twist.twist.linear.z,field.twist.twist.angular.x,field.twist.twist.angular.y,field.twist.twist.angular.z
1624165694687980413,0,1624165694687980413,-0.0035776328095250627,-0.0032252001161213605,-0.00031093544696959255,-2.360377635669218e-05,-3.75603444460423e-05,0.00019181287621546786,0.9999999806199507,-0.0013787254803784774,-0.0022698691782337675,-0.00151530274444402,0.0,0.0,0.0
1624165694788042068,1,1624165694788042068,-0.004910804672045501,-0.0007536290393568278,-0.0002005500846194873,-5.71827330237579e-05,-3.441489615203862e-05,0.0002775699453844308,0.9999999592503355,-0.01304067568507865,0.02826363992444868,0.0023766270137685515,0.0,0.0,0.0
1624165694887830257,2,1624165694887830257,-0.005078763627459,-0.00018755309696240254,0.00031540255266452184,-5.153079039692064e-05,-2.2923260411417308e-05,0.0002762065894630406,0.9999999602645081,-0.005183122215655688,0.016175868725984754,0.005031722624656756,0.0,0.0,0.0
1624165694988012791,3,1624165694988012791,-0.004473330808210558,-0.0006870274329658047,0.00015455957003997,-4.9991915444378054e-05,-3.1373088064980295e-05,0.00034772353011835284,0.9999999378024378,0.0006924400472620093,0.006145917130160631,0.0006111226709041178,0.0,0.0,0.0
1624165695087775469,4,1624165695087775469,-0.004736255297739993,-0.0024218977793566175,0.0002259331665115225,-3.2661500459275784e-05,-3.145009382160545e-05,8.231745479366016e-05,0.9999999955839749,-0.0014108877905554718,-0.005074053569028861,0.00126198675521058,0.0,0.0,0.0
1624165695187945604,5,1624165695187945604,-0.0066275357239635605,-0.0030735834812117696,0.00021017150831118022,-4.16456141381361e-05,-2.767780227912788e-05,0.0002694198471078025,0.9999999624562609,-0.011467620331422079,-0.006191579398874721,9.026451800640199e-05,0.0,0.0,0.0
1624165695287742376,6,1624165695287742376,-0.0068060472196670024,-0.0022778123471126122,0.00015215948705097227,-4.459484899245294e-05,-2.761426459419536e-05,0.0001622281769574752,0.9999999854653822,-0.006694940673072966,0.0017718813591290454,-5.357441684944865e-05,0.0,0.0,0.0
1624165695387949944,7,1624165695387949944,-0.005733644242052489,-0.0007362795797688685,-4.2062615740048905e-05,-4.783198604248183e-05,-3.730427785987133e-05,0.0001215618164854453,0.999999990771606,0.0028034338368118743,0.010033654167464916,-0.0006538985419649726,0.0,0.0,0.0
1624165695487762213,8,1624165695487762213,-0.005577005139647265,-0.0007332575681062896,-1.2538914339145175e-06,-4.291711881285594e-05,-3.6212037732119056e-05,0.00022911362836514326,0.9999999721768743,0.002999122932162665,0.006248281538942943,0.0008592580674228145,0.0,0.0,0.0
1624165695587923288,9,1624165695587923288,-0.004805121840698491,-0.0008660476619708576,0.00015707364938569897,-4.405048294905586e-05,-4.342444371418249e-05,0.00022359532059834994,0.9999999730894995,0.006011290077369247,0.003429853657761134,0.002103646216502272,0.0,0.0,0.0
1624165695687779903,10,1624165695687779903,-0.0033773317355336725,-0.0012444206947488032,0.000163057737497527,-4.213184824175442e-05,-2.9636870208960208e-05,0.0002427935300866539,0.9999999691989294,0.01039000111784794,0.0020878376562037584,0.0006849858673668177,0.0,0.0,0.0
1624165695787820816,11,1624165695787820816,-0.00591952866106194,0.0004921353670585173,-0.00012955200522322797,-5.416809890424735e-05,-2.415677212217073e-05,0.00030501093374793095,0.999999951725295,-0.00689122102428349,0.009709362623925476,-0.001225917090477372,0.0,0.0,0.0
1624165695887826681,12,1624165695887826681,-0.008133278543813153,0.00019663012428696057,-9.717264644016021e-05,-4.631025320450509e-05,-4.414476456537671e-05,0.0002189071351552847,0.9999999739931297,-0.015019888536551469,0.004379877290945131,0.00022112304089505377,0.0,0.0,0.0
1624165695987984419,13,1624165695987984419,-0.007672922994578995,-0.0002287719264249681,-6.703952608183111e-06,-4.741588666786876e-05,-4.195044430473886e-05,0.0001996474387356374,0.999999978066394,-0.005690670450422807,0.0018482299748974974,0.0023814653770184873,0.0,0.0,0.0
1624165696087959290,14,1624165696087959290,-0.007227809640721674,0.0007536078866714496,9.703807644978535e-05,-4.351727196922193e-05,-4.3241064269181877e-05,0.000303053424963256,0.9999999521975355,-0.00040604399402963554,0.005992643350352268,0.0016486019481137724,0.0,0.0,0.0
1624165696187725782,15,1624165696187725782,-0.00757609101389995,0.0014991707699593267,7.561578327549885e-05,-5.4362962082837556e-05,-3.875383840535257e-05,0.0001547692211088908,0.9999999857946449,-0.002016223435153044,0.008501868404901232,0.0011621061137894364,0.0,0.0,0.0
1624165696287872314,16,1624165696287872314,-0.007010248967722275,0.0018371290651569441,-0.00017010060010065758,-5.219842613314557e-05,-3.041514040375222e-05,0.00023388868606960046,0.9999999708231593,0.0013423228196741445,0.007673747247123237,-0.0009758455753305993,0.0,0.0,0.0
1624165696387675047,17,1624165696387675047,-0.006417911067070142,0.0005155398391079246,-0.0004133650587818812,-6.2811222489827e-05,-2.9207124549653397e-05,0.00041744635939929063,0.9999999104701083,0.0035898511019273457,0.0003483865909539958,-0.001353244202744974,0.0,0.0,0.0
1624165696487627268,18,1624165696487627268,-0.006467902765351908,-4.0464106024712316e-05,-0.00024581765771030615,-4.688756123589672e-05,-2.146832090124372e-05,0.00022483023788944252,0.9999999733960123,0.0017538410259732894,-0.0014882239519953364,0.0015092484024538803,0.0,0.0,0.0
1624165696587690353,19,1624165696587690353,-0.007651075678694608,0.0002663443977428703,6.091597750941599e-05,-4.866439371760006e-05,-3.3867976377960774e-05,0.0001261582785592901,0.9999999902844093,-0.003925857775848583,0.002451540348494612,0.004264955225747272,0.0,0.0,0.0
1624165696687716961,20,1624165696687716961,-0.00597988141398329,-0.0006232567237556596,0.00025103810185982605,-5.2456253528083625e-05,-3.396396717610712e-05,0.0003698917308253117,0.9999999296374436,0.005617878303691742,-0.0007677323818480078,0.0038976719534360377,0.0,0.0,0.0
1624165696787932396,21,1624165696787932396,-0.004794096161837519,0.0007782717835993351,0.00018722913314390564,-5.950744293693894e-05,-4.5163800580434493e-05,0.000286271699489818,0.9999999562338006,0.008979051427891484,0.007316649551331642,0.0021745682654807216,0.0,0.0,0.0
1624165696887931108,22,1624165696887931108,-0.0057523705307232316,0.003098186509952995,6.560033012168918e-05,-5.175578328416017e-05,-2.2435591805696792e-05,0.00025787793350296855,0.999999965158473,0.0011668326295489386,0.014540934962299358,0.0006912500396098833,0.0,0.0,0.0
1624165696987973690,23,1624165696987973690,-0.006196522768961642,0.0016752931898857777,8.97204856978562e-06,-5.36284084930988e-05,-1.7800008358868318e-05,0.0003086534119372451,0.9999999507701065,-0.002166140682860815,0.003666258054912594,0.00037073950004502544,0.0,0.0,0.0
1624165697087989807,24,1624165697087989807,-0.008863176520057072,0.002106298787211352,-0.0001152602215259481,-4.580815125246751e-05,-2.446030587529363e-05,0.00014708783552804317,0.9999999878342328,-0.012832429741862201,0.005974762322702206,-0.0005955515370534058,0.0,0.0,0.0
1624165697187740803,25,1624165697187740803,-0.007345112728514374,0.0017401835957958525,-7.236972354593618e-05,-5.230690043075243e-05,-4.698507182032251e-05,0.0002982242526726709,0.9999999530593366,-0.0005828665401883138,0.004173172689036485,0.0014821963308089498,0.0,0.0,0.0
1624165697287718296,26,1624165697287718296,-0.006494809540407148,0.0018148088225606698,0.00019288340691919395,-4.173269611329546e-05,-1.3608002088786036e-05,0.00031579231438855644,0.9999999491742029,0.003520628323376993,0.0039947319851489594,0.0023417632177725155,0.0,0.0,0.0
1624165697387732267,27,1624165697387732267,-0.006094491714986425,0.0030122450884987753,0.00014344846556982752,-5.770395865386553e-05,-3.40211302772886e-05,0.00023642024557364068,0.9999999698091366,0.003945798046902488,0.008460493446443921,0.0013648774717856212,0.0,0.0,0.0
1624165697487821817,28,1624165697487821817,-0.006455260698326913,0.0029001761419608966,0.00019858561261185904,-4.714342148147364e-05,-2.2887686731178162e-05,0.0001964803877674423,0.9999999793245494,0.0006100492233618352,0.005244348087159753,0.0019880879742957243,0.0,0.0,0.0
1624165697587783575,29,1624165697587783575,-0.0068864410890013125,0.004693706401204113,0.00025704797248962425,-5.41257529010977e-05,-2.2145749785619445e-05,0.00015198785434074335,0.9999999867398256,-0.000788677636157941,0.011928420459030503,0.0018540656143666771,0.0,0.0,0.0
1624165697687794924,30,1624165697687794924,-0.007940769098172495,0.003555694449385607,0.00022163485256681062,-5.268213325046995e-05,-2.2848167034412257e-05,0.00038375169345457197,0.9999999247185879,-0.0050094352693225205,0.003595896428283984,0.0008316243465650664,0.0,0.0,0.0
1624165697786471367,31,1624165697786471367,-0.008407082871624243,0.004032441124741976,4.7401505709812374e-05,-6.2548210049847e-05,-4.328778166831723e-05,0.0001921825924215734,0.9999999786398653,-0.0043616694759220035,0.005898184029433047,8.618041119641984e-05,0.0,0.0,0.0
1624165697887632370,32,1624165697887632370,-0.008443596690617004,0.002926883937265658,-1.249491749821442e-06,-4.966870716433439e-05,-4.010129078406935e-05,0.00029071829757699574,0.9999999557038829,-0.002651571047389556,0.00035338581879271625,0.00016687547504108408,0.0,0.0,0.0
1624165697987845659,33,1624165697987845659,-0.007765352220266001,0.0016167032794948094,-9.346664896868748e-05,-5.430550762883665e-05,-3.9444089125322333e-05,0.000250755672641623,0.9999999663083288,0.001374335960309261,-0.004077495110046127,0.00022488437559757709,0.0,0.0,0.0
1624165698087923050,34,1624165698087923050,-0.007624405744344073,0.002969555269168403,5.703965123512973e-05,-5.2916895147160666e-05,-3.4647453020121655e-05,0.00028788912050946476,0.9999999565595985,0.0018211455887179346,0.004529630145953829,0.0018372044114913172,0.0,0.0,0.0
1624165698187921524,35,1624165698187921524,-0.006541465689195469,0.0028144504375288105,6.958960759308126e-05,-5.228943243544276e-05,-1.4180783496109784e-05,0.00044115763913602,0.9999999012223183,0.005609018186794691,0.0037772119965477986,0.0015149980188731492,0.0,0.0,0.0
1624165698287658691,36,1624165698287658691,-0.00650528706350013,0.0026177469231020547,-8.17221853053304e-05,-4.477771867729238e-05,-3.167841779758709e-05,0.00027006377149819467,0.9999999620284901,0.0038038726626481068,0.0031914311660597144,0.0005997189935910039,0.0,0.0,0.0
1624165698387605906,37,1624165698387605906,-0.006663365287162475,0.00344265822963299,-0.00019430731206669777,-6.21207929167566e-05,-2.738240721838679e-05,0.0002633146479439812,0.9999999630282964,0.0019257870739697275,0.007048136545756667,0.0006938171359772189,0.0,0.0,0.0
1624165698487608194,38,1624165698487608194,-0.006447400704510257,0.0023008897748329625,0.0001834375579905694,-4.0265173184069226e-05,-3.1832896648425656e-05,0.00021125925911390044,0.9999999763674465,0.0019465753168945664,0.0005927730104036966,0.0036185314610705267,0.0,0.0,0.0
1624165698586011887,39,1624165698586011887,-0.007768382430624271,0.003323327797782008,2.235018055138527e-05,-4.894360300781066e-05,-4.084580958813392e-05,0.0002043530580938186,0.9999999770879786,-0.004473232410694039,0.006299288294588377,8.82296273375079e-05,0.0,0.0,0.0
1624165698687800646,40,1624165698687800646,-0.008062651845822753,0.0037032754783310026,-0.00021693681123174317,-5.95713093797951e-05,-3.573643344110133e-05,0.0002298542111990645,0.999999971170597,-0.003555568894196604,0.007552651586041832,-0.0007746207223241539,0.0,0.0,0.0
1624165698787603378,41,1624165698787603378,-0.007395529066386631,0.003187797408294124,-0.00022824552033622592,-4.993692879322514e-05,-1.959597965406215e-05,0.0002495304043100095,0.9999999674284316,0.0007980635134740904,0.004238136156060724,0.0005902208293407994,0.0,0.0,0.0
1624165698887815714,42,1624165698887815714,-0.00663548065868861,0.003454242102403029,3.39569209182937e-05,-4.6768921083712425e-05,-2.3588473168600643e-05,0.0002324893782172165,0.9999999716024627,0.0042110328303015514,0.00562006618095432,0.0028952413278656337,0.0,0.0,0.0
1624165698987664938,43,1624165698987664938,-0.006409814338871797,0.0025286874627080008,3.8385563914042475e-05,-5.114743444012064e-05,-3.146294050220312e-05,0.000265768119702975,0.9999999628806565,0.003093694499862184,0.0012477387837873917,0.002354685004329236,0.0,0.0,0.0
1624165699087730885,44,1624165699087730885,-0.005855678198936537,0.0034643633722772904,4.545382737793437e-05,-4.997794047330246e-05,-3.7763797087102056e-05,0.00024584278076929,0.9999999678187059,0.004788588063651613,0.006148194616876587,0.0018028579374301792,0.0,0.0,0.0
1624165699187749624,45,1624165699187749624,-0.006209079601231705,0.0036400493152802227,-0.00013775125216336953,-5.516272586874813e-05,-3.856087145141337e-05,0.00022035143817551918,0.9999999734576792,0.0012307261266694507,0.00557827550159281,-0.001169558362588747,0.0,0.0,0.0
1624165699287866831,46,1624165699287866831,-0.005298688799622746,0.0042127560243964655,-0.00017908525996495738,-5.6184053076013354e-05,-2.4305111149201674e-05,0.00019000605777242115,0.9999999800751471,0.0049390930935014465,0.006633746322096892,4.7434192792301065e-05,0.0,0.0,0.0
1624165699387660027,47,1624165699387660027,-0.004770432509283157,0.003684657620866655,0.00010067010304662951,-4.071525917380586e-05,-1.802465238324583e-05,0.00017227398645940756,0.9999999841695176,0.005102106141021743,0.003466762548854472,0.0034281485818883676,0.0,0.0,0.0
1624165699488023996,48,1624165699488023996,-0.005663805488489726,0.0036861234472188643,0.00019253234617734136,-4.995169252756211e-05,-2.1019371738880794e-05,0.00022799872956284298,0.9999999725397868,-0.0010758469581380178,0.003657837318381517,0.0028549135497889736,0.0,0.0,0.0
1624165699587604046,49,1624165699587604046,-0.007502704678419962,0.004012045612304851,0.00033874372274332945,-4.43115336646896e-05,-2.3074402291946757e-05,0.00025239201167089265,0.9999999669011556,-0.008046916778406485,0.004161614576498607,0.0025146667802150137,0.0,0.0,0.0
1624165699687576532,50,1624165699687576532,-0.008317372746201729,0.003085540829639601,0.00024732781270855593,-4.758128327792974e-05,-3.49831154177983e-05,0.00028615638529602195,0.9999999573133517,-0.00822444536700937,0.00011400434752254981,0.0013771449589923747,0.0,0.0,0.0
1624165699787605762,51,1624165699787605762,-0.00898917892814549,0.0035891501710013456,0.0005976511194231555,-3.0460057555212515e-05,-2.971369581747554e-05,0.0002539350486011676,0.999999966853125,-0.007440476091762426,0.002725247793334735,0.0034166266187203812,0.0,0.0,0.0
1624165699887593031,52,1624165699887593031,-0.008195404409319627,0.0029494714183329078,0.000507756913440563,-4.205217464540974e-05,-1.6451195206859085e-05,0.00026644771144266726,0.999999963483284,-0.0007970846292456053,0.0003719654633540972,0.0018261883998069816,0.0,0.0,0.0
1624165699987712860,53,1624165699987712860,-0.006943252812956763,0.0029646046180762274,0.00020798581038590245,-4.9484241668269485e-05,-2.0290674341956692e-05,0.0002614441121975506,0.9999999643932758,0.004877506449720102,0.002339595948658846,-0.0011023259885940494,0.0,0.0,0.0
1624165700087576389,54,1624165700087576389,-0.008385244158914217,0.0042210709693232705,5.856868065765152e-05,-5.4493511507418495e-05,-3.1428234440300335e-05,0.00021005384049587917,0.9999999759600411,-0.0034846278042749224,0.007682474976044908,-0.0012825458830306856,0.0,0.0,0.0
1624165700185961962,55,1624165700185961962,-0.009475209680027335,0.003703066896852065,-6.241901155611761e-05,-4.7318953854792444e-05,-3.063608617213458e-05,0.0003081194721735733,0.9999999509423553,-0.006425156963628019,0.003118784519065594,-2.590406892241854e-05,0.0,0.0,0.0
1624165700287514687,56,1624165700287514687,-0.010354345013039369,0.0027446722317818932,7.342378341532848e-05,-5.747857445939394e-05,-2.329775180209036e-05,0.0004070953737587711,0.9999999152133767,-0.007723454141969796,-0.0007379501872843953,0.0021403884510343913,0.0,0.0,0.0
1624165700387476444,57,1624165700387476444,-0.009248511169267117,0.0037232890358046724,2.0780542660235738e-05,-5.31071553585987e-05,-3.441275586832943e-05,0.00023299215572970106,0.9999999708550117,0.0008594734312333194,0.005759642554723848,0.001599261541853688,0.0,0.0,0.0
1624165700487637758,58,1624165700487637758,-0.00737474274295988,0.0032568036805320226,0.00025805061830390055,-4.69101851227689e-05,-2.0894121732746337e-05,0.00045819503040486423,0.9999998937100746,0.009047577269970058,0.0027045192740556465,0.0036310560445995364,0.0,0.0,0.0
1624165700587666035,59,1624165700587666035,-0.006262939227317403,0.003146211736147423,0.00032717666565243295,-4.997420527213459e-05,3.5123603941830156e-06,0.0004047367252725992,0.9999999168391972,0.009706423388528337,0.002441733534807415,0.0028613082198604266,0.0,0.0,0.0
1624165700687581539,60,1624165700687581539,-0.00687781071523443,0.003343051136727444,0.00016266091539648416,-5.370970696896792e-05,-2.701888107384577e-05,0.0002829735820554101,0.9999999581555865,0.003356769341068413,0.0035637526293562207,0.0012065227278813717,0.0,0.0,0.0
1624165700787400246,61,1624165700787400246,-0.007861076911255909,0.003067451378200412,0.0001324459921294583,-4.095193065297925e-05,-3.3504206054624484e-05,0.0002796218470029377,0.9999999595060017,-0.002234646225729452,0.0015515774233743193,0.0011204822819310442,0.0,0.0,0.0
1624165700886053324,62,1624165700886053324,-0.008514375253186612,0.0024290475693868013,5.960958968002365e-05,-3.9994705782611035e-05,-2.9621232918338818e-05,0.0003172751309589591,0.9999999484297343,-0.004294822537360308,0.0002062118573352362,0.0004332639299783101,0.0,0.0,0.0
1624165700987564325,63,1624165700987564325,-0.008754240932930956,0.0029405480612294393,0.0001465437040218659,-3.795785379272158e-05,-3.14918306707625e-05,0.0002790277587534167,0.9999999598554734,-0.003019627009544424,0.003604323056596076,0.001968550912976653,0.0,0.0,0.0
1624165701087613821,64,1624165701087613821,-0.008136907560149653,0.003164463426360112,0.00014589837700142836,-4.5001079703147814e-05,-2.1924287871047697e-05,0.00026806044507394296,0.999999962818899,0.0007920709140856099,0.004731525090226998,0.0017445530210786176,0.0,0.0,0.0
1624165701187583685,65,1624165701187583685,-0.007375567773831287,0.0036328345950070646,3.075162628750427e-05,-3.95922854769e-05,-6.345764004702673e-06,0.0002841070061517096,0.999999958837681,0.0037019831736564385,0.006186886025816331,3.7053916194822265e-05,0.0,0.0,0.0
1624165701287755489,66,1624165701287755489,-0.006939251749238919,0.0034978490079272443,-0.00022307392769937908,-5.64130340342692e-05,-2.967717463111734e-05,0.00025217620737895586,0.9999999661719831,0.003871637177014738,0.005252393758891303,-0.0013540605876714348,0.0,0.0,0.0
1624165701387547255,67,1624165701387547255,-0.00799178961630075,0.004489586951017677,-0.000276020549676942,-4.693099882238774e-05,-1.82821790680309e-05,0.0001801542635485859,0.9999999825038277,-0.0014272658216533708,0.008232323251308675,-0.0002500385662247513,0.0,0.0,0.0
1624165701487767458,68,1624165701487767458,-0.007866943476019924,0.0036338697914302474,-0.0002132082176428562,-5.8171491261982424e-05,-2.97556074286829e-05,0.0002529639901382196,0.999999965869935,-0.000860262609718555,0.0033108545837448045,0.0014929934829272017,0.0,0.0,0.0
1624165701587731600,69,1624165701587731600,-0.0074226150879846044,0.0034504775046946923,-6.0712712819081536e-05,-4.996378965147998e-05,-2.081502524879193e-05,0.0003083435586070576,0.999999950997286,0.0010035482368851891,0.0030724919327628202,0.002855833662382119,0.0,0.0,0.0
1624165701687503099,70,1624165701687503099,-0.008009054972145045,0.003929764666846606,-0.0001484294793129019,-5.609911666181691e-05,-2.0008387768269164e-05,0.0002537341966220745,0.9999999660357404,-0.0015724516155204006,0.005768292713600843,0.000616563844662233,0.0,0.0,0.0
1624165701787496805,71,1624165701787496805,-0.008023484816660405,0.003971844585753619,-5.416759073240338e-05,-4.6265443812477354e-05,-1.2876076139989143e-05,0.00032263885578266623,0.9999999467989258,-0.0008217968163237735,0.0052357418914199955,0.0020497435490358126,0.0,0.0,0.0
1624165701885939360,72,1624165701885939360,-0.008296139447489735,0.004464069725006412,-6.05686398183788e-05,-4.606956823534872e-05,-2.134228666710302e-05,0.0002453131515016321,0.9999999686217638,-0.0020185881290755866,0.006556458081976548,0.0011063417058400765,0.0,0.0,0.0
1624165701987489700,73,1624165701987489700,-0.008015553213559654,0.004493281180692942,1.4836207385990876e-05,-5.996920185455021e-05,-3.287076363292204e-05,0.000261536203878625,0.9999999634609951,-7.57946866737874e-05,0.005936134566331894,0.0016217713330820905,0.0,0.0,0.0
1624165702087491035,74,1624165702087491035,-0.006538839367166478,0.004020092596700863,3.426305876820718e-05,-4.9342298734779e-05,-2.4455347268401327e-05,0.0002364682018728313,0.999999970525016,0.006691839644223634,0.004244544898683954,0.001393340286524056,0.0,0.0,0.0
1624165702187495232,75,1624165702187495232,-0.007913558463497821,0.004199120840647303,0.0003784136189369927,-3.506014542694444e-05,-2.69348064280126e-05,0.00041497001066636934,0.9999999129225778,-0.001712593652745992,0.003906701273326235,0.004148333609778932,0.0,0.0,0.0
1624165702285948277,76,1624165702285948277,-0.006517981710363044,0.003735313780344055,0.0002380378885765779,-3.387067370992958e-05,-1.1023951909550849e-05,0.0002853461275000966,0.9999999586544033,0.004516891669548824,0.0024947399576237842,0.00046117248166284474,0.0,0.0,0.0
1624165702387485981,77,1624165702387485981,-0.006534879034250734,0.003914833548762034,-2.7099887459144667e-05,-4.5526126029427675e-05,-1.3577122213927721e-05,0.00031448735709405004,0.9999999494203509,0.002517128077217787,0.0033029609848878455,-0.0017508125127290947,0.0,0.0,0.0
1624165702487509489,78,1624165702487509489,-0.007215156579523568,0.003554649185050685,-0.00027231034347918704,-6.0470129647887155e-05,-2.301878720608353e-05,0.0002999682260442371,0.9999999529162634,-0.0019029252392800356,0.0017818513621872534,-0.0008996021081186951,0.0,0.0,0.0
1624165702587633371,79,1624165702587633371,-0.008404696523685985,0.00362390544234804,-0.0001210571070927753,-4.862701785183336e-05,-3.18489733861644e-05,0.0002827166710525399,0.9999999583461521,-0.006168505598838518,0.0024428666982053335,0.001441200905063565,0.0,0.0,0.0
1624165702687458754,80,1624165702687458754,-0.008900775018738757,0.0036371288982661653,0.0001364246522768216,-4.644742364644443e-05,-3.0005951435624477e-05,0.00030417983349856993,0.999999952208436,-0.005677646918087898,0.0032714503642719346,0.003031001660273295,0.0,0.0,0.0
1624165702787637234,81,1624165702787637234,-0.007157018462023978,0.002310804357093245,9.285495155913398e-05,-5.197783626679257e-05,-2.8433041358017014e-05,0.00023186769924159228,0.9999999713636006,0.004077509210057697,-0.0007764841680083052,0.0015273200331044749,0.0,0.0,0.0
1624165702887609005,82,1624165702887609005,-0.006777420005695182,0.0031704569064809605,5.696617918404332e-05,-4.581136966089796e-05,-3.41060453386756e-05,0.0002918263792466726,0.9999999557877117,0.00467134400681405,0.004181141629156498,0.001195468044892731,0.0,0.0,0.0
1624165702987627506,83,1624165702987627506,-0.006688358283631555,0.003564761205821561,0.00017171670559361607,-3.8764457941937724e-05,-1.331705847376227e-05,0.0003190711243470316,0.9999999482567762,0.0033386653392487083,0.004696523340778748,0.001654714431762821,0.0,0.0,0.0
1624165703087474346,84,1624165703087474346,-0.0061320467230914924,0.0038809336443200383,6.0149565114551565e-05,-4.7209745488228374e-05,-1.836292792818976e-05,0.0002459346945851093,0.9999999684750664,0.004752903951262186,0.00587132315087634,-0.00015478732675641574,0.0,0.0,0.0
1624165703187510729,85,1624165703187510729,-0.007307375654957326,0.004263846897461461,-0.00018480295974429188,-6.09580854008941e-05,-3.578269497379033e-05,0.0002628259347047237,0.9999999629631009,-0.0021904448765771335,0.0059681046381581775,-0.001121603961898714,0.0,0.0,0.0
1624165703287739992,86,1624165703287739992,-0.007580791346052092,0.0037486802923220345,-5.034721154548465e-05,-4.351119668535453e-05,-2.4625328137545512e-05,0.00021078269201237898,0.9999999765354943,-0.0023543577525022975,0.00251300510832554,0.0013303043753563827,0.0,0.0,0.0
1624165703387536764,87,1624165703387536764,-0.0081943407754457,0.003812507783479304,-4.4495031926418845e-05,-4.664665797802938e-05,-2.7316832858833438e-05,0.0003423184614069572,0.9999999399479554,-0.004113640980848258,0.0028099488429212567,0.0007233275541853516,0.0,0.0,0.0
1624165703487709761,88,1624165703487709761,-0.008817299598623232,0.0040067054089603996,-9.982806423829277e-05,-4.4090546554561544e-05,-2.879604762129599e-05,0.00020768473271827852,0.999999977046913,-0.0050793739026202805,0.00451911016863538,0.0006388399446731566,0.0,0.0,0.0
1624165703587451696,89,1624165703587451696,-0.00790306571466602,0.0039374879792203245,-3.3727201457150994e-05,-5.260815200580188e-05,-2.943597563375345e-05,0.0003229697641355767,0.9999999460281982,0.0014534629868848785,0.004670834956904475,0.001730891230107108,0.0,0.0,0.0
1624165703685670137,90,1624165703685670137,-0.009525876949180818,0.0043452399629839815,-0.0001904723961401344,-4.978349358599037e-05,-1.8247699115027683e-05,0.0004999025356234577,0.999999873643013,-0.005960924684153772,0.005824372800026042,-0.0006157788197143348,0.0,0.0,0.0
1624165703787401438,91,1624165703787401438,-0.008987921148492518,0.0038575374307146275,4.03939095699485e-05,-4.655573291971745e-05,-3.0473956785980083e-05,0.0003503943703001565,0.999999937063822,-0.0008855527178982811,0.003385913760708968,0.0022334189107896495,0.0,0.0,0.0
1624165703887334824,92,1624165703887334824,-0.007945672950104794,0.0032981100887085357,3.716995215353949e-05,-4.518813439310408e-05,-2.842320402413878e-05,0.00029415893598667953,0.9999999553103164,0.004522285316874646,0.0019432566546537786,0.0017116185263335087,0.0,0.0,0.0
1624165703987375259,93,1624165703987375259,-0.008307100264223334,0.002952284464934708,0.0001541498593850059,-4.494463313150037e-05,-2.4841022017083267e-05,0.0003208340664092661,0.9999999472141813,0.0007358623990483793,0.0012975706426284388,0.0023159474901491587,0.0,0.0,0.0
1624165704087388992,94,1624165704087388992,-0.007878913785230006,0.0035961448687554655,0.00017629292837722865,-5.6705374814714395e-05,-2.8367615141276097e-05,0.0002492287995898416,0.9999999669323718,0.002798514038088058,0.005532896179169945,0.002106289044681357,0.0,0.0,0.0
1624165704187413454,95,1624165704187413454,-0.005971859254572663,0.0037944950583542144,0.00014164891739946862,-4.9762891495680814e-05,-1.679406086615988e-05,0.0002819302014044077,0.9999999588784673,0.009951660588111783,0.006451684731424958,0.0019436344218553493,0.0,0.0,0.0
1624165704287658453,96,1624165704287658453,-0.00534125478490263,0.003568286483008006,8.42213590638252e-05,-4.6559138974556776e-05,-1.2258564595108362e-05,0.0003680824408878189,0.9999999310986233,0.008311353612055615,0.00487573605706273,0.0007336304045333595,0.0,0.0,0.0
1624165704387386799,97,1624165704387386799,-0.00761318796685056,0.0048598885802360195,-0.0001821801255387376,-5.972455394957822e-05,-2.2013514089746475e-05,0.00017237132829735511,0.999999983118234,-0.004690385571763742,0.008677553566816341,-0.001049179899292403,0.0,0.0,0.0
1624165704487362385,98,1624165704487362385,-0.007974652370582777,0.004140094492257506,-5.161687703115447e-05,-4.8109421164302126e-05,-2.644955473311577e-05,0.00034613535340073356,0.9999999385880897,-0.004638524074190199,0.004334329562547993,0.0017442990312148028,0.0,0.0,0.0
1624165704587547541,99,1624165704587547541,-0.00951153296196453,0.0050167208049122745,-0.00011054861926417776,-6.0381827144380085e-05,-3.2393692142783496e-05,0.00031227334918601394,0.9999999488949983,-0.00912485202991382,0.007591321011479621,0.0006339444574595816,0.0,0.0,0.0
1624165704685886860,100,1624165704685886860,-0.009820725504622957,0.004920790010878849,0.0001571500273649674,-3.91837643561577e-05,-3.3339177881937384e-05,0.00020240739630606166,0.999999978192168,-0.006503201666726327,0.005534685932946213,0.0027719532395039537,0.0,0.0,0.0
1624165704787503958,101,1624165704787503958,-0.008206644259812126,0.004319286705423702,0.0002763036563625135,-3.8230664310680194e-05,-2.021688874019607e-05,0.0003232437707505224,0.9999999468215572,0.0032925609047629234,0.0022728383353010882,0.0017666185298665493,0.0,0.0,0.0
1624165704887461662,102,1624165704887461662,-0.00809759176330439,0.004214134890018488,-4.552961408951925e-05,-5.497934678487674e-05,-2.0405910093929196e-05,0.0003458455644982651,0.9999999384758358,0.0022194347867140057,0.00266195537771213,-0.0010955093450195632,0.0,0.0,0.0
1624165704987640142,103,1624165704987640142,-0.007982803841318168,0.003253110710311171,2.2010352902936922e-06,-4.1404659993979457e-05,-2.4956041663347563e-05,0.0003205232232786138,0.9999999474638347,0.001998765601495666,-0.00144754176901153,0.000517418432464405,0.0,0.0,0.0
1624165705087604523,104,1624165705087604523,-0.007115000732978259,0.002934125596796508,2.2365180920226507e-05,-4.782710102137726e-05,-2.696371208123175e-05,0.00034074550795296153,0.9999999404389901,0.005017717138905616,-0.0008324402456506581,0.001242114571860871,0.0,0.0,0.0
1624165705187716722,105,1624165705187716722,-0.007092986734230388,0.003538097984335626,8.110780681946831e-06,-5.045964626897847e-05,-2.5184851267584104e-05,0.0002949581121655467,0.9999999549096079,0.003282698915202358,0.002654701384988257,0.000946985919148571,0.0,0.0,0.0
1624165705287491083,106,1624165705287491083,-0.007856258226542193,0.003552034983096034,-4.9241218403789234e-05,-5.7239576641236746e-05,-2.7059670297628024e-05,0.00036351383350759594,0.9999999319245252,-0.001482328125646349,0.0031089232555499054,0.0005449383921432339,0.0,0.0,0.0
1624165705387341022,107,1624165705387341022,-0.005990501469088118,0.003216046242852918,-8.471990495243344e-05,-4.881318393063164e-05,-1.9625230851911242e-05,0.0002516727476549918,0.9999999669464529,0.007278715570142263,0.0025879799704751575,0.0008532064655990712,0.0,0.0,0.0
1624165705487262487,108,1624165705487262487,-0.0060486603243559535,0.003587474315648667,-7.008924695204598e-06,-3.688272483992647e-05,-1.3662464011337412e-05,0.00028012303381742175,0.9999999599920201,0.004116217216207847,0.003808717459320936,0.001076077245070159,0.0,0.0,0.0
1624165705587475061,109,1624165705587475061,-0.006374035949958446,0.003723303575189032,1.807212749145325e-05,-4.883057490391656e-05,-2.1543632661578935e-05,0.0002663691147311924,0.9999999630994476,0.0011408238158832243,0.004605112435400421,0.0015119445710179069,0.0,0.0,0.0
1624165705687306643,110,1624165705687306643,-0.0074036252781320595,0.003813857032038773,0.00015818077874386337,-3.8804443767471564e-05,-1.8264029843092624e-05,0.000391330412518836,0.9999999225105489,-0.003637214460111419,0.0036541108136527675,0.0024973880630957414,0.0,0.0,0.0
1624165705787371874,111,1624165705787371874,-0.007939372550222996,0.004938471631413165,-8.805569087941848e-05,-5.588443519100592e-05,-2.474436854941452e-05,0.00034368966978292546,0.9999999390710046,-0.0042200898842729056,0.008008461416047118,-0.0002939843358705325,0.0,0.0,0.0
1624165705887161493,112,1624165705887161493,-0.008811930603487655,0.005232466968855703,-0.0001307418281463605,-5.051398098466977e-05,-3.15326966938131e-05,0.00030215263919980407,0.9999999525788809,-0.00642330582041229,0.007450507085254414,0.0007004623147061726,0.0,0.0,0.0
1624165705987720013,113,1624165705987720013,-0.009193334476227494,0.004524705593552303,-0.00022491986081015248,-5.3450886899405464e-05,-2.694386868998924e-05,0.00029646746089944005,0.9999999542620142,-0.005626896547933065,0.0030268014242459135,0.0003512366844066766,0.0,0.0,0.0
1624165706087334871,114,1624165706087334871,-0.008777779427253808,0.004751550347200166,7.60540721099629e-05,-4.1370378759616355e-05,-1.9230079993555214e-05,0.0002039181678077001,0.9999999781680152,-0.0005719915806101815,0.0038271293162154977,0.003093833894586,0.0,0.0,0.0
1624165706187578917,115,1624165706187578917,-0.007998726033300953,0.004403537991725852,-7.345718036700517e-05,-5.740001772890391e-05,-2.8674717718124973e-05,0.000309550373670356,0.9999999500307579,0.0030921660727883066,0.0025324491024675063,0.0011862008958941233,0.0,0.0,0.0
1624165706285816908,116,1624165706285816908,-0.008780242057249348,0.004804771773759327,1.1291395050440476e-05,-4.2303270291283114e-05,-2.3402508328197474e-05,0.0002006500834102643,0.9999999787011266,-0.0012942558004334602,0.004642858560999005,0.0016220372675727394,0.0,0.0,0.0
1624165706387352228,117,1624165706387352228,-0.008243108243712613,0.004086455609176137,0.00022456231419212537,-4.327939249824815e-05,-2.741497599823435e-05,0.000306811809238048,0.9999999516208891,0.0012995747522146636,0.0010307870853346738,0.0024333300201453602,0.0,0.0,0.0
1624165706487361908,118,1624165706487361908,-0.007854798155255034,0.003559256821898409,4.311121233105872e-05,-5.7097411162480174e-05,-2.6445682380825214e-05,0.00034364041489327114,0.9999999389758633,0.002475470735258522,0.0006696217169585301,4.865647512778803e-05,0.0,0.0,0.0
1624165706587359428,119,1624165706587359428,-0.008523176220552767,0.0039265556795876734,3.9582603285599626e-05,-4.6145528879405426e-05,-2.034073303564513e-05,0.00032083622007168095,0.999999947260458,-0.0010054283361355964,0.003855822814156192,0.0003813090629799568,0.0,0.0,0.0
1624165706687483788,120,1624165706687483788,-0.008190319133191603,0.003658475468784101,2.9724639415132237e-05,-4.388260522539649e-05,-2.1811232546569032e-05,0.00029621704033904703,0.9999999549270021,0.0010766013996534518,0.0020810246492951713,0.0010437235927953465,0.0,0.0,0.0
1624165706787248373,121,1624165706787248373,-0.008412865796205862,0.0023330287183976747,-8.849707275308664e-05,-4.8037549199933626e-05,-2.510860672902975e-05,0.0003850356046785033,0.9999999244047411,3.933067461619989e-05,-0.0030947164345799865,-0.0005312936582897411,0.0,0.0,0.0
1624165706885704994,122,1624165706885704994,-0.007142698563995749,0.0026727352911914315,-2.6340920775436707e-05,-3.223751799316816e-05,-1.8377904635574726e-05,0.00029773943586177516,0.9999999549870867,0.006137807820087294,0.0018900787397655786,0.0012149275263534977,0.0,0.0,0.0
1624165706987744331,123,1624165706987744331,-0.008805038054412169,0.002771377419027703,-0.00014045863116064763,-5.819838797879573e-05,-4.094391635838372e-05,0.0002992076145601577,0.9999999527056482,-0.003541494608792644,0.00230890775565999,0.0002608767003297707,0.0,0.0,0.0
1624165707085793972,124,1624165707085793972,-0.0098407664466048,0.0033656644871618876,-3.3348987053713324e-06,-3.817166237676978e-05,-2.744219803864528e-05,0.00026607169722847113,0.9999999634978258,-0.006209136112859586,0.004935695559697303,0.0016020832626933762,0.0,0.0,0.0
1624165707187370062,125,1624165707187370062,-0.009261415263329352,0.004215216438652714,-8.728169160877399e-05,-4.555446208148795e-05,-1.816896796835248e-05,0.0003281370046842982,0.9999999449603666,-0.0008714382724718649,0.00734337187148934,-0.00021060217029899707,0.0,0.0,0.0
1624165707285780668,126,1624165707285780668,-0.00964179092850322,0.0037945513519519677,-0.00018352883623844762,-4.2767269215014104e-05,-3.0487368791731858e-05,0.0003379282034872288,0.9999999415229784,-0.0023910638741597473,0.004229070498628344,-0.000155800615033174,0.0,0.0,0.0
1624165707387515068,127,1624165707387515068,-0.01046537245911556,0.00406416436480667,-0.0002878211594205626,-5.775647817027507e-05,-3.08651641743809e-05,0.0002791140932153924,0.9999999589034002,-0.004834031415924918,0.005453921908170277,-0.0004291999995692243,0.0,0.0,0.0
1624165707486128569,128,1624165707486128569,-0.01017671539229998,0.00476678370694561,-0.00016200740789191597,-4.1269914041243506e-05,-1.8946098102872127e-05,0.00033376836024956674,0.9999999432682327,-0.0010213300726506073,0.007154618490751631,0.0014118201093474719,0.0,0.0,0.0
1624165707587282419,129,1624165707587282419,-0.010569590942716145,0.004985704386228425,-1.9957983195054887e-05,-5.247366515267624e-05,-3.107721170848843e-05,0.0002947816109358217,0.9999999546922339,-0.002070531289281836,0.005976456632918183,0.0018958214371529998,0.0,0.0,0.0
1624165707687470675,130,1624165707687470675,-0.009977768537547515,0.00394686399736408,-0.000112020141110499,-5.472147064849838e-05,-3.5289178192836457e-05,0.0002805184796696388,0.9999999585347803,0.0018485416767120254,0.001072134219823142,0.00048621442199174494,0.0,0.0,0.0
1624165707785742760,131,1624165707785742760,-0.009538664911525633,0.003774671976421972,-7.562607085378849e-05,-3.85014704584072e-05,-2.8315143918365675e-05,0.0002766129084698727,0.999999960600566,0.0032248355317875703,0.0009462815217181855,0.0017780602894600145,0.0,0.0,0.0
1624165707887284994,132,1624165707887284994,-0.010104822219351602,0.003644011478961759,3.803367504500938e-05,-5.262139107658015e-05,-3.103488538135487e-05,0.0004638552151564896,0.9999998905530483,-0.00022775377645805608,0.001120376656381877,0.0017635113393857974,0.0,0.0,0.0
1624165707987062693,133,1624165707987062693,-0.010046923150098799,0.004432787641431708,-5.206775504144752e-05,-5.5080659170451093e-05,-4.1023457849594565e-05,0.0003221164446909628,0.9999999457620674,0.0012505939935526158,0.005322740094544763,0.0006412823582547392,0.0,0.0,0.0
1624165708087179661,134,1624165708087179661,-0.009468879165470455,0.004563107114630411,0.0003082962456266797,-3.585088191336874e-05,-3.107683706189175e-05,0.0003454166486661149,0.999999939218112,0.003569278888298058,0.005174308649292277,0.003475916055873457,0.0,0.0,0.0
1624165708187362909,135,1624165708187362909,-0.0102478396326458,0.0028589785178902887,0.00019913922977979668,-4.7568634381035295e-05,-2.710036109011679e-05,0.0004034872359510518,0.9999999171003916,-0.0015435954100021972,-0.002310176405125812,0.001391240353660633,0.0,0.0,0.0
1624165708287150383,136,1624165708287150383,-0.010242796793327721,0.002930630816529859,-6.466979368485678e-05,-5.203244847885806e-05,-2.9541658200734798e-05,0.00025356640767361404,0.9999999660619675,-0.00012586748806009884,0.00042723653574863046,-0.00036936392787137234,0.0,0.0,0.0
1624165708387188196,137,1624165708387188196,-0.00935139637771784,0.003449616996936325,0.00019702574407241678,-3.714327784710338e-05,-3.829627860510361e-05,0.0002799825714506981,0.9999999593817372,0.004399959645874617,0.0034058821149137745,0.0023940024318121807,0.0,0.0,0.0
1624165708487448454,138,1624165708487448454,-0.010211443895479011,0.0037991578811423475,4.7456270758366866e-05,-4.5331483502002355e-05,-3.7198760925910117e-05,0.00033805416011259285,0.999999941140316,-0.0009363139096285169,0.004012229172769978,7.279116183591923e-05,0.0,0.0,0.0
1624165708587282658,139,1624165708587282658,-0.008861563355338166,0.0035680084398427665,-9.700223420509361e-05,-5.594139498457843e-05,-3.067503668724192e-05,0.0003102525458692744,0.9999999498364498,0.005447097969454149,0.0038435435727276574,0.0005163201627283566,0.0,0.0,0.0
1624165708687298536,140,1624165708687298536,-0.008864911362206934,0.0032170597682710635,3.9297283507547117e-05,-4.552301479824213e-05,-3.815761481269244e-05,0.0003297236113028627,0.9999999438769649,0.0032738004883348304,0.0024450847419153444,0.0025292146582712003,0.0,0.0,0.0
1624165708787442923,141,1624165708787442923,-0.009313848974521373,0.003706801092500087,-0.0002803745301294138,-7.068953048730466e-05,-2.597487108486162e-05,0.0004668652361690244,0.9999998881825383,-0.0001342984123637518,0.005616455483456519,-0.0005654676792707664,0.0,0.0,0.0
1624165708887426615,142,1624165708887426615,-0.010019186850982966,0.0037732158239045565,-0.00030200819391023193,-5.9765896216256604e-05,-3.5423303214056446e-05,0.0003208036390278943,0.9999999461290954,-0.002672365701663838,0.00554802074552916,0.00021306025653670436,0.0,0.0,0.0
1624165708987194777,143,1624165708987194777,-0.01150544240410097,0.004133913964537544,-0.0002719529110494836,-4.6512112041737336e-05,-2.357200703741498e-05,0.0003915369079770498,0.9999999219898841,-0.007860701868471763,0.005035006104118378,0.0008083708599374768,0.0,0.0,0.0
1624165709087438345,144,1624165709087438345,-0.012212468114913364,0.005632247239595252,-6.945142650783152e-05,-5.392720463422393e-05,-4.496846485898799e-05,0.00016333052987759923,0.9999999841963864,-0.006699910765601435,0.010595410513931019,0.002293788841069319,0.0,0.0,0.0
1624165709187042475,145,1624165709187042475,-0.011159626991759344,0.004627882998621124,-8.93850884932599e-05,-5.491681742879463e-05,-4.858205925983744e-05,0.0002959985607446586,0.9999999535043592,0.00012486698740101637,0.00482448792579377,0.0015259764308374882,0.0,0.0,0.0
1624165709287448883,146,1624165709287448883,-0.0101542495784192,0.004822003326662793,-0.00013889271923745288,-4.419117755592917e-05,-3.040767335012032e-05,0.0002945103400397533,0.9999999551930558,0.004129210430370368,0.004520448377753029,0.0018675910525101976,0.0,0.0,0.0
1624165709387250423,147,1624165709387250423,-0.009546438092365788,0.004731435963592797,-5.4115954367450925e-05,-4.338907028187386e-05,-1.2678611228269087e-05,0.00023768921196727692,0.9999999707302096,0.005001739280197642,0.004373495899173661,0.0018889061036532957,0.0,0.0,0.0
1624165709487386465,148,1624165709487386465,-0.008898015186628725,0.0050931009317668075,-4.6808123176789125e-05,-5.588126550292639e-05,-2.4588730699618155e-05,0.0003344383691192431,0.9999999422117957,0.005958817140684309,0.0059633930546619945,0.0014763418066442247,0.0,0.0,0.0
1624165709587372541,149,1624165709587372541,-0.010203209948163573,0.005495455451019947,5.7116856200783354e-05,-5.17632881322838e-05,-3.465183894580531e-05,0.0002848734563413866,0.9999999574834316,-0.001970531742221872,0.0062258298268482795,0.0027964214454052256,0.0,0.0,0.0
1624165709687365532,150,1624165709687365532,-0.010562561919340343,0.006211328076839079,-0.00017669434011536006,-6.531856915204235e-05,-4.283515435724421e-05,0.0003165554044897309,0.9999999468456232,-0.001920084276732091,0.008151885472483255,0.0003045106524714029,0.0,0.0,0.0
1624165709787401438,151,1624165709787401438,-0.010662530631009543,0.005263789524300786,-0.00016099099771103533,-5.308992181035464e-05,-5.404952595024616e-05,0.0002833291271501591,0.9999999569923259,-0.0015731847303652768,0.0023571094663250875,0.0007154901239601524,0.0,0.0,0.0
1624165709887398243,152,1624165709887398243,-0.010402930795421586,0.0037430009009886004,-6.749573438986373e-05,-5.1221520832777944e-05,-3.19810911594932e-05,0.0003141504033440876,0.9999999488315126,-0.00011099930738370429,-0.002968685054055372,0.0016393828781998407,0.0,0.0,0.0
1624165709987200975,153,1624165709987200975,-0.010110548723816552,0.004281197625575386,-0.00042158642031002707,-5.932168215505306e-05,-1.7007482326361107e-05,0.0003284244259967818,0.9999999441645073,0.0015023635948398202,0.002443779982865618,-0.0018038911928979079,0.0,0.0,0.0
1624165710087207794,154,1624165710087207794,-0.009537522707492353,0.004432160621878879,-0.00017398839995612814,-4.499089509470899e-05,-2.798603036887791e-05,0.0002662102904301037,0.9999999631623087,0.0035827411634610394,0.0035951737540518246,0.002419164860807359,0.0,0.0,0.0
1624165710187318802,155,1624165710187318802,-0.010058429872597837,0.005337073450660687,-0.00013023945404434236,-6.051120938961278e-05,-2.824408008559808e-05,0.0003108629625152299,0.9999999494524092,0.00032380276971459175,0.006540609575247571,0.0023206837193402515,0.0,0.0,0.0
1624165710287354469,156,1624165710287354469,-0.00994914298676004,0.005892778784188062,-0.00018042343443340774,-6.322199596532624e-05,-3.368428952563096e-05,0.0002857006085218715,0.9999999566217228,0.0002839902940678919,0.007664868570944296,0.0011774961857973294,0.0,0.0,0.0
1624165710387408495,157,1624165710387408495,-0.009944553684232875,0.0052929881406694156,-4.0201741821084165e-05,-4.863600758771777e-05,-3.8441638089162996e-05,0.00027928051240848573,0.9999999590795551,-0.00016943842053502537,0.0031610747206130677,0.0016593295953559496,0.0,0.0,0.0
1624165710487451315,158,1624165710487451315,-0.009425346975016792,0.0054766923007640855,-2.6294217273371508e-05,-5.8235315452986196e-05,-3.591233590633294e-05,0.0002899670969431995,0.9999999556189846,0.00238757709744887,0.004398497931814442,0.001473286867854482,0.0,0.0,0.0
1624165710587023973,159,1624165710587023973,-0.00945645617831134,0.004692946084257139,-4.865232101503047e-05,-5.102563808510109e-05,-2.7433556126591795e-05,0.0002634530691527177,0.9999999636180993,0.0011644202994621827,0.0015279838753003926,0.0008621069256084937,0.0,0.0,0.0
1624165710687196732,160,1624165710687196732,-0.010654400310262444,0.0044478033136597294,0.00017204296479542415,-3.783507378017852e-05,-3.004054140669624e-05,0.00025520988322430614,0.9999999662669611,-0.0044029978523942685,0.0007466823800233078,0.0024570667887667237,0.0,0.0,0.0
1624165710787130833,161,1624165710787130833,-0.010297203388659902,0.004729722109324406,-2.9769905691934843e-05,-4.860614092969746e-05,-2.8957603591856998e-05,0.0003113490850619891,0.9999999499302896,-0.00093854088729341,0.003099198377153294,-0.0008323233722646561,0.0,0.0,0.0
1624165710887101889,162,1624165710887101889,-0.009551639014418144,0.004237192534260701,-3.7182175683351697e-06,-5.427482126828764e-05,-3.898287248350965e-05,0.0003077256390441419,0.999999950419721,0.00223490230273844,0.0016470897553971374,0.0006390205095324379,0.0,0.0,0.0
1624165710987078905,163,1624165710987078905,-0.010485240723337638,0.004671741309406813,-0.00021180086838782424,-5.629398206849183e-05,-3.28709083623542e-05,0.00026782508539594186,0.9999999620100726,-0.0025974825001457706,0.003944228137821594,-0.0003083172927630252,0.0,0.0,0.0
1624165711087089539,164,1624165711087089539,-0.0106085805363833,0.00537584495719639,-0.000405436196341015,-5.971161041075769e-05,-3.543202779178731e-05,0.00030487848443451466,0.9999999511140664,-0.0014463395833192642,0.007046835173383795,-0.0010000456603564214,0.0,0.0,0.0
1624165711187124014,165,1624165711187124014,-0.011868836174628191,0.005687926634350073,-0.00020903282555210405,-4.44219978172154e-05,-3.152413966464053e-05,0.00032608155337485525,0.9999999453518316,-0.00610773492882055,0.0058156945415542656,0.001813737388053128,0.0,0.0,0.0
1624165711287106037,166,1624165711287106037,-0.012169391393014593,0.006658917061532673,-5.946800629674862e-05,-5.405712748792907e-05,-3.249798040570488e-05,0.000344734124156464,0.9999999385900091,-0.00487755560493708,0.010036775472835449,0.002200867139041764,0.0,0.0,0.0
1624165711387338638,167,1624165711387338638,-0.011502713569005854,0.005627844502839997,0.00020054123062805836,-4.587030156060631e-05,-2.8445755451905083e-05,0.0003605623844312986,0.999999933540724,-0.0007052907728223251,0.005329259078246218,0.0036442190879888746,0.0,0.0,0.0
1624165711485642910,168,1624165711485642910,-0.011774170381982566,0.006219245998815223,0.0003999728778854133,-2.8129969346269446e-05,-2.4310384454135027e-05,0.0002498457940667302,0.9999999680973591,-0.0012849350386754431,0.007155931534040661,0.003511578190561113,0.0,0.0,0.0
1624165711587406397,169,1624165711587406397,-0.012132113610392193,0.007774954677472763,0.00016643283013558597,-6.304078244514902e-05,-3.1861779442166326e-05,0.00019043172487528658,0.9999999793731869,-0.002192617091862945,0.01110382239743343,-0.00014800477830501264,0.0,0.0,0.0
1624165711686025620,170,1624165711686025620,-0.011064966367264032,0.00685086181464786,-0.0002379340802192251,-8.77275455883194e-05,-6.461785559787275e-05,0.0004286324710505599,0.9999999022012663,0.003573166353172094,0.00689872784068954,-0.0018258270258755336,0.0,0.0,0.0
1624165711787113667,171,1624165711787113667,-0.010777847404883056,0.006133395486806179,0.0006034435346910763,-3.8489447441636934e-05,-4.568033906981458e-05,0.0004474860380976393,0.9999998980940151,0.00206243738623118,0.00648811599764511,0.0071895053193229645,0.0,0.0,0.0
1624165711887108803,172,1624165711887108803,-0.01072215856147008,0.004448712557244557,0.0019743238271162176,5.274580142956422e-05,-1.2831724503324945e-05,1.2288627510552424e-05,0.9999999984510718,0.001348111847685743,-0.011799969988210434,0.01376198806627463,0.0,0.0,0.0
1624165711987092495,173,1624165711987092495,-0.010803089923087658,0.006254085010682771,0.0008230971867926743,-3.4810231064553105e-05,2.0833851784275083e-05,-5.006997711042879e-05,0.9999999979235621,0.0030221497799096963,0.011339244938367212,-0.002945905009421025,0.0,0.0,0.0
1624165712086984873,174,1624165712086984873,-0.011160743780319218,0.006281436015546119,-6.853635465519695e-06,-8.519262985787546e-05,-0.0001664980983379709,0.0007893081577965282,0.9999996710065253,-0.0016381520421678958,0.011450435849690577,-0.006127822370968055,0.0,0.0,0.0
1624165712187051058,175,1624165712187051058,-0.010402833117780824,0.005077221243647991,0.0014185862437218755,4.528666890821235e-05,-2.5105592067707782e-05,0.0003489230667772769,0.9999999377857219,0.0004365002932216807,-0.009392322406635904,0.009773631381433083,0.0,0.0,0.0
1624165712287312508,176,1624165712287312508,-0.010305603813935148,0.0030907495165466772,1.7656922678588232e-05,-6.151218273128466e-05,6.122045962550468e-05,-0.00033032415741588486,0.9999999416770913,0.002021089430505839,-0.006235328804441746,-0.00994515954833742,0.0,0.0,0.0
1624165712387167215,177,1624165712387167215,-0.010633279420026715,0.0034255059263377926,-0.0007299420951756947,-0.0001331349423334133,-0.00010555423511095506,0.0004718005188335339,0.9999998742687868,-0.001274273509668532,0.006963332677267283,-0.0052211765037889855,0.0,0.0,0.0
1624165712487374783,178,1624165712487374783,-0.01050799753236346,0.0036961572057723604,-0.0014063460868620598,-7.391482942418951e-05,9.599933172735411e-05,0.0005167637435231248,0.999999859137934,0.000812242682725434,-0.0010543671156116234,-0.007390265102688991,0.0,0.0,0.0
1624165712587361336,179,1624165712587361336,-0.01077048391605127,0.004591247264952085,-0.002578518068781892,-0.00012937227969285614,-6.051368105188425e-06,-6.708002640889897e-05,0.9999999893631966,0.0004570902441439654,0.0004522754594956874,-0.008769427027543752,0.0,0.0,0.0
1624165712687063456,180,1624165712687063456,-0.011742765710548149,0.00635660527040272,-0.0016073642688618473,-5.320216730927181e-05,2.9620751995819064e-05,-2.7533771040988918e-05,0.99999999776698,-0.004291799125350696,0.01513815295874736,0.005845188812218755,0.0,0.0,0.0
1624165712787057400,181,1624165712787057400,-0.012312469896211237,0.0073452604557369345,-0.0009101455491771763,-0.0001268555986207849,-3.989328024598272e-05,0.0004632634594798595,0.9999998838515329,-0.0031291576536344864,0.014305234400492625,0.006051398560227732,0.0,0.0,0.0
1624165712887232542,182,1624165712887232542,-0.012430108705633757,0.006921305829200901,0.0010174208316431495,-4.3356006944616604e-05,-7.975330136651617e-06,0.00029215173933335847,0.9999999563519693,-0.002639555951033168,0.004933680111624887,0.01832147914310628,0.0,0.0,0.0
1624165712987236023,183,1624165712987236023,-0.013752869609555464,0.007404195438175335,0.0021374427219905175,-0.00010621302708024952,4.654574199898214e-05,0.0001267691515752964,0.9999999852408985,-0.005498033391528857,0.006357915086192493,0.016381071484520754,0.0,0.0,0.0
1624165713087017775,184,1624165713087017775,-0.014624960011889298,0.006795253467105008,-0.0006200249396124042,-0.00022025224088031148,-3.052424747336545e-05,0.00018953212275535047,0.9999999573173609,-0.005909807205136136,0.005436082111593869,-0.01160951684840588,0.0,0.0,0.0
1624165713187237024,185,1624165713187237024,-0.015724142772451183,0.004886467040865906,-0.0010806011420032894,1.4848089230307812e-05,2.9418533191377987e-05,0.00028236601156647297,0.9999999595917232,-0.007680758050145954,-0.00515130361476198,-0.006124085942871659,0.0,0.0,0.0
1624165713287034273,186,1624165713287034273,-0.01643203772752008,0.004557328336472756,0.0010607647224943095,-6.685707783631386e-05,-9.763703863053704e-05,-0.00015670965101634797,0.9999999807195767,-0.003979409871791877,-0.0013615383404187121,0.015646468694056795,0.0,0.0,0.0
1624165713387091875,187,1624165713387091875,-0.01695955659387575,0.0033902309720543187,0.0013169211586095098,-9.81907015724182e-05,-0.00010549148786951464,-0.00019492166988481561,0.9999999706178012,0.0015323882597552678,-0.005311227611781788,0.012263073917473135,0.0,0.0,0.0
1624165713487011909,188,1624165713487011909,-0.014644895729724362,0.005357789241478865,0.0012222373524285223,-8.310333147663175e-05,-0.00016481116225031768,0.0003265381027600486,0.9999999296519535,0.01889229996652625,0.009566133599438385,0.009005467754092576,0.0,0.0,0.0
1624165713588029146,189,1624165713588029146,-0.010094662058201883,0.005232597249443277,0.0035941257061144188,-0.00012825027133149907,-0.00029728106733750026,0.0002489115588162878,0.9999999166093954,0.03552546735027751,0.0027969586277800753,0.02174025873336967,0.0,0.0,0.0
1624165713685497761,190,1624165713685497761,-0.006845918012703074,0.00413645847648849,0.005409510285597412,0.00013323175619915276,-0.0002460598412083908,0.0002889200406073693,0.9999999191144932,0.01657106001181113,0.0015039530616390642,0.015510642232534835,0.0,0.0,0.0
1624165713787052393,191,1624165713787052393,-0.0026544489890867355,0.006231138635295133,0.0014258829669185843,-4.7169662755446235e-05,0.0001142787931182134,5.1703525745008715e-05,0.9999999910210273,0.03123742898273134,0.011619652169407012,-0.02539822319468328,0.0,0.0,0.0
1624165713887030840,192,1624165713887030840,-0.004275949812595885,0.008453835458200038,0.002655782311788747,0.0002150310879429297,0.0004032939133482599,0.00026363354025206524,0.9999998608064576,-0.004829750410228699,0.011966753740089237,-0.003940643969476305,0.0,0.0,0.0
1624165713987010241,193,1624165713987010241,-0.009201326111223016,0.00926896967620016,0.001113603001644788,3.048415942865817e-07,0.0004621198870707018,0.00011475076805758751,0.9999998866386463,-0.032502666292034396,0.015403240010120792,-0.020889844856160293,0.0,0.0,0.0
1624165714087179422,194,1624165714087179422,-0.02074286548404497,0.01154026862624901,0.0008068046350107948,-4.214114911587526e-05,0.0004066753120318494,-0.00018445320723190287,0.9999998994081226,-0.04929015689204827,0.0040315872708971195,0.00937491615057476,0.0,0.0,0.0
1624165714186986685,195,1624165714186986685,-0.03251715480140557,0.011069934834676685,0.0018817059892624489,2.5544770488035903e-05,0.0002761309327434784,-0.0006700026144843781,0.9999997370977639,-0.0804805268543852,0.009215547770959556,0.0033549000482795354,0.0,0.0,0.0
1624165714286961079,196,1624165714286961079,-0.035669360759752175,0.010287001557392384,0.005091964807045534,-8.56877652327647e-05,-0.0007821838291972876,-0.0010995470627295078,0.9999990859207073,-0.03209184002798308,0.001313447894597244,0.04626789186091398,0.0,0.0,0.0
1624165714387006998,197,1624165714387006998,-0.028595856919647084,0.011353226803404833,0.003812038982347474,-0.00012604949751317076,-0.0006242160558522022,-0.0001939711933986402,0.9999997784204483,0.024564530917902838,0.010319433318208804,0.008558963490846845,0.0,0.0,0.0
1624165714487239361,198,1624165714487239361,-0.012416768884093744,0.009385897705681157,0.0011717745000307223,-0.00014319999357208409,-0.0009725060003378268,0.00012298451846968033,0.999999509300169,0.08018653740682022,0.006433587057594106,-0.017171302838875253,0.0,0.0,0.0
1624165714587056637,199,1624165714587056637,0.0020466027969231132,0.007181599458705834,0.001385740164023962,4.8545128304595644e-05,-0.000597093773673374,0.0004010151227044795,0.9999997401545639,0.09817113615058767,-0.010910859601787021,-0.008920410501436441,0.0,0.0,0.0
1624165714686900616,200,1624165714686900616,0.008078868771501373,0.006129894631010507,0.001922686791438552,1.3213061445245432e-06,0.00023358537076522196,0.0003742946038490174,0.9999999026697983,0.06501859895577433,-0.008011425185920285,-0.006380479968212477,0.0,0.0,0.0
1624165714787092924,201,1624165714787092924,0.005867881577026782,0.00553450659032982,0.0006736882445239248,0.0001953106063444799,0.0006252073477888892,0.0006290347839927902,0.999999587642269,0.015523339298524556,0.0010819806765671872,-0.03623626043900717,0.0,0.0,0.0
1624165714887257814,202,1624165714887257814,-0.0053084636790141386,0.015140940381891971,0.012241863722044917,0.001008873037152216,0.0013314774793031457,0.001498113429118115,0.9999974824963298,-0.04328466109041359,0.0400094935198189,-0.023644909657834445,0.0,0.0,0.0
1624165714987192392,203,1624165714987192392,-0.0358134018016823,0.047757329225682876,0.008128867524919803,0.0015911215758425694,0.001571678906823073,0.001780246744403368,0.9999959144311543,-0.1674881554365919,0.1584376215677763,-0.14654310027145503,0.0,0.0,0.0
1624165715087155581,204,1624165715087155581,-0.061144140070361064,0.06679025023228612,-0.02114787820954293,0.0018389298894567945,-0.0006368353229342281,0.001856328660826018,0.9999963834041912,-0.21575734110347056,0.17853721100801073,-0.34992516308719207,0.0,0.0,0.0
1624165715187120676,205,1624165715187120676,-0.07022917924381035,0.08196810729450892,-0.08307797281952017,0.0019772389752943436,-0.001816699736110576,0.0021872892476134755,0.9999940029289058,-0.159126703732212,0.16335678722271565,-0.6576799507785308,0.0,0.0,0.0
1624165715287109613,206,1624165715287109613,-0.06379070672995098,0.09277039989009254,-0.18771757195620306,0.0030383729091970546,-0.004776717862322783,0.002909379580232982,0.9999797431782868,-0.042346505923981204,0.1441442369232928,-1.0524649064343958,0.0,0.0,0.0
1624165715386707544,207,1624165715386707544,-0.04775746814429182,0.08916126886846903,-0.31223227886520677,0.005869722320095652,-0.008416809407589397,0.0037441365835183408,0.9999403407806137,0.07428445411794402,0.060905087677771225,-1.3121095687793032,0.0,0.0,0.0
1624165715487093210,208,1624165715487093210,-0.035902719132122306,0.08056744085793295,-0.4371321695053143,0.010141025192610162,-0.0120330312600676,0.003355657090893949,0.9998705442866842,0.11343821980216126,-0.014171953217066088,-1.3925331445365905,0.0,0.0,0.0
1624165715587118149,209,1624165715587118149,-0.03315684877046784,0.08326585282739363,-0.5700090408622054,0.01138360057949721,-0.016430025216466446,0.003564087363556173,0.9997938613486392,0.08938009871604982,0.03239469070725792,-1.463596530126869,0.0,0.0,0.0
1624165715684811592,210,1624165715684811592,-0.03354771281390753,0.09611951801687522,-0.7046181301359935,0.012962277448220786,-0.020610777780690127,0.003747429103160832,0.9996965199387625,0.07212097982798082,0.10865895708995184,-1.5227267235114899,0.0,0.0,0.0
1624165715786997080,211,1624165715786997080,-0.028123363648109443,0.12257189931774136,-0.8512105717515528,0.011060325859190439,-0.01767789352025369,0.00398222646801375,0.9997746261757483,0.09099996264244326,0.21487122583474855,-1.5571028508026536,0.0,0.0,0.0
1624165715885459900,212,1624165715885459900,-0.02809365791878505,0.15385722725758724,-1.0027067432763177,0.007388644448773966,-0.01269544952510994,0.003958166780737469,0.9998842765091488,0.05700700510534232,0.2899178839894396,-1.6050680333180727,0.0,0.0,0.0
1624165715985243082,213,1624165715985243082,-0.021465681751330654,0.18572250461338385,-1.1854847221077658,0.00031328689339112304,-0.005204632672203807,0.0037847934797513726,0.9999792442787546,0.06895030173745978,0.30755150410800014,-1.7706105228432987,0.0,0.0,0.0
1624165716085251093,214,1624165716085251093,-0.0032528227431900896,0.20744632728012763,-1.3901132413256259,-0.005752220038131037,0.002304182242428509,0.004003420033729749,0.9999727872981256,0.13019718171383057,0.24605993451287408,-1.9414480062786599,0.0,0.0,0.0
1624165716186998606,215,1624165716186998606,0.013334683123126705,0.23812997360900431,-1.5922464219256915,-0.010570133010094428,0.004045848985004619,0.0035181441059232753,0.9999297605612661,0.13176146602169891,0.2529629218328417,-1.933959281748064,0.0,0.0,0.0
1624165716284595490,216,1624165716284595490,0.021443954661185358,0.2624363061570747,-1.7590870080551098,-0.006178672327789668,-0.0017077199024407835,0.0036117480235496064,0.9999729311222059,0.08984903513230917,0.23406885772333122,-1.7575765026644976,0.0,0.0,0.0
1624165716386694670,217,1624165716386694670,0.029272085265187025,0.2824352113356192,-1.9331161402780774,5.3012731506024076e-05,-0.009167534557079913,0.0037975537995170866,0.9999507648303774,0.08352833199319731,0.20713989697891835,-1.6975737746633872,0.0,0.0,0.0
