%time,field.header.seq,field.header.stamp,field.pose.pose.position.x,field.pose.pose.position.y,field.pose.pose.position.z,field.pose.pose.orientation.x,field.pose.pose.orientation.y,field.pose.pose.orientation.z,field.pose.pose.orientation.w,field.twist.twist.linear.x,field.twist.twist.linear.y,field.twist.twist.linear.z,field.twist.twist.angular.x,field.twist.twist.angular.y,field.twist.twist.angular.z
1609060335259537458,0,1609060335259537458,-0.0006872161117528302,0.003857541915837523,0.00016079058694514026,-1.5058744244151156e-05,8.437195544964987e-05,-0.00010263610832658133,0.9999999910602179,0.00045460318629455914,-0.0007944157887356621,-0.0007690529167822329,0.0,0.0,0.0
1609060335360309601,1,1609060335360309601,-0.005272670484276177,0.007957134792277049,0.0014590691317350464,-1.2973036581670977e-05,-2.071827161212935e-06,-0.0001677717683510361,0.9999999858400208,-0.04592611395369426,0.037277659923701786,0.012827119783445565,0.0,0.0,0.0
1609060335460228682,2,1609060335460228682,-0.005585252506562623,0.009216094759986916,0.001410421131106608,-2.2500996255180726e-05,-2.1100455788916424e-05,-6.497385542864906e-05,0.9999999974134371,-0.01791201445086131,0.019023383096723558,0.003751599156538849,0.0,0.0,0.0
1609060335560148001,3,1609060335560148001,-0.00556119445454621,0.006233132399524163,0.0008695662600462515,-1.768514218524494e-05,3.3063271033847585e-05,-0.00010640302922438148,0.9999999936362254,-0.007056937501213214,-0.008669721085391213,-0.0023467148083713392,0.0,0.0,0.0
1609060335658569336,4,1609060335658569336,-0.006793073947356407,0.004810555543993368,0.0003853311864921844,-3.6459083621695876e-05,1.0411975717307024e-06,-7.151830898458975e-05,0.9999999967773905,-0.008939511700396183,-0.015074272966499389,-0.004393431995370027,0.0,0.0,0.0
1609060335760186434,5,1609060335760186434,-0.005345834871823363,0.005895772653973578,0.000411786567345143,-2.004540402437074e-05,2.2644196400713586e-05,-0.00012388723514417333,0.9999999918686867,0.004907971847812909,-0.004935622059192358,-0.0028064545559210383,0.0,0.0,0.0
1609060335860195160,6,1609060335860195160,-0.004404881344773522,0.005740635584247494,0.0007071195434170129,6.674080268220415e-06,2.3251933531995736e-05,-0.0001212903935527493,0.9999999923517211,0.009822027908812331,-0.005286709181358533,0.00014950301421886008,0.0,0.0,0.0
1609060335960181475,7,1609060335960181475,-0.003923170907446126,0.007242655259118521,0.00011969615129981305,-1.2508332254235462e-06,6.343801132117634e-06,-0.0001290259534664983,0.9999999916552458,0.009310137466182356,0.003383463137271444,-0.003939653295048785,0.0,0.0,0.0
1609060336059438944,8,1609060336059438944,-0.004196465019098075,0.004486947174415469,0.00035088623064379027,-6.616255258357748e-06,4.381900792963061e-05,-8.695158410229931e-05,0.9999999952377694,0.005505471325771971,-0.012850913115173036,-0.0009312189237215638,0.0,0.0,0.0
1609060336160208225,9,1609060336160208225,-0.00361244051223847,0.0038966309488618154,0.0011823993271092795,2.0534490622920105e-05,5.474969932543981e-05,-0.00010675677799648073,0.9999999925918959,0.007001798038988411,-0.011961851748054995,0.005038734586418578,0.0,0.0,0.0
1609060336259424925,10,1609060336259424925,-0.004284413448629949,0.005964828817823704,0.00093431252759671,-9.32712991464071e-07,1.712192907208837e-05,-0.00010890153875258919,0.9999999939232099,0.0006330489483560983,0.0014436490682378598,0.0009701021074117033,0.0,0.0,0.0
1609060336360183477,11,1609060336360183477,-0.004355493828577101,0.006972417925411259,0.0008329651887176711,-3.2937402546718594e-05,8.158482229253864e-06,-8.907438685160393e-05,0.9999999954571578,0.0005849202310666813,0.003500291265314257,-6.391204351267887e-05,0.0,0.0,0.0
1609060336459393740,12,1609060336459393740,-0.004932215255711813,0.007852245108548594,0.0006558592974331414,-1.7876046165797957e-05,2.359104458301708e-05,-0.0001422489366836473,0.9999999894445717,-0.001894805319836159,0.005249798327137117,-0.0019456102002017516,0.0,0.0,0.0
1609060336559381962,13,1609060336559381962,-0.005457789321752791,0.008720608872576828,0.0003694361402250117,-1.4354046323600094e-05,1.3880317764096014e-05,-0.00013232139391222835,0.9999999910461697,-0.0024564668193778802,0.006280525967596181,-0.0024855483612137097,0.0,0.0,0.0
1609060336659356833,14,1609060336659356833,-0.005168463897580738,0.008143490447162772,0.0002906910181003493,-1.6148513842370297e-05,2.061733009672718e-05,-0.00010746127790379154,0.9999999938831091,0.0007011635577528772,-0.0006843477250557343,-0.0018307352268888463,0.0,0.0,0.0
1609060336759312630,15,1609060336759312630,-0.005541140684680646,0.007618817602336189,0.0003161773988496073,-5.0695324866712505e-05,-9.870036932263368e-06,-8.37370738103719e-05,0.9999999951603309,-0.0001646497604209157,-0.004524245985567561,4.912132873157674e-05,0.0,0.0,0.0
1609060336859288216,16,1609060336859288216,-0.00653975726756004,0.006542344956068572,0.0007105106244044338,-7.588365926470735e-06,3.159620822322474e-05,-0.00012876327580213143,0.9999999911820532,-0.004469264383441407,-0.007705130474543836,0.0025147388078273205,0.0,0.0,0.0
1609060336959303856,17,1609060336959303856,-0.005874942553244771,0.005034865318409176,0.0004737433659991968,-2.447553916287408e-05,1.335972339565583e-05,-0.00012341745654314388,0.9999999919952937,0.0009499408104550475,-0.012969480916602522,-0.0008060126847474949,0.0,0.0,0.0
1609060337059283733,18,1609060337059283733,-0.005001193917443443,0.0061650806024612734,0.0006463750042100165,-8.346239765517729e-06,2.555224974826032e-05,-0.00016864361508529927,0.9999999854183714,0.004842962962386543,-0.003823624486945955,0.0008871713588820857,0.0,0.0,0.0
1609060337158493996,19,1609060337158493996,-0.0051877036480190136,0.00696855982995274,0.0005472439307122679,-6.200378538061417e-06,1.413748767500118e-05,-0.0001297654391113849,0.9999999914613034,0.0021831823085512354,-2.4223385968350462e-05,-0.00031845057237705164,0.0,0.0,0.0
1609060337259281874,20,1609060337259281874,-0.004648865302178654,0.005803160946192879,0.0008976097260887558,-4.2627825113575126e-07,3.075512716016488e-05,-0.0001615320266173662,0.999999986480667,0.0042585875143686825,-0.006173771346784294,0.001971535969828662,0.0,0.0,0.0
1609060337359234571,21,1609060337359234571,-0.005360269611458107,0.00550790467636991,0.000681256264563343,-2.1648623632437954e-05,2.1870299914397695e-05,-0.00013354665209606566,0.999999990609154,-0.0005410773974324282,-0.005338456863682825,-0.0009662977029488515,0.0,0.0,0.0
1609060337459211588,22,1609060337459211588,-0.005324437047774378,0.007583311970518286,0.0005852818740836255,-1.662741887135814e-05,2.1827306076969376e-05,-0.00015085203834803618,0.9999999882453741,0.00016383559688073926,0.003756992876931183,-0.0004051159285837851,0.0,0.0,0.0
1609060337559164762,23,1609060337559164762,-0.00552967066813374,0.00966819425384398,0.0005543334172057207,-3.0028199676444586e-05,1.8016135780807908e-05,-0.0001295158453497359,0.9999999909996796,-0.0005512474261822639,0.010078300325944393,-0.0004718191050126567,0.0,0.0,0.0
1609060337659157038,24,1609060337659157038,-0.006247231311262849,0.007422877292322137,0.00037337050155036855,-2.1388121606365927e-05,9.960780267887107e-06,-0.0001233134745237614,0.9999999921185516,-0.0030619974124844744,-0.004313126195106263,-0.0017814406309386195,0.0,0.0,0.0
1609060337759174109,25,1609060337759174109,-0.005870707286397797,0.007006652982007869,0.0005217290884761453,-2.5941414985080934e-06,3.0288117313175947e-05,-0.00016256713812262907,0.9999999863239054,-1.2306348648761026e-05,-0.005526419766939216,3.259040436580352e-05,0.0,0.0,0.0
1609060337859165668,26,1609060337859165668,-0.007207089369617238,0.007984468797188407,0.0003216276949883758,-1.5692219079315566e-05,1.652703518153886e-05,-0.00013522783221282271,0.9999999905970153,-0.006349268532373508,0.00033771100436522355,-0.0012823365357175476,0.0,0.0,0.0
1609060337959214211,27,1609060337959214211,-0.007257991804086745,0.006384013855491285,0.00016423172415448982,-2.390512938358902e-05,2.8295233999718917e-05,-0.00015416189864931963,0.9999999874310094,-0.0034558777245958083,-0.0075611765293774075,-0.002271857756653688,0.0,0.0,0.0
1609060338059273720,28,1609060338059273720,-0.0070939086131191695,0.005467407359773891,0.0002638734654249578,-1.2540665633079294e-05,6.646770085698695e-06,-0.0001388017647763,0.9999999902663044,-0.0009470188122811737,-0.009734722627529733,-0.0009683293020989704,0.0,0.0,0.0
1609060338159265041,29,1609060338159265041,-0.0059340261083359125,0.005996471833816088,0.0004560115882980639,-6.9774260265478495e-06,1.1777304493852525e-05,-0.00013956402502661287,0.9999999901672404,0.005019063279605535,-0.004314917458491212,0.0003217424040443432,0.0,0.0,0.0
1609060338259251595,30,1609060338259251595,-0.00577158467136305,0.006251835647794573,0.0006546868408880491,-2.7421002574805836e-06,2.889580805515406e-05,-0.00014418308751127013,0.9999999891843688,0.003400821766718712,-0.0019165627914343227,0.001405400417486235,0.0,0.0,0.0
1609060338359249592,31,1609060338359249592,-0.0066315026508187505,0.005651157959377156,0.0006516215882706194,-1.0953293550325017e-05,2.3426087575685604e-05,-0.00012321622251210612,0.9999999920744967,-0.0014087131744699166,-0.004232686806451288,-0.00017222451199965362,0.0,0.0,0.0
1609060338459150553,32,1609060338459150553,-0.005256022533782413,0.007761807559668502,0.0005290832847704147,-8.85322500552888e-06,1.377529854107356e-05,-0.00011297856542245556,0.9999999934838462,0.00549156562652754,0.003749448398047431,-0.001274727611025894,0.0,0.0,0.0
1609060338559091568,33,1609060338559091568,-0.005932042607421274,0.008616518549985238,0.00044994346039811363,-1.8282197552844816e-05,1.731670551669061e-05,-0.00012927586607866122,0.9999999913268153,0.00027410297325617273,0.003942285614037071,-0.00028252742351598056,0.0,0.0,0.0
1609060338659005642,34,1609060338659005642,-0.005480845309070939,0.00946140585120896,0.0002361248991083143,-2.8346606042701716e-05,2.4801279156377978e-05,-0.00010419875120701033,0.9999999938619868,0.002061561874703545,0.004236846863749795,-0.00174036411509318,0.0,0.0,0.0
1609060338759004354,35,1609060338759004354,-0.005650655980185034,0.008606145387745876,0.0004470692068133587,-1.2839555233826943e-05,1.793337159209106e-05,-0.00015839616077509706,0.9999999872120918,0.000919064895934767,-0.0017786464256154353,0.0005914762514897345,0.0,0.0,0.0
1609060338859806061,36,1609060338859806061,-0.0056478693294676535,0.008739120418757195,0.0005003488261811416,-1.5897750660336015e-05,1.7310847519312348e-05,-0.00013891541552938795,0.9999999900750454,0.001058634211466637,-0.0019069549822875744,0.0005575129120177745,0.0,0.0,0.0
1609060338959069967,37,1609060338959069967,-0.005883638235470657,0.009952988717112152,0.0004195357687053607,-3.014935811520754e-05,1.1704227251513373e-05,-0.00013717856286420415,0.9999999900680278,-0.00019431462668186776,0.00343324041306031,-0.0005905960215595155,0.0,0.0,0.0
1609060339059091330,38,1609060339059091330,-0.006167951322729219,0.008876255262900142,0.00037517626675473095,-2.7368334572712786e-05,1.01059384339241e-05,-0.00011785630291048048,0.9999999926293616,-0.0015676856093688207,-0.0030466908012614733,0.0002904650482641249,0.0,0.0,0.0
1609060339159098387,39,1609060339159098387,-0.007119869604395503,0.008246045311878813,0.00046864468787883424,-1.8886950716209492e-05,1.81732507066403e-05,-0.00012769323155307317,0.9999999915037211,-0.005515826071146824,-0.004528646006252933,0.0010162025501127673,0.0,0.0,0.0
1609060339259109497,40,1609060339259109497,-0.004825685547069509,0.007905641673564586,0.00071574131695048,-2.1785533464669116e-05,2.304161751567274e-05,-0.0001407144262341629,0.9999999895969561,0.007732874401606472,-0.005455482667520948,0.001330237213233431,0.0,0.0,0.0
1609060339359052896,41,1609060339359052896,-0.00734888485650121,0.008929472401984544,0.0005274051926019185,-1.981701116782497e-05,1.5184566713910277e-05,-0.00014853336730593554,0.9999999886572708,-0.00713268695290625,0.0005696614279318305,-0.0010903165282687276,0.0,0.0,0.0
1609060339459799528,42,1609060339459799528,-0.00690144904068828,0.008821304760621058,0.00046726152575122084,-1.6014973730073653e-05,2.4206041452458367e-05,-0.00014733427063141268,0.9999999887250951,-0.001974832000806362,-0.0017233694021887413,-0.000855906681391431,0.0,0.0,0.0
1609060339558991432,43,1609060339558991432,-0.006453576068414425,0.0077367177425431,0.00023963601770955658,-1.50479068963046e-05,1.7147366879253225e-05,-0.00013842285001128813,0.9999999901593162,0.0010166039803300748,-0.006574222105102821,-0.00215706651756215,0.0,0.0,0.0
1609060339658998966,44,1609060339658998966,-0.005937926089308402,0.007060412479928405,0.0004092263860703965,-8.432451514073522e-06,3.0898186262796095e-05,-0.00012511361179480603,0.9999999916603841,0.002772779122068728,-0.007418459376637542,-0.00010292479044440124,0.0,0.0,0.0
1609060339758999586,45,1609060339758999586,-0.005909148670065839,0.00757840018230416,0.0003373013239734383,-9.028817375229896e-06,2.279885296977059e-05,-0.0001377886311964273,0.9999999902064868,0.0017201894229000258,-0.0033989366074613225,-0.0008852358923741065,0.0,0.0,0.0
1609060339858947992,46,1609060339858947992,-0.005247873867400571,0.008912746745549559,0.00039764828675290583,-2.512742169615419e-05,5.8370115912455095e-06,-0.00010861329034504179,0.9999999937688419,0.004049904128136926,0.0018468767851286304,0.00022378806893243598,0.0,0.0,0.0
1609060339958962679,47,1609060339958962679,-0.005305070475839923,0.00808733665389892,0.00042811720438796233,-2.0482993352024163e-05,1.675249725059919e-05,-0.0001391937862385788,0.9999999899624398,0.002251151128365226,-0.0032116942342125974,0.00012290505265962983,0.0,0.0,0.0
1609060340058951378,48,1609060340058951378,-0.002935309172334484,0.009197191267830784,0.0004456016968064535,-4.0385930430182194e-05,1.470432302119936e-05,-0.00013440859710904713,0.9999999900435383,0.012155167074979913,0.0010678624520612033,0.0005958144523138564,0.0,0.0,0.0
1609060340159745693,49,1609060340159745693,-0.0037317302377656318,0.01061206850450575,0.0003810022755070515,-2.7555377118231553e-05,1.799987348012587e-05,-0.0001583414004410023,0.9999999869223475,0.003447720681598321,0.0057967033088993924,-0.0005238323783975249,0.0,0.0,0.0
1609060340258950710,50,1609060340258950710,-0.0028271809980183406,0.007659136137305017,0.0005580010839362091,-2.137287579406857e-05,1.772538669922572e-05,-0.00011393816235893098,0.9999999931235461,0.006059077635297445,-0.009449772628192061,0.0008955894287805907,0.0,0.0,0.0
1609060340359761953,51,1609060340359761953,-0.003317873225047578,0.007153096903610381,0.0008089173343544323,-9.793263347057629e-06,2.314930943877169e-05,-0.0001305116350275883,0.9999999911674505,0.0011405124331505413,-0.009692876471578595,0.002363491774722911,0.0,0.0,0.0
1609060340458949804,52,1609060340458949804,-0.005400720335332932,0.0058306854753449764,0.0006380146846417784,-1.913399358369123e-05,2.053834335373455e-05,-0.00010509688195243294,0.9999999940833497,-0.0085722298648366,-0.012548042458152948,-0.0003522712023333453,0.0,0.0,0.0
1609060340558881998,53,1609060340558881998,-0.006763159383616797,0.007594190013378448,0.0006557798775482568,-7.1471761447398255e-06,2.7876938334989236e-05,-0.00012442836911816517,0.9999999918446811,-0.010623213817882856,-0.001294884287062233,0.00025268153963812226,0.0,0.0,0.0
1609060340659634590,54,1609060340659634590,-0.00649102199961062,0.007529460176987039,0.0004590592918625651,-1.2051390026199112e-05,4.461094571999487e-06,-0.00012986917888948419,0.9999999914844224,-0.00504151807302234,-0.002549756236723596,-0.0010681867502712983,0.0,0.0,0.0
1609060340758808613,55,1609060340758808613,-0.005148653776567765,0.00859470932568402,0.0005308622234385196,-1.327076538279985e-05,2.5270588332678294e-05,-0.00014013537313129683,0.9999999897736734,0.0026023375926311123,0.0011877788853844025,-9.153275486623892e-05,0.0,0.0,0.0
1609060340858794689,56,1609060340858794689,-0.004009274393396932,0.009183956871056463,0.0006715284412172217,-2.067237348088301e-07,1.8425906841867492e-05,-0.00013313071740614078,0.9999999909683197,0.006892421528709809,0.0032790277723857004,0.0013365257691986031,0.0,0.0,0.0
1609060340958840370,57,1609060340958840370,-0.0023137083039528094,0.00744259168670585,0.0005215850386790197,-1.689006535491847e-05,2.9063584708534587e-05,-0.00011894931791586429,0.9999999923605388,0.011539888989484392,-0.006361504075814855,-0.0006076478326983779,0.0,0.0,0.0
1609060341058872938,58,1609060341058872938,-0.0015471987622406782,0.008181167335265744,0.0005891013068441253,-2.0356261327259772e-05,2.3505058460050493e-05,-9.58567231518828e-05,0.9999999949223033,0.009743865603741273,-0.002753184633536446,-0.00023840277825139407,0.0,0.0,0.0
1609060341158061504,59,1609060341158061504,-0.002295299609270826,0.00995172124135497,0.0005288979622133041,-2.9976292403157198e-05,1.641604548178712e-05,-0.00014969660324501717,0.9999999882114227,0.002747294723042852,0.005051786959886505,-0.0006524522009105874,0.0,0.0,0.0
1609060341259609461,60,1609060341259609461,-0.003979480875198158,0.008556961610671182,0.00040884927129450214,-2.881342419420181e-05,1.9972550086685232e-05,-0.00013022134251068122,0.9999999909066344,-0.005484908044413973,-0.0035135300183431395,-0.00047897143512422346,0.0,0.0,0.0
1609060341358843088,61,1609060341358843088,-0.0026287549868900246,0.00902693586944462,0.0004702239263703021,-2.6660295673402224e-05,1.6929595250844295e-05,-0.00011728776614704745,0.9999999926230899,0.0026635142771191745,-0.0010942882034160784,-0.00019405945700328667,0.0,0.0,0.0
1609060341458827496,62,1609060341458827496,-0.005047150732416306,0.007328458972649878,0.00017529597532532697,-1.696229548742959e-05,3.304699877089481e-05,-0.00014523114065449066,0.9999999887640378,-0.00911735773938098,-0.009248299564416184,-0.0019106487724568284,0.0,0.0,0.0
1609060341558045626,63,1609060341558045626,-0.005298937116133011,0.00800047032479975,0.00029146311267337307,-3.504294618762512e-05,1.1334009446010143e-05,-0.00011937462831076354,0.9999999921966072,-0.006561018851955043,-0.004292308589441372,0.00015086494885285296,0.0,0.0,0.0
1609060341658803701,64,1609060341658803701,-0.006158424484758909,0.007728433874702203,0.0004238548515722949,-1.938895289133607e-05,1.7459168437908485e-05,-0.00010752200956336383,0.9999999938791237,-0.007484108338846672,-0.004493357800602471,0.0009202883674106574,0.0,0.0,0.0
1609060341758818865,65,1609060341758818865,-0.006855166762240248,0.005580506806723408,0.00043744467472713744,-8.717860639330244e-06,1.8462891308274485e-05,-8.879553024175005e-05,0.9999999958492289,-0.0072812159272205405,-0.012250003488037236,0.00020377428916038703,0.0,0.0,0.0
1609060341859594584,66,1609060341859594584,-0.005975399708946032,0.007081909491386622,0.00040925085757787314,-2.1553289007879672e-05,2.2559724929602094e-05,-0.00011318131237204038,0.9999999931082441,-0.000399760456893156,-0.002283730817707082,-0.0001143554848431164,0.0,0.0,0.0
1609060341958788395,67,1609060341958788395,-0.005126223466865222,0.007164902468249163,0.00043555238322592785,-1.1900198433612328e-05,2.031106440036922e-05,-0.00011386954294832717,0.9999999932397775,0.0030825016179561746,-0.00255547776405118,0.0003954028842645543,0.0,0.0,0.0
1609060342058785439,68,1609060342058785439,-0.006132189605893962,0.00835037245333302,0.0003218421479301598,-2.169948852888356e-05,2.005116697116427e-05,-0.00011559336779065582,0.999999992882619,-0.00253975052190771,0.0020367328657292776,-0.0007576187862152005,0.0,0.0,0.0
1609060342158739805,69,1609060342158739805,-0.005799873561297828,0.009238880960333191,0.0003179438046976989,-2.8100316731140557e-05,1.651623338328944e-05,-0.00012499361028000812,0.9999999916570829,-0.00013306075131026135,0.0034085679592966247,-0.0007147754609129731,0.0,0.0,0.0
1609060342258711815,70,1609060342258711815,-0.005737166985314553,0.01012021930085915,0.0002534153935312514,-2.6795423001859207e-05,9.020554762019754e-06,-0.00011401110451158713,0.9999999931010425,0.00037952953520924333,0.004466928210362335,-0.0008920381359746796,0.0,0.0,0.0
1609060342358680964,71,1609060342358680964,-0.006253191114226595,0.011469503965567963,0.0001785355171055143,-3.212235731220175e-05,2.7260476081221978e-05,-0.00011714382712779783,0.9999999922511635,-0.002146546309139379,0.00816266989846288,-0.00041491403148111573,0.0,0.0,0.0
1609060342458617449,72,1609060342458617449,-0.007240096058610444,0.011197255152578833,0.0002112104435234613,-3.2825333892825875e-05,1.440466713460907e-05,-0.00013466186250683587,0.9999999902905836,-0.005127519669528348,0.0028826614454310288,0.0002383509243470817,0.0,0.0,0.0
1609060342558603525,73,1609060342558603525,-0.006485092350846614,0.00899555366841394,0.00015467805561983428,-3.4238848881747095e-05,1.9025586643177032e-06,-0.00010115242414544199,0.9999999942961245,0.0005126779210504933,-0.008584918431978826,-0.00029532986137300953,0.0,0.0,0.0
1609060342658601522,74,1609060342658601522,-0.0064637563180134595,0.008306923672366988,0.00027029233580458856,-1.1809937611948766e-05,1.3875838051586535e-05,-0.00013320872699093276,0.9999999909617008,0.00037159360768364454,-0.008574909421274755,0.0005199583223382943,0.0,0.0,0.0
1609060342758601904,75,1609060342758601904,-0.005615287539231327,0.008172852646160987,0.00020917887572886377,-7.5778074758410535e-06,8.560367115158098e-06,-0.00011546483288361858,0.9999999932685741,0.0038786944880788684,-0.0062358388314135635,-0.0007168698438254808,0.0,0.0,0.0
1609060342858609200,76,1609060342858609200,-0.005676424138985213,0.007037679723165567,0.0002591202645082474,-1.2441733807257713e-05,1.7268315908736282e-05,-0.00011731634057401055,0.9999999928919315,0.0018377238503995063,-0.008738230353132589,0.00022405600455475142,0.0,0.0,0.0
1609060342958653927,77,1609060342958653927,-0.006171937296359435,0.006905828195558167,0.00023591745156786696,-2.954837862807271e-05,8.011182047206874e-06,-6.245865985538485e-05,0.9999999975808042,-0.0010764329464666698,-0.006167306391767669,0.0004584901672164268,0.0,0.0,0.0
1609060343058609486,78,1609060343058609486,-0.005710692657483199,0.009594773592083728,0.0002541534364868073,-2.0663097110444366e-05,1.3281796130179719e-05,-0.0001368580683960067,0.9999999903332393,0.001414772107043519,0.005085363608806275,7.509798563240533e-05,0.0,0.0,0.0
1609060343157828093,79,1609060343157828093,-0.007519589108627477,0.010754283211348692,0.00037404019059510195,-2.4036541838194624e-05,1.1553788002725628e-05,-0.0001198329692835209,0.9999999924643967,-0.007140270574965384,0.007871084624494776,0.0008300677881437334,0.0,0.0,0.0
1609060343258609772,80,1609060343258609772,-0.007596747971898383,0.011074194929056293,0.0004251826544091839,-2.0726533232721874e-05,1.2773829088142168e-05,-0.00011666332429370274,0.9999999928984435,-0.004331551614216742,0.004332661125466618,0.0003528995483878517,0.0,0.0,0.0
1609060343358649254,81,1609060343358649254,-0.0076662411940324375,0.010021191683673443,0.00037962972229976805,-9.130440679284526e-06,4.705733149794707e-06,-0.0001753458091861027,0.9999999845741575,-0.0024922089425758413,-0.003215531065392208,-0.0005264870393357716,0.0,0.0,0.0
1609060343458641052,82,1609060343458641052,-0.006390456339733432,0.007187217571330946,4.868324952206931e-05,-1.651620087961118e-05,4.414394074066029e-06,-0.00010090426678778676,0.9999999947630172,0.004391866797141248,-0.013772546580116054,-0.0024450912096217105,0.0,0.0,0.0
1609060343558599472,83,1609060343558599472,-0.00794127026248607,0.0073468333370332005,-0.00017267113422290173,-3.13641160046711e-05,3.6402148871788415e-06,-0.00011139450553453367,0.999999993297141,-0.0042487253024214265,-0.008564478652497222,-0.001761485542903917,0.0,0.0,0.0
1609060343658623219,84,1609060343658623219,-0.008233506514957882,0.008453280310870002,5.306080669548563e-06,-2.9969953114526577e-05,5.485821211011697e-07,-0.0001550008904787144,0.9999999875381009,-0.0036164299524289825,-0.0019755462757154478,0.00015201525650555565,0.0,0.0,0.0
1609060343757857800,85,1609060343757857800,-0.00913551962585627,0.007843652830444215,-6.43548003275189e-05,-2.8425137715054292e-05,9.228819636470227e-06,-0.0001220095546747065,0.999999992110243,-0.006002833057348141,-0.004834888474697747,5.611938661555737e-05,0.0,0.0,0.0
1609060343858628511,86,1609060343858628511,-0.00793856794568505,0.008301976474457004,0.00017272113428765673,-2.1290715773048584e-05,-5.27604616123811e-06,-0.00010025500857242833,0.9999999947338893,0.0013585976132001144,-0.002240224459157341,0.0009694125865391356,0.0,0.0,0.0
1609060343958476782,87,1609060343958476782,-0.0065657935123121835,0.00957933950553999,0.0003596300983184195,-7.406689376559889e-06,1.0865408158000889e-05,-0.0001344683131401978,0.9999999908726666,0.006552392049885923,0.003031221070395602,0.001556431939365474,0.0,0.0,0.0
1609060344059200287,88,1609060344059200287,-0.005162092225529956,0.008065337573144572,0.0004556223094107746,-9.697421079763013e-06,1.6040975599718015e-05,-0.00013411481018991351,0.9999999908309207,0.009851177960879327,-0.004851858936194263,0.0010394226977439528,0.0,0.0,0.0
1609060344158430815,89,1609060344158430815,-0.006011225607910169,0.009419344439381186,0.00027039347375335654,-2.4967925603292553e-05,8.133398368694098e-06,-0.0001227161267196055,0.9999999921255897,0.0022994615383423282,0.0021688726296259795,-0.0002607401627644857,0.0,0.0,0.0
1609060344259244919,90,1609060344259244919,-0.005550388202889775,0.00946743348483245,0.00018614878367491125,-1.1215930136664156e-05,2.017598566418898e-05,-0.00014045974012565337,0.9999999898690852,0.0033619969116864975,0.0007902260934906672,-0.0015213590357719263,0.0,0.0,0.0
1609060344359246016,91,1609060344359246016,-0.006473975920462241,0.009529548953525748,3.246900084710644e-05,-2.3401222306804877e-05,2.4192315063873827e-06,-0.0001148046445861103,0.9999999931332001,-0.002235141310710312,2.6518999747740654e-05,-0.0018503489117377998,0.0,0.0,0.0
1609060344458480835,92,1609060344458480835,-0.0074130780227915785,0.00752991903627383,0.0001856190344701075,-1.021577936265878e-05,4.3785657162936685e-06,-0.00010184188579431632,0.999999994752336,-0.005193744507335359,-0.009431840191994112,0.000665365750474088,0.0,0.0,0.0
1609060344558485746,93,1609060344558485746,-0.008120586067373136,0.008617877801632605,0.00015057021904490766,-2.29163300285114e-05,2.413445447720843e-06,-0.00011074587081454626,0.9999999936021724,-0.006277908846302736,-0.0028486305998589026,-0.0004889374319061753,0.0,0.0,0.0
1609060344658483744,94,1609060344658483744,-0.0072359357047283145,0.006476055083241259,0.00023198333287568815,1.3075040404167519e-06,1.6260153472833268e-05,-9.7516889655001e-05,0.9999999951121648,-0.00015404236394323412,-0.010592078080518761,-0.0004940812245751906,0.0,0.0,0.0
1609060344758477688,95,1609060344758477688,-0.00690624694762966,0.008587418677192699,0.00010667822430326654,-2.3407690565417693e-05,1.0672882462419335e-05,-0.00012567556260042315,0.9999999917718992,0.0008710970833572171,0.00193464884398435,-0.0006260377953524846,0.0,0.0,0.0
1609060344858446360,96,1609060344858446360,-0.005765365983305198,0.007809613906584895,6.588010172676567e-05,-2.2554620704782655e-05,1.4401530102172336e-05,-7.747824454678342e-05,0.999999996640491,0.005679511383150992,-0.0027801634920107164,-0.00047442471834798123,0.0,0.0,0.0
1609060344959223747,97,1609060344959223747,-0.006027711490730205,0.007930947302537633,0.0001415828354150928,-1.4378138229195738e-05,1.2199561238832782e-05,-0.00010667300391297879,0.9999999941326425,0.00186314768756965,-0.0022846257430404336,-0.0001221629770012866,0.0,0.0,0.0
1609060345058433771,98,1609060345058433771,-0.006282030140550196,0.007969937890637548,0.00025291278132734125,-2.04833001508535e-05,6.333988820764102e-06,-9.780362770817785e-05,0.9999999949873699,6.640665604327892e-05,-0.0026128541958076864,0.0005483524074886142,0.0,0.0,0.0
1609060345158444643,99,1609060345158444643,-0.006229231006698873,0.007990277470283679,0.00026838852869760164,-1.9092053147532653e-05,1.6078206897583285e-05,-8.705746488842844e-05,0.999999995898978,0.00016358178209810258,-0.00291695315784387,0.0007762470725129168,0.0,0.0,0.0
1609060345258407116,100,1609060345258407116,-0.007001609981462091,0.009241554934632797,0.00045547512739694455,-1.8623700141367518e-05,1.638372159193958e-05,-0.00012532044390299696,0.9999999918397459,-0.0032873509167382284,0.0022101220818144906,0.0009125839099291885,0.0,0.0,0.0
1609060345358418703,101,1609060345358418703,-0.007325744604444158,0.010120573665327044,0.000527857453111245,-3.0420551376706352e-06,1.32254334105036e-05,-0.0001022520533091186,0.9999999946801625,-0.0031739985412397678,0.004208516109262739,0.0004849710057195359,0.0,0.0,0.0
1609060345459204912,102,1609060345459204912,-0.00782030032495929,0.01104803589182863,0.0005737738511643887,-1.72692755730272e-05,1.5310014778135496e-05,-0.00015843738937897415,0.9999999871824714,-0.003976974688574567,0.005657360263280174,0.0005939073546460481,0.0,0.0,0.0
1609060345558331728,103,1609060345558331728,-0.007189619491660283,0.011454813406697167,0.0005429285151806184,-1.3236791523750513e-05,1.6121501041035986e-05,-0.00013646968738631625,0.9999999904704409,0.0004339714347479872,0.0036274592309481603,0.0003521233025067501,0.0,0.0,0.0
1609060345658290863,104,1609060345658290863,-0.006078037705388205,0.01083235574218925,0.0006040074040794521,-1.4034459537219241e-05,2.3588883079800354e-05,-0.00011893488576998284,0.999999992550532,0.0051165418973244114,-0.0017846532397092253,0.0005000705685814019,0.0,0.0,0.0
1609060345758300781,105,1609060345758300781,-0.005204529174968985,0.009147064495293362,0.0006189463881485236,-6.818637290250949e-06,1.8457099360566486e-05,-0.0001143372040618893,0.9999999932699091,0.006817507421900314,-0.008537949675876459,-0.00017834529452995555,0.0,0.0,0.0
1609060345858333111,106,1609060345858333111,-0.0060871178313407,0.009199563814457143,0.00036984622989377265,-2.8358762957042933e-05,1.7239799822418025e-05,-0.00010048696689527396,0.9999999944004557,-4.622349281831195e-05,-0.005256726471297371,-0.0012348044156990795,0.0,0.0,0.0
1609060345959093809,107,1609060345959093809,-0.006963297630661548,0.009486504016002387,0.00024496916927439267,-3.404722433106175e-06,1.6174780729081886e-05,-0.00013504575895314589,0.9999999907447,-0.0038856394932629238,-0.003646546746405719,-0.0019057835452990723,0.0,0.0,0.0
1609060346059094906,108,1609060346059094906,-0.007238478288460496,0.009831864326965015,9.215658561477225e-05,-2.1688110432337597e-05,1.8135073469335797e-05,-0.00012415322728063542,0.9999999918933469,-0.0032350313392298805,-0.002275176957031477,-0.001442469192792865,0.0,0.0,0.0
1609060346159061670,109,1609060346159061670,-0.008498622051133855,0.01144876905265907,0.00023935308469566607,-1.3310293241545446e-05,7.881185500616068e-06,-0.00013491475329250932,0.9999999907793525,-0.007778517046252081,0.004034127620494482,0.0001039995107456925,0.0,0.0,0.0
1609060346258267403,110,1609060346258267403,-0.006639747563145928,0.011755857949288734,0.00028479091163628354,-2.849393302526265e-05,1.010423370915157e-05,-0.00012267711313992724,0.9999999920181497,0.002932297347323769,0.0035777733464545337,0.00025973853827758226,0.0,0.0,0.0
1609060346359090090,111,1609060346359090090,-0.007175883076723654,0.009547707531258236,0.0002036510861960228,-2.4115898023261678e-05,1.1447059869105542e-05,-0.0001230280642314212,0.9999999920757282,-0.0008316629804757021,-0.007418988086863894,-0.00019468856275679604,0.0,0.0,0.0
1609060346458291769,112,1609060346458291769,-0.006208260397968096,0.009291889744046794,0.000306207279946142,-2.2040561437714254e-05,2.299967447571295e-05,-0.00010731796582737094,0.9999999937340279,0.0037264351849758907,-0.005977167345734994,0.00018224136275049694,0.0,0.0,0.0
1609060346558313370,113,1609060346558313370,-0.005665808055985846,0.010959688938204397,0.00026956088461458884,-3.172787365487495e-05,1.6968144756801026e-05,-0.00012439248844541036,0.9999999916159534,0.00438376590868826,0.002212182562431609,9.146832816866774e-05,0.0,0.0,0.0
1609060346658280849,114,1609060346658280849,-0.004950559397922328,0.01050050139004507,0.00040560090236278464,-2.879370694897469e-05,2.3214245778063844e-05,-0.0001317971974900376,0.9999999906307466,0.005892727223010217,-0.0015004127798984826,0.00044368968981933,0.0,0.0,0.0
1609060346758226395,115,1609060346758226395,-0.004100264303234533,0.009840617411874471,0.000599079258575379,-1.619969048927352e-05,2.2700536878280968e-05,-9.191076891642054e-05,0.9999999953873195,0.0070093159482900414,-0.005055799611826686,0.0011955328867989602,0.0,0.0,0.0
1609060346858203650,116,1609060346858203650,-0.004963407745977946,0.009841096921798133,0.0003891464771956064,-2.214508609765054e-05,1.4278626395661907e-05,-8.840812946638935e-05,0.9999999957448454,0.0009525047621035182,-0.004086240683388831,-0.001088994179583647,0.0,0.0,0.0
1609060346958167076,117,1609060346958167076,-0.006559473640132411,0.008663939823333296,0.00035033631493089763,-1.1399018484730714e-05,1.4080812349017209e-05,-0.00010838294500474864,0.9999999939624513,-0.006538631551353328,-0.008761531534454279,-0.0008712423640875641,0.0,0.0,0.0
1609060347058128119,118,1609060347058128119,-0.007592798435616328,0.00879993310939546,0.00012077719151175806,-2.3276125597468785e-05,4.917542703915564e-06,-0.0001252750907691907,0.9999999918700816,-0.008145188082815566,-0.0058178718319729355,-0.0016399470435874731,0.0,0.0,0.0
1609060347158139944,119,1609060347158139944,-0.008459858726220286,0.008287922243363235,0.00030814508135570273,-4.942961184982371e-06,1.5657289935301177e-05,-0.00013652651469039261,0.9999999905454493,-0.008621213343328358,-0.0065870276721672946,0.0004896787640361845,0.0,0.0,0.0
1609060347258172750,120,1609060347258172750,-0.006702776058265028,0.008317562912988326,0.000501344434352452,-1.9480886565003404e-05,1.6953171859084342e-05,-9.484693490478604e-05,0.9999999951685576,0.0016988121492144612,-0.005252887767782176,0.0010637455774880492,0.0,0.0,0.0
1609060347358113289,121,1609060347358113289,-0.007478706015450797,0.009493812823729212,0.0003382890162849689,-2.8526174499703625e-05,1.0005102154793476e-05,-0.0001212253400360603,0.9999999921952716,-0.0026791873892068833,0.0002573533610479078,-4.4119931087701746e-05,0.0,0.0,0.0
1609060347458139420,122,1609060347458139420,-0.006507373421682138,0.009002685240241061,0.0002437685770933203,-2.6434399604428243e-05,3.482246216252799e-06,-0.00013130866223859852,0.9999999910235511,0.0025454121864512693,-0.0022222310936556894,-0.0007508108082141329,0.0,0.0,0.0
1609060347558130980,123,1609060347558130980,-0.006922352701141165,0.009842461693315341,0.00020880570354873338,-1.8826777874035054e-05,1.349367305126267e-05,-0.00014197977805847147,0.9999999896525932,-0.0007811658190649911,0.0010473779266266785,-0.000998659838891149,0.0,0.0,0.0
1609060347658135653,124,1609060347658135653,-0.005745215640889947,0.010423917275476193,0.0003365149024708209,-2.0789993745851782e-05,1.4656319207762755e-05,-0.00012534175255478236,0.9999999918211918,0.004658545280834179,0.002413196328674704,-1.1644709500863333e-05,0.0,0.0,0.0
1609060347758126736,125,1609060347758126736,-0.006139616774889551,0.009707035852450058,0.0005251456483017109,-1.0774054073121715e-05,1.7916211444664813e-05,-0.00011241082710302176,0.999999993463352,0.0015062122968608318,-0.0020878839217137,0.0009221960638127373,0.0,0.0,0.0
1609060347858118534,126,1609060347858118534,-0.005371679374589735,0.009000164896206506,0.0005704858635796039,-3.146240797522149e-05,1.7428062925382434e-05,-0.00011960287597768585,0.99999999220075,0.004029096106817341,-0.005048324956044093,0.0004439742907316474,0.0,0.0,0.0
1609060347958121777,127,1609060347958121777,-0.005674338575358212,0.00908513960338571,0.00047428009234961184,-2.299802685466396e-05,1.6654212527457042e-05,-0.00012544162602368328,0.9999999917290473,0.0013510887243215223,-0.004124600050105703,-0.00027579287933919637,0.0,0.0,0.0
1609060348058130264,128,1609060348058130264,-0.004649676707029747,0.009952207558350721,0.0003766958791409175,-4.032568939465396e-05,1.6109888728493173e-05,-0.0001159650268325382,0.9999999923331951,0.004949478963509087,0.0003753993814151293,-0.00021865857584360776,0.0,0.0,0.0
1609060348158131361,129,1609060348158131361,-0.005889359284345834,0.00922933762843884,0.00037303936484981044,-1.0277222310934208e-05,1.4754036996102682e-05,-0.0001242115213061778,0.9999999921240804,-0.0025488422099758153,-0.003440418625169435,0.000530369900389082,0.0,0.0,0.0
1609060348258095026,130,1609060348258095026,-0.006454947993402999,0.0075335733071258005,0.00022810282091005366,-2.826405266819414e-05,1.5193632992080232e-05,-8.703555722119488e-05,0.9999999956975377,-0.003653360210683045,-0.00935551373041292,-0.0005366057429713564,0.0,0.0,0.0
1609060348358060837,131,1609060348358060837,-0.006698853089367336,0.007177219416624736,0.0002706426208424462,-2.425884135176847e-05,1.7357851885333966e-05,-0.00010122292327173633,0.9999999944320497,-0.0034469570931910777,-0.007900225726624464,-0.0003200193916305786,0.0,0.0,0.0
1609060348457994461,132,1609060348457994461,-0.007689085852316776,0.0073149007270866115,0.00029435250206679163,-1.6017648816364976e-05,7.86166386095942e-06,-0.00011369359889382494,0.9999999933776796,-0.006462817269805443,-0.005449021224218694,-9.272092137691825e-05,0.0,0.0,0.0
1609060348557960272,133,1609060348557960272,-0.00752063735943723,0.00839184315939306,0.0004835160818991371,-1.1172343832317089e-05,1.8256104697188306e-05,-0.00012274530338987486,0.9999999922377241,-0.002839821969898923,0.00021074995329742417,0.0008059831127478023,0.0,0.0,0.0
1609060348657963753,134,1609060348657963753,-0.007110235418173228,0.008350157490786336,0.0005446456288837185,-1.8649705716497017e-05,1.1288400392845433e-05,-9.292458222877975e-05,0.9999999954448727,0.00024324154710352085,-0.00025649391230278627,0.0008818051956927236,0.0,0.0,0.0
1609060348758051395,135,1609060348758051395,-0.006695676268506255,0.008162965311126492,0.0005563247520868037,-3.006830006415625e-05,8.116740829476322e-06,-8.709750384731232e-05,0.9999999957220006,0.0024179136406639974,-0.0015434218601345943,0.00024537465269198317,0.0,0.0,0.0
1609060348858059406,136,1609060348858059406,-0.006487649034355822,0.008279393852665792,0.0004465337536439239,-2.6070990483801493e-05,1.5510829728098022e-05,-8.193666762540899e-05,0.9999999961830297,0.002178729998944862,-0.0014095964017351345,-0.00112231636081664,0.0,0.0,0.0
1609060348958017588,137,1609060348958017588,-0.006316386427836698,0.009095144591945784,0.0004307874771917618,-3.250754437407154e-05,7.482210508572899e-06,-0.00010817690732943846,0.9999999935924957,0.001317305608054045,0.000802388840201371,-0.000630744484926289,0.0,0.0,0.0
1609060349057993412,138,1609060349057993412,-0.006638273732247431,0.008776393734313728,0.0003625596558447831,-3.096440093352034e-05,1.1845266136693943e-05,-8.82418925326747e-05,0.9999999955571114,-0.000690050255135341,-0.0016331724080177203,-0.0010141858991828212,0.0,0.0,0.0
1609060349157932758,139,1609060349157932758,-0.0064274216602150215,0.007928996403309555,0.00038297995833884,-2.4129291273213816e-05,2.0552470374774947e-05,-8.949890591246043e-05,0.9999999954926381,-3.178569458856667e-05,-0.005800573793676348,-0.0007514074302781016,0.0,0.0,0.0
1609060349257921934,140,1609060349257921934,-0.007387312301822032,0.00817184951363195,0.00036191264306490817,-2.893204878381169e-05,1.529719564554246e-05,-8.767705722077096e-05,0.9999999956208112,-0.004112522152209563,-0.0033647799291562524,2.3485348368336575e-05,0.0,0.0,0.0
1609060349357918501,141,1609060349357918501,-0.0072853388925451555,0.010033355626400392,0.00045792762261753507,-2.3138963426953417e-05,1.044399218686336e-05,-0.00011359018094825215,0.999999993226369,-0.0020127488722486127,0.004909041686532857,0.0006807948835182411,0.0,0.0,0.0
1609060349457889557,142,1609060349457889557,-0.005818932562290187,0.009129940859573887,0.0004457552790643217,-3.0186696928382208e-05,2.4358991353875187e-05,-9.751344001548463e-05,0.9999999944932435,0.004902024961275825,-0.0012414909706470927,-0.00025903085056810574,0.0,0.0,0.0
1609060349557905674,143,1609060349557905674,-0.006103547571028095,0.00861666050732359,0.0004308687627629677,-3.2304737245871246e-05,1.5389131288734117e-05,-8.640426307141634e-05,0.999999995626918,0.0017864577301501283,-0.004249762168564583,-0.00037650755912490213,0.0,0.0,0.0
1609060349657910824,144,1609060349657910824,-0.005957665776668319,0.007866573376913016,0.0005569832261755038,-2.4339977991334057e-05,2.072216587335078e-05,-0.00010750410200917374,0.999999993710489,0.0018662787802067849,-0.007209742062372612,0.0011013598286015698,0.0,0.0,0.0
1609060349757896662,145,1609060349757896662,-0.006137151732505169,0.0074152356472981015,0.0005449713452885731,-3.553296871568495e-05,2.8655716359017994e-06,-8.160142358975616e-05,0.9999999960351785,0.00043127397077703583,-0.007186085265494052,7.644177219487164e-05,0.0,0.0,0.0
1609060349857856750,146,1609060349857856750,-0.007853814375677852,0.00720757882244101,0.0004329113371423889,-2.5944098987637563e-05,1.4531320738687026e-05,-0.00010587162418178947,0.9999999939534484,-0.007241907194323058,-0.0070436703383049155,-0.0006491984325230273,0.0,0.0,0.0
1609060349957838297,147,1609060349957838297,-0.006685272619271409,0.0076651271349354524,0.0001483030531302912,-2.5446947659802678e-05,1.9454946781435377e-05,-5.0202160110419394e-05,0.9999999982268272,0.0005952242815907257,-0.003662058438354932,-0.002528542210961931,0.0,0.0,0.0
1609060350057028294,148,1609060350057028294,-0.006256682271296322,0.007722645260778793,0.00027781090483310067,-3.149892211732321e-05,1.5564680976805512e-05,-7.816249414487824e-05,0.9999999963280678,0.001705336381757304,-0.0027656914235127043,0.000293476808572364,0.0,0.0,0.0
1609060350157809258,149,1609060350157809258,-0.006833930869215555,0.0071759925294982855,0.00039937157141851985,-1.1812336388948841e-05,2.313077633662415e-05,-0.00012416064866785796,0.9999999919547604,-0.0016929381065346166,-0.0048176255001264115,0.0008144539363034495,0.0,0.0,0.0
1609060350257813692,150,1609060350257813692,-0.006126311632536741,0.008427661359442238,0.00034389170291951825,-2.499373941541075e-05,2.2431934591885225e-05,-8.043942938494598e-05,0.9999999962007854,0.0018898787090039653,0.0012851064926042597,-9.288818980052367e-05,0.0,0.0,0.0
1609060350357830286,151,1609060350357830286,-0.006063925045530227,0.008345438591323024,0.00038315922826820273,-2.9440684591346864e-05,9.4648535846505e-06,-8.414891311815167e-05,0.9999999959812874,0.0009897104200058651,-4.782770300771743e-05,0.001568301727790602,0.0,0.0,0.0
1609060350457857370,152,1609060350457857370,-0.005926600942007563,0.008422352511559013,0.0004755057730117625,-2.6520501213093866e-05,1.2917511099589509e-05,-0.00011895609907406731,0.9999999924895989,0.0011513044225131823,-0.0002886752031455723,0.0006650268124726614,0.0,0.0,0.0
1609060350557865620,153,1609060350557865620,-0.006480996697644177,0.006929897251267889,0.0004097542276077644,-2.867047741251418e-05,1.5415886753198994e-05,-7.953577188300325e-05,0.9999999963071832,-0.001254614842621338,-0.007537426064554202,0.00010929212587021137,0.0,0.0,0.0
1609060350657833338,154,1609060350657833338,-0.006240483399766728,0.007177785360372677,0.0005968238113794879,-1.2156660141579535e-05,2.743387263259052e-05,-9.376960780135473e-05,0.9999999951534051,0.0003721360854129543,-0.004966755793583967,0.0008191234144926771,0.0,0.0,0.0
1609060350757812738,155,1609060350757812738,-0.007625445527384307,0.006029681665119466,0.0005242977042715914,-1.4599381984459488e-05,2.412162379587909e-05,-9.980689881547303e-05,0.9999999946217698,-0.005349778030267025,-0.008535429977012076,-0.0004380369453168476,0.0,0.0,0.0
1609060350857769966,156,1609060350857769966,-0.006629681900024912,0.006496465172867065,0.0005117276696713016,-1.082442191014042e-05,2.7504095791499935e-05,-8.703113059120885e-05,0.9999999957759446,0.0013174256192167695,-0.004095910800644798,-0.0003490533264830474,0.0,0.0,0.0
1609060350957711935,157,1609060350957711935,-0.005305438274615952,0.0073241418651328926,0.0006191287370497251,-5.470212523569485e-07,2.3656767557673116e-05,-0.00011629520060943207,0.9999999929577166,0.006639294926092695,-0.00023275803055403414,-0.00019576447669605672,0.0,0.0,0.0
1609060351056924105,158,1609060351056924105,-0.00393243544755844,0.0073236117497045275,0.0006709202519463098,-1.58145681980522e-05,3.689221980517129e-05,-9.533140095752062e-05,0.9999999946503679,0.009813276606538383,-0.0004696631818679003,0.00032220646014967516,0.0,0.0,0.0
1609060351157749891,159,1609060351157749891,-0.004750103424521728,0.0075814779484473325,0.0005425855614201595,-1.498565404962193e-05,2.737109502558479e-05,-0.00010638560966733206,0.9999999938541521,0.002527464104376322,-0.0007130480991193395,-0.0005480319010709442,0.0,0.0,0.0
1609060351257717609,160,1609060351257717609,-0.006235549835353184,0.007949500596627898,0.0006035883223348159,-7.28982870983262e-06,2.1833767284841135e-05,-0.00011879672034117705,0.9999999926787165,-0.004704868962349504,0.0007059239567953311,-5.704725412526636e-06,0.0,0.0,0.0
1609060351357721090,161,1609060351357721090,-0.007740658209727621,0.00938679780746794,0.0004108041344286955,-3.5544429817429414e-05,9.38533444564584e-06,-7.636430864145532e-05,0.9999999964084755,-0.009010657665563047,0.005867491751388578,-0.0011713750902082479,0.0,0.0,0.0
1609060351457735062,162,1609060351457735062,-0.007453050656912712,0.009947136904673812,0.0003691712637025063,-2.3561127870939637e-05,2.0408345729186702e-05,-9.80500543069165e-05,0.9999999947072544,-0.004019871288395252,0.004251327932527289,-0.0006688494156878795,0.0,0.0,0.0
1609060351556933641,163,1609060351556933641,-0.006641147174628139,0.009878402223588543,0.0005733177091317946,-2.373409127979524e-05,1.83986840316746e-05,-6.97545355791112e-05,0.9999999971162177,0.0015046900180042625,0.0014978866306913099,0.001232380685227229,0.0,0.0,0.0
1609060351657704353,164,1609060351657704353,-0.005937269540883173,0.007056285338399441,0.0005025839055630153,-2.6772178994818767e-05,1.979704677850943e-05,-7.038539281044201e-05,0.9999999969685864,0.003931613960851938,-0.010564560111533006,0.00034876494166580663,0.0,0.0,0.0
1609060351757707596,165,1609060351757707596,-0.006980989454045671,0.007415400747853984,0.00021605488155215476,-3.647941163959013e-05,1.2827847157505392e-05,-9.377413351301538e-05,0.9999999948555296,-0.0028229182299068924,-0.0066851631712435714,-0.0015726705599168102,0.0,0.0,0.0
1609060351857714891,166,1609060351857714891,-0.00845061885659263,0.008988126345463109,0.00015521998944889365,-4.1845027205305076e-05,9.11847804997968e-06,-7.843360727686867e-05,0.9999999960069821,-0.007881021417488858,0.0009208812908214764,-0.0009758998272318645,0.0,0.0,0.0
1609060351957695961,167,1609060351957695961,-0.00692346742915864,0.007795464187301428,0.00035205929937793975,-2.7761644654054456e-05,1.2694301200488042e-05,-5.278853488388039e-05,0.9999999981407319,0.0016087194725846292,-0.004968088762646625,0.0007607616469523571,0.0,0.0,0.0
1609060352057703733,168,1609060352057703733,-0.006308787726046244,0.007546390044253487,0.00045925989722722476,-1.2911323192789961e-05,1.7660397915267905e-05,-8.468851037981975e-05,0.999999996174606,0.0034343015782847958,-0.004685985440033715,0.0006204457765691085,0.0,0.0,0.0
1609060352157630682,169,1609060352157630682,-0.006352649946260169,0.0072345718439962075,0.0005928231917217749,-7.997789059826469e-06,2.3896162498325115e-05,-9.015584324061758e-05,0.9999999956184406,0.0016539814001682214,-0.004962725558319631,0.0008350894411602782,0.0,0.0,0.0
1609060352257587671,170,1609060352257587671,-0.005940156882782277,0.006872907030589773,0.0007153079331852481,-1.6569067037517312e-05,1.99325412982458e-05,-7.635889260236147e-05,0.9999999967487142,0.0025006611078285355,-0.0049376957795291155,0.0012510085599835425,0.0,0.0,0.0
1609060352357531548,171,1609060352357531548,-0.005267806026221937,0.00806368662147129,0.0005681705303203821,-2.0752603717860846e-05,3.2482586938189e-05,-8.646727086018656e-05,0.9999999955187849,0.0043111031759224434,0.0008808233314598537,-0.00040174719625045625,0.0,0.0,0.0
1609060352457509279,172,1609060352457509279,-0.006041628929561763,0.008323699646023659,0.0003099903346427257,-2.9107730179672234e-05,1.499000800532367e-05,-7.979786451152957e-05,0.9999999962801439,-0.0008020819843117619,0.000506784747289331,-0.002055528031099938,0.0,0.0,0.0
1609060352557516098,173,1609060352557516098,-0.006419781511766705,0.008329538352800678,9.683900059646389e-05,-2.6277799614353073e-05,1.841078869147002e-05,-9.247035046807249e-05,0.9999999952098507,-0.0021324338775562347,-0.0006972685319286953,-0.0027226730519867683,0.0,0.0,0.0
1609060352657529116,174,1609060352657529116,-0.00625924358423136,0.0069997933740306995,0.00018860046461982233,-3.32755757991235e-05,2.393265487075739e-06,-8.373216249710146e-05,0.9999999959379404,-0.0006753582839774924,-0.0063150846642720726,-0.0005146194998175862,0.0,0.0,0.0
1609060352757599831,175,1609060352757599831,-0.00596661176527615,0.008641602266496842,0.0003426599006828265,-2.9742576566169747e-05,1.4044511176759253e-05,-8.767281259928648e-05,0.9999999956157776,0.0007974221917152286,0.0005777437249463897,0.0008810371228001575,0.0,0.0,0.0
1609060352857627630,176,1609060352857627630,-0.006400655899477095,0.005436894260598125,0.0006180471177552163,-1.4030072718478259e-05,1.4934467946521187e-05,-4.882754768522054e-05,0.999999998597968,-0.0010463000428485622,-0.013212241958364774,0.002574554274896921,0.0,0.0,0.0
1609060352957607269,177,1609060352957607269,-0.006778030154826786,0.006485110159978098,0.0005999047086904557,-2.257329963094933e-05,8.863899173061515e-06,-8.197152620476767e-05,0.9999999963462459,-0.0020551836215988856,-0.005426010116759529,0.0007134389607601928,0.0,0.0,0.0
1609060353057535410,178,1609060353057535410,-0.006306008019301456,0.008940394620426988,0.00048445634337517446,-2.191474177611872e-05,1.8914126614367207e-05,-6.914600729134262e-05,0.9999999971903868,0.0007639624188358857,0.0051580214537951434,-0.00024038341401516313,0.0,0.0,0.0
1609060353157471657,179,1609060353157471657,-0.006941944587189214,0.0077786097902816185,0.0005831053106075193,-8.568146213864011e-06,2.57173070137192e-05,-8.43108299307444e-05,0.9999999960784169,-0.001904097754987032,-0.0014038121519101615,0.00012424851286108713,0.0,0.0,0.0
1609060353257413149,180,1609060353257413149,-0.00840941716977823,0.00975608862048506,0.0001798175242974068,-3.3131965575449646e-05,1.0801258542049793e-05,-9.264638173186664e-05,0.9999999951010984,-0.0073447553664936945,0.0062314946530803135,-0.002169939082074868,0.0,0.0,0.0
1609060353357381344,181,1609060353357381344,-0.008111971829715138,0.009013794968614637,0.00022602979069056997,-3.410339369539616e-05,-1.7642562597837882e-06,-5.270233495465053e-05,0.9999999980281257,-0.003085864615430735,9.84756517293725e-05,-0.0004280558491402142,0.0,0.0,0.0
1609060353456646204,182,1609060353456646204,-0.005631378417808589,0.007246833121650171,0.0005028279967865737,-2.249451651475239e-05,1.3044126473851785e-05,-8.075585435517886e-05,0.9999999964011402,0.00893803995730787,-0.0067555810810413786,0.0016599459309716092,0.0,0.0,0.0
1609060353557492971,183,1609060353557492971,-0.006003144759682151,0.00731893519215,0.0005732392138509654,-1.8061267627930534e-05,1.446269885231909e-05,-7.371960208592359e-05,0.999999997014991,0.0037232675531523284,-0.004608498147355814,0.001454187528923053,0.0,0.0,0.0
1609060353657452583,184,1609060353657452583,-0.006825335476127455,0.007948570552584725,0.00046022765299006904,-2.7526351962944175e-05,1.69380904851439e-05,-8.425230046823741e-05,0.9999999959284455,-0.001411420296047564,-0.0014043387954333405,-4.765755551044623e-05,0.0,0.0,0.0
1609060353757469893,185,1609060353757469893,-0.005736485815874628,0.008723939822377885,0.00039832607358563493,-2.9606530333786527e-05,1.0735859069487669e-05,-8.447635362176674e-05,0.99999999593594,0.0037453248877991055,0.0011754004914156938,-0.0007723592070014791,0.0,0.0,0.0
1609060353857508183,186,1609060353857508183,-0.006881589905599928,0.007643335102410655,0.00036569354173602843,-2.2827479936596338e-05,1.2685541751590458e-05,-7.590522330692329e-05,0.9999999967781601,-0.0029545609459222548,-0.00433387265668725,0.0006007295972999011,0.0,0.0,0.0
1609060353956684113,187,1609060353956684113,-0.007118848282871588,0.008011224752716945,0.0003166129082371411,-3.480843572361187e-05,2.0423126117695633e-05,-6.234958881974715e-05,0.9999999972418686,-0.002564899174312464,-0.002451464163087532,-0.00022193476597967663,0.0,0.0,0.0
1609060354057428598,188,1609060354057428598,-0.007466445147403369,0.009489333024035786,0.0005076973514708088,-3.2191014399844426e-05,1.6101402512197117e-05,-6.723033699518258e-05,0.9999999970922527,-0.003115454558292057,0.003026176777677136,0.001786851212350624,0.0,0.0,0.0
1609060354157395124,189,1609060354157395124,-0.007718027497212627,0.009651152406287111,0.0006621378262982888,-1.2411178403704777e-05,1.0328711764627517e-05,-8.893581287742062e-05,0.9999999959148206,-0.002822044426909936,0.0018432342732880695,0.0017393492410286507,0.0,0.0,0.0
1609060354257379532,190,1609060354257379532,-0.00792095174338036,0.009377913201895087,0.0005165799728033492,-2.627544920735052e-05,2.9723834708556635e-05,-0.00011442621469231837,0.9999999926663373,-0.0028471441256191763,2.7496610716515237e-05,-0.0006700055559557224,0.0,0.0,0.0
1609060354358194590,191,1609060354358194590,-0.008288034204517705,0.00958152496308293,0.00034566278424500335,-2.3357233936192392e-05,2.6646375110115206e-05,-8.644966967943708e-05,0.9999999956354014,-0.003273741896243903,2.6036969181405438e-05,-0.0013824207313857103,0.0,0.0,0.0
1609060354457375050,192,1609060354457375050,-0.008284556106908429,0.010440321000164142,0.0003352740046654803,-3.557043308419248e-05,1.3960516250982866e-05,-0.00010200950476369047,0.9999999940669236,-0.0018694705321634596,0.002264233127464523,-0.00044563224413367547,0.0,0.0,0.0
1609060354557348490,193,1609060354557348490,-0.007687788505310928,0.010529364607318304,0.0005095353205648196,-1.6641281638317294e-05,5.036148015409656e-06,-9.378980287654019e-05,0.9999999954505572,0.001206182034139427,0.00044866527170171365,0.0012466200563767185,0.0,0.0,0.0
1609060354657346964,194,1609060354657346964,-0.006853152491039621,0.009162876838090752,0.0005458802329644048,-3.3241143717792145e-05,4.385875291029281e-06,-8.393223968587421e-05,0.9999999959155526,0.004167662217439269,-0.005425507751945359,0.0005238427526967456,0.0,0.0,0.0
1609060354757324457,195,1609060354757324457,-0.0062938052610750726,0.00746125770385154,0.00031482795077738,-3.0228854434068883e-05,1.1144729738419237e-05,-7.6712193942262e-05,0.9999999965385926,0.004510493649053148,-0.010893965074855128,-0.000986494770983864,0.0,0.0,0.0
1609060354857319593,196,1609060354857319593,-0.006073462561856309,0.008342537060978874,0.0003766473404931028,-2.514788847976488e-05,1.2263608149180341e-05,-8.638363305844288e-05,0.9999999958774944,0.003677793407075851,-0.004307669328638645,0.00023338283801588517,0.0,0.0,0.0
1609060354957293272,197,1609060354957293272,-0.007289495417566569,0.008577335633709264,0.000558752152364122,-1.7339009693948177e-05,8.240554674466138e-06,-9.269893230895833e-05,0.9999999955191465,-0.0034096981440094984,-0.003136109951166787,0.0017686610320339544,0.0,0.0,0.0
1609060355057327032,198,1609060355057327032,-0.0076722440924341636,0.007973144138307225,0.0005976091470142961,-3.047872505995636e-05,1.753931977833366e-05,-7.290425936023597e-05,0.9999999967241612,-0.0041478187271490954,-0.004363750149694125,0.000563339267990766,0.0,0.0,0.0
1609060355157306910,199,1609060355157306910,-0.005703708007376288,0.008795811663313216,0.0008746627007564904,-8.915138822141062e-06,2.6229392431703977e-05,-8.11433464974468e-05,0.9999999963241151,0.005928812478032664,-0.0004810238117130706,0.00239815187698034,0.0,0.0,0.0
1609060355256583214,200,1609060355256583214,-0.006390255989407855,0.008715101936444286,0.0006497692201926273,-2.163129454038237e-05,2.9938752585766967e-05,-7.898718734427076e-05,0.9999999961983577,0.0003565588193547792,-0.0009153217424727024,-0.00067885648001045,0.0,0.0,0.0
1609060355357395887,201,1609060355357395887,-0.0063585829743496546,0.008832729640985998,0.0005886951350149147,-1.7878792269703165e-05,2.7076252542274927e-05,-8.476101228497177e-05,0.999999995881364,0.000218645602918313,-0.001116438967915228,-0.0008750919998089412,0.0,0.0,0.0
1609060355457338572,202,1609060355457338572,-0.007023729091193544,0.00930448234545329,0.0003193443719258365,-4.155297772763031e-05,1.1250641323688988e-05,-8.651535791819808e-05,0.9999999953308988,-0.00289206072120324,0.000491951661399963,-0.001596756861070363,0.0,0.0,0.0
1609060355557294130,203,1609060355557294130,-0.006907130904711554,0.00921884152399367,0.0002253438431645163,-2.950440915925656e-05,1.0430479473113084e-05,-8.169210935154177e-05,0.9999999961735127,-0.0007874626036305462,-0.0006133141884931778,-0.0007484154875638439,0.0,0.0,0.0
1609060355656459093,204,1609060355656459093,-0.005953203259141985,0.009493397331677832,0.00033671355447461904,-3.477934598455199e-05,1.3201951293223182e-05,-7.861942238855955e-05,0.9999999962175107,0.003558746575457848,0.0003373823831353071,0.0006879138214400601,0.0,0.0,0.0
1609060355757255793,205,1609060355757255793,-0.006663845327173278,0.008672395883999354,0.0006585758082678253,-7.105576220397686e-06,2.344413215903855e-05,-9.400167091736891e-05,0.9999999952817491,-0.0009412950437663798,-0.004550312221581268,0.0017439389020830183,0.0,0.0,0.0
1609060355857152700,206,1609060355857152700,-0.007497116768502931,0.008936763295043948,0.0005730074724286736,-2.9952076328543255e-05,1.1318747186444109e-05,-7.991358893169506e-05,0.999999996294253,-0.004047186974258482,-0.0024329391869882706,0.0004533520951068759,0.0,0.0,0.0
1609060355957178831,207,1609060355957178831,-0.008267344603369892,0.007799812894256981,0.00046555491674027817,-2.9523617828228493e-05,7.768593111962251e-06,-4.237431009435593e-05,0.9999999986361752,-0.005337773233040563,-0.006834706944007541,0.00039996461197939234,0.0,0.0,0.0
1609060356057187319,208,1609060356057187319,-0.007291650429766915,0.007946623826563179,0.0006371138856123672,-1.603956757173877e-05,9.622074732572795e-06,-5.794447013031072e-05,0.9999999981462566,0.0007650938874204137,-0.004609837642397487,0.0012123691010965968,0.0,0.0,0.0
1609060356157197952,209,1609060356157197952,-0.006402676987399588,0.008675754923744032,0.000582674592106715,-2.1978029157205837e-05,1.3578144904403363e-05,-8.948725097344414e-05,0.999999995662279,0.0037031863708346545,-0.0008180626165774302,-0.00012542404967402993,0.0,0.0,0.0
1609060356257224083,210,1609060356257224083,-0.005721008042263896,0.009221773078476032,0.00031052528566759437,-2.8257982875896097e-05,1.2772689485601961e-05,-8.001308227666048e-05,0.9999999963180886,0.004855694103237954,0.0005392575951177032,-0.0016373628269777092,0.0,0.0,0.0
1609060356357169628,211,1609060356357169628,-0.005455561800419893,0.010134190883337087,0.00022681378338433887,-3.848135796091057e-05,1.3249172214753722e-05,-9.535786619879389e-05,0.9999999946252236,0.0040666440675874126,0.003012471926047986,-0.0010531942272598398,0.0,0.0,0.0
1609060356457127094,212,1609060356457127094,-0.0073512035144827105,0.010371790419520539,0.0002503138254977485,-3.297563452311343e-05,8.676442526849701e-06,-9.149633556449601e-05,0.9999999952328358,-0.005555661993480687,0.0020522491630894863,-8.367244182553636e-06,0.0,0.0,0.0
1609060356556330919,213,1609060356556330919,-0.008255205922667461,0.009770419611501333,0.0003304941506766292,-3.0358606661487206e-05,4.657214902396555e-06,-6.661116227352918e-05,0.9999999973097712,-0.00748504069157936,-0.002570018886541076,6.846367502878704e-05,0.0,0.0,0.0
1609060356657125711,214,1609060356657125711,-0.008236843015086617,0.008450307122401808,0.00042431477729437537,-2.484588018224686e-05,2.2900329440453533e-06,-5.960325964157499e-05,0.9999999979124068,-0.004159192172367689,-0.008248954548293597,0.0008042488944453356,0.0,0.0,0.0
1609060356757111788,215,1609060356757111788,-0.007130386045513014,0.00812626355104635,0.0003004479080974157,-3.058660884744866e-05,1.1610108920431447e-05,-0.0001096457580902994,0.9999999934536976,0.001978664614187671,-0.007158021991129946,-0.0010004304539813665,0.0,0.0,0.0
