%time,field.header.seq,field.header.stamp,field.pose.pose.position.x,field.pose.pose.position.y,field.pose.pose.position.z,field.pose.pose.orientation.x,field.pose.pose.orientation.y,field.pose.pose.orientation.z,field.pose.pose.orientation.w,field.twist.twist.linear.x,field.twist.twist.linear.y,field.twist.twist.linear.z,field.twist.twist.angular.x,field.twist.twist.angular.y,field.twist.twist.angular.z
1609054399155988932,0,1609054399155988932,-5.545709834055494e-05,-0.004450020493355271,-7.86547567116558e-05,5.605504875418295e-05,0.00010653281218337095,6.192088821931637e-05,0.999999990837197,0.000800056681533737,0.0017039522587448258,0.0007716847748573308,0.0,0.0,0.0
1609054399256351471,1,1609054399256351471,0.0056664067140548904,0.0039465135805860675,-1.6342966777755288e-05,-7.447862303572494e-06,0.0001042325417542816,0.00017194676858709422,0.9999999797572064,0.057773451808888515,0.08756736725257555,0.0018613249689638357,0.0,0.0,0.0
1609054399355526924,2,1609054399355526924,0.006196909978608685,0.008122804226210867,0.0007962050048425001,5.1364195492359175e-06,0.00013374933887640682,-9.274839248219858e-05,0.9999999867412324,0.024973027051754956,0.05926811087040179,0.007027976800122081,0.0,0.0,0.0
1609054399456287146,3,1609054399456287146,0.007474399797748622,0.00875649342039223,0.0009696670157691947,3.271541795335363e-05,0.00011120530301894021,5.9925988930670165e-06,0.9999999932635842,0.018145557719074376,0.033117659448591505,0.005053567383156992,0.0,0.0,0.0
1609054399555489540,4,1609054399555489540,0.00827923688927592,0.004330613323740037,0.00028493150451523334,1.955743923738722e-05,0.00015539018903497202,6.032449537800112e-05,0.9999999859161738,0.01187796889146289,-0.001855372641864847,-0.0018325990382331118,0.0,0.0,0.0
1609054399656260967,5,1609054399656260967,0.007848495610203664,0.0032826659466360982,-0.0001479259178881249,1.2406377958842535e-05,9.703326556603324e-05,2.5893029946601576e-05,0.9999999948800874,0.001824659665741843,-0.005653698029233899,-0.003802020573933611,0.0,0.0,0.0
1609054399755528450,6,1609054399755528450,0.0074203230990285965,0.008280564460252215,-0.0003970827411954089,1.0433849384550057e-05,0.00014894749786775985,0.00013359927623434825,0.9999999799285034,-0.0028163587798299035,0.020050141806988445,-0.003247089096917687,0.0,0.0,0.0
1609054399856309414,7,1609054399856309414,0.006566359789939474,0.007160077611993055,-0.0001244580474985412,1.611366819479835e-06,0.00012851501685932432,5.343553876692134e-06,0.9999999917263678,-0.007524882833762509,0.007574593050450842,0.0007347489291860058,0.0,0.0,0.0
1609054399956744909,8,1609054399956744909,0.005751281527389104,-3.852387825529162e-05,0.0002285855292399797,7.634022557786822e-06,0.00010671524110441268,0.00015375186528672174,0.9999999824569689,-0.009744849621015557,-0.027862076978102675,0.0034953265806964996,0.0,0.0,0.0
1609054400056328297,9,1609054400056328297,0.0028319204863266707,0.002626865455391848,0.00033485025307428747,8.80254870203753e-06,0.00012780278769961438,9.497642152803353e-05,0.9999999872842184,-0.022487626207992994,-0.005895755714690046,0.0029504141534816494,0.0,0.0,0.0
1609054400155579805,10,1609054400155579805,0.0024682187192941294,0.009197699253563715,0.000786620823101431,1.2468709609781935e-05,0.00013965410051420104,6.426738870719711e-05,0.9999999881054803,-0.01632349840042933,0.025211843547702666,0.004237446533795076,0.0,0.0,0.0
1609054400255939484,11,1609054400255939484,0.004011267310611795,0.005498029020246061,0.0004500932819934521,3.064087021547216e-05,0.0001356594882092491,4.852732180895621e-05,0.9999999891513667,-0.0030379631979482735,0.0009201359752155323,2.7450318083289786e-05,0.0,0.0,0.0
1609054400355528593,12,1609054400355528593,0.005343314693005699,0.006718028821701591,0.00044950181072196503,7.525583803448446e-06,0.00014432115541773672,5.3243613738288366e-05,0.9999999881399398,0.0037293289200146917,0.0065446781489573265,0.001426904915959073,0.0,0.0,0.0
1609054400456720829,13,1609054400456720829,0.005772137590521964,0.008249531686633676,0.000955297859217947,2.1092241595642354e-05,0.00013191646877667022,-7.5367123975327864e-06,0.9999999910481765,0.00332115159709082,0.011259500680715014,0.004570054876049512,0.0,0.0,0.0
1609054400555516958,14,1609054400555516958,0.007288526889036557,0.0073580760194830305,0.000770603219872046,1.2620801255685483e-05,0.00012725822014540933,6.855852385832239e-05,0.9999999894728905,0.008672762137657185,0.004512962302392649,0.0014070141366624577,0.0,0.0,0.0
1609054400656593084,15,1609054400656593084,0.007699940318782075,0.009857716105505475,0.0006561157843321911,2.3608271969727885e-05,0.00012977181945325012,-1.1872563063880312e-05,0.9999999912304782,0.006166282314071368,0.012675279205423613,0.000542635474634331,0.0,0.0,0.0
1609054400755426645,16,1609054400755426645,0.0072560605455835306,0.007619073425227909,0.0006276162742453688,2.440472632420094e-05,0.00013295894729029031,3.5177326462828266e-05,0.9999999902444364,0.0007086891350782569,-0.00010841183602750687,-2.4859183757964534e-05,0.0,0.0,0.0
1609054400856652737,17,1609054400856652737,0.0062094761539481826,0.0046338036080412065,0.0004904314551948766,2.0502583487718264e-05,0.00014475969080054914,7.56852814535477e-05,0.9999999864480007,-0.005361660843488458,-0.011577862071042498,-0.0006781237661072111,0.0,0.0,0.0
1609054400955452442,18,1609054400955452442,0.006803607632925987,0.00252927225150489,0.0006561161631031472,2.9950558905321942e-05,0.00015142161363540497,8.159834352517325e-05,0.9999999847580782,-0.0007270248580730203,-0.014998425035652024,0.0005698709899213613,0.0,0.0,0.0
1609054401055468082,19,1609054401055468082,0.006038796091149742,0.003871282584352211,0.0004990239980481886,-5.575123257982487e-06,0.0001373021521133578,8.153449552561308e-05,0.9999999872345751,-0.003721385975320205,-0.0033555101944965846,-0.00016172049865176828,0.0,0.0,0.0
1609054401155398130,20,1609054401155398130,0.00793017601142445,0.006810479723831395,0.00028633812155716355,9.436186238540197e-06,0.00012280879188298978,4.968272667194186e-06,0.999999992402131,0.006359379416317237,0.010258718539870674,-0.0009948304595014462,0.0,0.0,0.0
1609054401255383730,21,1609054401255383730,0.008273955940226615,0.0040492110098107065,0.0004518860798007336,2.3865561907846132e-05,0.00011348801329179724,-1.1589558001815713e-05,0.999999993208287,0.004385582634736544,-0.004185553684436821,0.0004837434566877044,0.0,0.0,0.0
1609054401355398417,22,1609054401355398417,0.007768770327038574,0.0028575771337899384,0.00038579487446083926,2.3810784495215623e-05,0.00014455235466935903,0.00011693426099735813,0.999999982432014,-0.0004448617195538817,-0.007203768026784433,0.0004845271830402748,0.0,0.0,0.0
1609054401456926346,23,1609054401456926346,0.007633698392271056,0.004470316402003127,0.00024386680023398696,-1.7312837890463477e-06,0.0001513808831895323,5.8607929825380574e-05,0.9999999868229631,-0.0011914042858187156,0.00223702426934287,-0.00017462354189295103,0.0,0.0,0.0
1609054401555819273,24,1609054401555819273,0.005389893778783857,0.008483956601084907,0.00022012525761040767,2.1254413985349345e-05,0.00012627074858201145,4.767922625784875e-05,0.9999999906653118,-0.010658608323189496,0.017846428132747373,0.0007455218093757863,0.0,0.0,0.0
1609054401655445337,25,1609054401655445337,0.005717026199537399,0.011254487219937541,0.0001493013443681126,-3.2557209031080934e-06,0.00011411881049855576,7.119583488180843e-05,0.999999990948717,-0.004841670094275906,0.022799241875353447,8.298473104428959e-05,0.0,0.0,0.0
1609054401756238222,26,1609054401756238222,0.0053638429141429815,0.007684856505669824,0.00020688314826606681,2.2716537993212373e-06,0.00013318754852115325,3.883157272119344e-05,0.9999999903740043,-0.005119884857114071,0.0008807548641786081,0.0007853931559629253,0.0,0.0,0.0
1609054401855389595,27,1609054401855389595,0.0043345104454753725,0.009154512041944998,0.000586588388066608,1.534789257224054e-05,0.00013605712017436796,-1.4484180558275224e-05,0.9999999905215469,-0.008424430716347514,0.007391284440396311,0.0030679576982413025,0.0,0.0,0.0
1609054401955377102,28,1609054401955377102,0.0033958480449949044,0.0074319966344904235,0.00031300238248763656,1.766548280217505e-06,0.00012899608076849048,6.437052691435557e-05,0.9999999896066539,-0.009361120307259652,-0.00012282542272354542,7.485358105314933e-05,0.0,0.0,0.0
1609054402055354118,29,1609054402055354118,0.005683681100900072,0.00818637490429455,0.000533184834784773,8.313361766066739e-06,0.0001351408032308719,5.0998998773449784e-05,0.9999999895334682,0.005186824367216561,0.00328748104054777,0.0019384936951024729,0.0,0.0,0.0
1609054402156524658,30,1609054402156524658,0.005649335295650731,0.007097539127921046,0.00085113226091963,2.282733902664436e-05,0.0001062698585463128,1.604413001581292e-05,0.999999993964099,0.0031124448379950278,-0.002047782639625962,0.0040215200935765265,0.0,0.0,0.0
1609054402256091356,31,1609054402256091356,0.006442202285324012,0.007862206949393564,0.0008091176641773061,1.4168212502907817e-05,0.00011867196936041413,1.9964649557468083e-05,0.99999999265881,0.0048069976255365205,0.0031970882196483623,0.002562485315569982,0.0,0.0,0.0
1609054402355696678,32,1609054402355696678,0.006330653446856158,0.008157025753802291,0.0008006706678481639,1.8165997436222378e-05,0.00011608162072698053,1.1750619433940994e-05,0.9999999930284793,0.0018887172559282823,0.004089946239663076,0.0012296639591034154,0.0,0.0,0.0
1609054402455352306,33,1609054402455352306,0.0066534520293630075,0.010418280860848084,0.00046966813594056503,-1.2166941409866609e-06,0.00012891060857438138,-3.3502906458337196e-05,0.9999999911290552,0.0019879872103906264,0.012944412364889675,-0.0016177506178730674,0.0,0.0,0.0
1609054402556100845,34,1609054402556100845,0.005669983205553426,0.010130755766540211,0.0003851997005094381,-8.588894054169987e-07,0.0001274727145150599,1.8162116792234632e-05,0.9999999917100431,-0.0034561134991180787,0.009028657933754809,-0.0005110379996510028,0.0,0.0,0.0
1609054402655711651,35,1609054402655711651,0.005472861331581089,0.006586411918129552,0.0004009738450989835,2.4357835307010254e-05,0.00014116466508696444,-2.5327998099451754e-05,0.9999999894188516,-0.002745110301120214,-0.006506305880980105,0.00025118997196366816,0.0,0.0,0.0
1609054402755254269,36,1609054402755254269,0.005190003504083218,0.010432373624287757,0.0003938584091443675,1.077305259581702e-05,0.0001085237808753412,4.889515857560891e-06,0.9999999940413002,-0.002975890332564463,0.01080137984624413,0.000614836474208167,0.0,0.0,0.0
1609054402855617285,37,1609054402855617285,0.004847024685926931,0.010420940357322482,0.000525766062974607,5.58022016955691e-06,0.00011927392075624219,3.605437428720002e-05,0.9999999922213262,-0.003644937761538823,0.007648567544793993,0.001335764054154631,0.0,0.0,0.0
1609054402955672264,38,1609054402955672264,0.006313562454246873,0.009183511244291852,0.00072135634145553,1.9824285487342597e-05,0.0001262120789101476,3.801810937578512e-05,0.999999991116055,0.004377981751914151,0.00026849342909310986,0.0016207191000368261,0.0,0.0,0.0
1609054403055336952,39,1609054403055336952,0.007119036896914741,0.007370104835400273,0.0004121773551968429,-1.1586376148701591e-06,0.00015132435514356895,2.9640034206501127e-05,0.9999999881105213,0.005712828561706175,-0.005433843316657565,-0.0012495250596247997,0.0,0.0,0.0
1609054403156122684,40,1609054403156122684,0.006939328041643864,0.007976983956488303,0.0006032429179565212,1.7597334490487426e-05,0.00014105563938282325,6.280337817876565e-05,0.9999999879246763,0.002467871285100475,-0.000534713929193859,0.001119301011923438,0.0,0.0,0.0
1609054403256489038,41,1609054403256489038,0.006926344162075834,0.007663086759417874,0.000921723495054944,2.262502170567314e-05,0.0001239756444761909,2.7019229184823783e-06,0.9999999920554111,0.0012369606811270392,-0.0015117186981329328,0.003269271751469528,0.0,0.0,0.0
1609054403355311155,42,1609054403355311155,0.006972000170191434,0.0052443811686731946,0.0009589187709460428,1.9023628674132525e-05,0.00012234519296411194,4.813440749484712e-05,0.9999999911764039,0.0009394223875761712,-0.009138560806443274,0.0025975644781726388,0.0,0.0,0.0
1609054403456447840,43,1609054403456447840,0.007507518107970985,0.007800043909464207,0.0008236588621470634,1.4232191091584837e-05,0.00011450813814637644,4.123839010363127e-05,0.9999999924923496,0.002581470812961696,0.0039516477643324124,0.000572259113092873,0.0,0.0,0.0
1609054403556455612,44,1609054403556455612,0.008154889382858929,0.007108237034548438,0.0004970372515229277,-1.0785114262419546e-07,0.00012762924397569542,9.321580834556617e-06,0.9999999918119227,0.003913123073816766,0.0010945162578591366,-0.0012138804460122515,0.0,0.0,0.0
1609054403655267477,45,1609054403655267477,0.008017159747740086,0.007039254328976612,0.0005264167767390268,7.813548088923467e-06,0.00013754984705446457,-2.7187352107150325e-06,0.9999999905057847,0.001430357099569947,0.002060925906005991,4.659317589103583e-05,0.0,0.0,0.0
1609054403755639791,46,1609054403755639791,0.009484320338656262,0.008988020019643017,0.000926484533824176,1.0378339905579802e-05,0.00014265883611789995,2.9031091675875096e-05,0.999999989348957,0.007009134551239462,0.008703028910783069,0.002946624139150419,0.0,0.0,0.0
1609054403856770992,47,1609054403856770992,0.008717402809636236,0.009637334327016812,0.0006831544887324436,1.944030997144449e-06,0.0001421676164753423,1.9133402235451443e-05,0.9999999897092366,0.00024650038127392495,0.009653226153795727,0.00018797177412769022,0.0,0.0,0.0
1609054403955263376,48,1609054403955263376,0.008473666052578764,0.008008753458018679,0.0006246751852604067,1.1463296352480987e-05,0.0001308881189001631,3.072461053757842e-05,0.9999999908964304,-0.0007834374307968782,0.0026301433287391693,-0.0002555792620818941,0.0,0.0,0.0
1609054404055248737,49,1609054404055248737,0.007416765737682546,0.006364172820316773,0.0006509685323428739,2.3139273581667455e-05,0.00012801827737365335,3.270979813569277e-05,0.9999999910029669,-0.005490478611981425,-0.003795089698299913,0.0008090730519700759,0.0,0.0,0.0
1609054404156821489,50,1609054404156821489,0.007222936255373859,0.006429291826701069,0.0005648289343054308,2.414955747199891e-06,0.00011674901712090259,6.917793862598127e-06,0.9999999931579742,-0.004238280090915459,-0.001957582223676142,0.00042739840465268154,0.0,0.0,0.0
1609054404256356001,51,1609054404256356001,0.00824910350749557,0.006931780285057651,0.0006518952060530337,1.2317210554928902e-05,0.0001473292489056403,4.988759716645655e-05,0.9999999878267863,0.001335116080197791,0.0022142808193449525,0.0009167214095944786,0.0,0.0,0.0
1609054404355493307,52,1609054404355493307,0.009694608374944857,0.007576685166627118,0.0004169880226108431,9.67408999061335e-06,0.00011971090592682724,3.209769766506496e-06,0.9999999927826867,0.006797701826164676,0.004281992204817099,-0.00026530567275251295,0.0,0.0,0.0
1609054404455118656,53,1609054404455118656,0.008455161490888782,0.007804466495344305,0.0006929649662201279,1.9428207047369176e-05,0.0001385814173721763,2.2758373593302373e-05,0.9999999899498787,-0.0017200592496613562,0.0041920393517238435,0.002327568683002316,0.0,0.0,0.0
1609054404556289911,54,1609054404556289911,0.00823236714553164,0.007607458834054613,0.001126288540256914,1.701640658740842e-05,0.00012141901411428095,1.5439347666765185e-05,0.9999999923647277,-0.0022626251460084587,0.0021159543724575854,0.00416364695360181,0.0,0.0,0.0
1609054404655153513,55,1609054404655153513,0.009005170586549559,0.008266251805159636,0.0009480708515065055,1.755590184904912e-05,0.0001429318486440755,4.044591369761418e-05,0.9999999888131844,0.001607825713016501,0.005488499651447005,0.0006419301887057513,0.0,0.0,0.0
1609054404756313801,56,1609054404756313801,0.007648837521109364,0.010560024094958913,0.0007249942513790814,-1.0733774398834411e-06,0.00012460853180511441,7.444831546337679e-05,0.9999999894644862,-0.005513146048327719,0.01247068256902404,-0.0007496976711045297,0.0,0.0,0.0
1609054404855164766,57,1609054404855164766,0.007252478002381649,0.010184180744425678,0.0005366836686237727,1.1070890440709418e-05,0.00012833971044845315,3.982547847643788e-05,0.9999999909101237,-0.005084715060151497,0.008078125641805711,-0.0012009317152643817,0.0,0.0,0.0
1609054404956341267,58,1609054404956341267,0.009081543857037239,0.008959897647642278,0.0005699763324865891,-1.5509452419145999e-07,0.00014152380493020694,5.01650435574565e-05,0.999999988727209,0.004288521513042717,0.0020917387017961716,8.396013301498976e-05,0.0,0.0,0.0
1609054405055164814,59,1609054405055164814,0.008693860873747036,0.009258145193892696,0.0005520176529933887,7.825265822614104e-06,0.00013489334160565126,3.996043007751724e-06,0.999999990863272,0.0004713573784162332,0.004559188789543914,0.00016913975667814157,0.0,0.0,0.0
1609054405155173779,60,1609054405155173779,0.008148304356894873,0.00902896457009403,0.0006495090707135016,4.409145459091547e-06,0.00014005051423247305,6.404897263914856e-05,0.9999999881320513,-0.0017832691205367014,0.003417098593095012,0.0016662274290096288,0.0,0.0,0.0
1609054405255558491,61,1609054405255558491,0.007431964142973159,0.009264931839327065,0.0007992050484436741,1.9376629544669225e-05,0.0001337987911825395,2.336799130912514e-05,0.9999999905881638,-0.003869497122079264,0.004055612687509961,0.0022580218266077118,0.0,0.0,0.0
1609054405356301785,62,1609054405356301785,0.009396216561804704,0.009128998664909571,0.0007815461968590813,4.817682774198481e-06,0.00013444992760573566,3.671939209021528e-05,0.9999999902758276,0.005860526763596681,0.003205077882285335,0.0012179304901534912,0.0,0.0,0.0
1609054405455909729,63,1609054405455909729,0.008960488006883854,0.009112533939999433,0.0007330659883111657,5.113134840151494e-06,0.0001406069351321187,3.344404716350842e-05,0.9999999895425016,0.0015646125783102824,0.0033456175742162643,0.0008445367966779272,0.0,0.0,0.0
1609054405556370497,64,1609054405556370497,0.009643101617025229,0.010946542718174636,0.000956151869474945,6.514669741898323e-06,0.00014908436850076103,2.1006358516238536e-05,0.9999999886450519,0.003864171951754059,0.010198438264309023,0.0021256009209999487,0.0,0.0,0.0
1609054405655131817,65,1609054405655131817,0.0081266805753299,0.010179719854268037,0.0008593065722031977,1.4856204831772657e-05,0.00013714566661418318,3.055246935199031e-05,0.9999999900184334,-0.004157505594301334,0.005237432687895681,0.00016247354230698795,0.0,0.0,0.0
1609054405755127430,66,1609054405755127430,0.006739572331974084,0.008576924204675755,0.0008457342566553276,9.78756309833449e-06,0.000127364727282932,3.179710559419545e-05,0.9999999913356671,-0.008196149219325394,-0.0010946589873529824,0.0003500640931261695,0.0,0.0,0.0
1609054405855434895,67,1609054405855434895,0.0075535071301889465,0.008461203784878121,0.0006016634092271531,-2.2290779251692324e-06,0.0001168156381777177,4.2902696372876955e-05,0.9999999922542282,-0.0010904973589478126,0.00020759067112529326,-0.0013651638226654713,0.0,0.0,0.0
1609054405956177711,68,1609054405956177711,0.008241094406047271,0.007992774363490515,0.00044156268525257246,4.240659371681526e-06,0.0001258036946056649,9.564979819821735e-07,0.9999999920772458,0.0017968450204647575,0.0008225955327280319,-0.0018639853569753465,0.0,0.0,0.0
1609054406054967880,69,1609054406054967880,0.008487943201327775,0.008203366244320645,0.00042621828657603945,4.949901710122584e-06,0.00014351222396542882,6.214018290149939e-05,0.9999999877591484,0.0017932112854786785,0.0023813912801370647,-0.0009843224964533378,0.0,0.0,0.0
1609054406155009985,70,1609054406155009985,0.009230948233855181,0.0074122124264788146,0.0005266243096884125,1.518272298347558e-05,0.00013558096781408408,7.99294161712943e-06,0.9999999906616783,0.0041002927292956345,-0.0004165643839877764,0.001206624053619286,0.0,0.0,0.0
1609054406255025864,71,1609054406255025864,0.010021058544660058,0.009016100097363151,0.000990440694247585,8.072300820419857e-06,0.00014727810668043817,1.4118498170978581e-05,0.9999999890223114,0.005927278950315528,0.006933952010758068,0.0040539342795174425,0.0,0.0,0.0
1609054406355029821,72,1609054406355029821,0.010896349251526093,0.010237619048253042,0.0009867361482625684,9.39249444034928e-06,0.00014205686758963007,-1.652591020390944e-05,0.9999999897292394,0.00716222551118882,0.010212159003214184,0.0020105966730046237,0.0,0.0,0.0
1609054406455053091,73,1609054406455053091,0.009813908724497302,0.008993588599924976,0.0007789112043733369,4.977264997074188e-06,0.00013768260133211027,3.32886529442891e-05,0.9999999899552755,2.964125995915355e-06,0.0033770565548859495,0.00029760602733356874,0.0,0.0,0.0
1609054406555042982,74,1609054406555042982,0.00987128386572152,0.006612523223727212,0.0005374306019670313,1.0256049941873343e-05,0.00014132789973620756,2.689665451224202e-05,0.9999999895988827,-1.4742430179436983e-05,-0.0052026578863976726,-0.0013572559137674757,0.0,0.0,0.0
1609054406656222343,75,1609054406656222343,0.007450716904321179,0.008094385511024302,0.0007267772320217831,7.611991293609287e-06,0.00013155422056660858,1.8505960534737964e-05,0.9999999911465153,-0.011072395239920296,0.0028300685802960654,0.0013663553841120706,0.0,0.0,0.0
1609054406756243944,76,1609054406756243944,0.007553228537854739,0.008790979231831945,0.0008610186481156899,6.102770634739749e-06,0.00013533366628908132,2.915479525920514e-05,0.999999990398755,-0.005896175088967392,0.005579889140651581,0.0018449559939621206,0.0,0.0,0.0
1609054406856206894,77,1609054406856206894,0.00834678219028622,0.008993379227472929,0.0012071977208477347,2.0888019183517446e-05,0.00014031240812204806,6.63444862124474e-05,0.9999999877372424,2.246375956502667e-05,0.005373390681980169,0.003393846118838849,0.0,0.0,0.0
1609054406955010891,78,1609054406955010891,0.009460892334095116,0.009038206626113337,0.0008086204373524286,1.342321149583318e-05,0.00013694476386266454,-1.4294847523492788e-05,0.999999990430781,0.004691098093305462,0.005361085697133657,-0.0005270321364081111,0.0,0.0,0.0
1609054407054937840,79,1609054407054937840,0.00938134492377155,0.008684220339135457,0.000680954564631667,5.76200035401575e-07,0.00013427915876163153,3.220335816547309e-05,0.9999999904658377,0.001979835552386773,0.003114417294671669,-0.0007904382312259632,0.0,0.0,0.0
1609054407155690908,80,1609054407155690908,0.009980993259884288,0.01005784433292488,0.0008333576488907679,1.5902073127748436e-05,0.00016074150372816446,-1.0777935032662834e-05,0.9999999868965419,0.002913409621226837,0.007469265720736943,0.0009151763873381599,0.0,0.0,0.0
1609054407256092072,81,1609054407256092072,0.008874349247496492,0.008988017880199534,0.0006275933167832665,9.45181490618113e-06,0.00015180252025140078,2.3298530045740334e-05,0.9999999881618951,-0.003216870064747026,0.0020840206515058404,-0.0003165038946665908,0.0,0.0,0.0
1609054407354920149,82,1609054407354920149,0.006794402457152862,0.008068160772824554,0.0007434098533972833,8.492378456316557e-06,0.00013620648805352792,4.7604164608085e-05,0.9999999895547342,-0.010883592991951276,-6.930535211243857e-05,0.000794607145006788,0.0,0.0,0.0
1609054407456511021,83,1609054407456511021,0.006087104669343601,0.006979230215866532,0.0008381973894101009,1.954672461310921e-05,0.00012524863601328805,3.136863252663989e-05,0.999999991473333,-0.009120807777285729,-0.0034864016476160793,0.0011666760077495624,0.0,0.0,0.0
1609054407556129932,84,1609054407556129932,0.0067894117964589365,0.008539532120206233,0.0009002855705223702,2.5720445417517077e-06,0.00011796110214388123,1.864408790767733e-05,0.9999999928654562,-0.00208070902621898,0.005010237337362368,0.0009006357654850755,0.0,0.0,0.0
1609054407655356169,85,1609054407655356169,0.007044653074351515,0.01055706432665281,0.0009620989727906001,1.2172516952840479e-05,0.00012944981396021004,6.691315973899069e-05,0.9999999893085773,-4.8856745836912095e-05,0.012462480475849799,0.0010481734898486793,0.0,0.0,0.0
1609054407754931927,86,1609054407754931927,0.007693822990361817,0.009218095804452115,0.0006216289587926958,1.0211425972806203e-05,0.00013585945555769798,1.3616991028806737e-05,0.9999999906262312,0.002707082968106116,0.005131962339421136,-0.00204109537092847,0.0,0.0,0.0
1609054407855732918,87,1609054407855732918,0.009020697446590738,0.010307160110773855,0.0007563039550724887,8.820675850534822e-06,0.0001456317648720284,2.8405180962228275e-05,0.9999999889533396,0.006883233712741867,0.00816038035810234,0.0006285260198786898,0.0,0.0,0.0
1609054407954940081,88,1609054407954940081,0.009316470037328389,0.009205908775516108,0.0007467712893853835,6.673348725688578e-06,0.00014109924493199984,2.895205252571294e-05,0.9999999896040976,0.005746265162695519,0.0028056734889906395,0.0009286599006243993,0.0,0.0,0.0
1609054408055317402,89,1609054408055317402,0.007877476003805232,0.008816530666674644,0.0008325657855153105,9.377963370433594e-06,0.00012735625897190497,1.790709765674279e-05,0.9999999916858598,-0.002268371259942682,0.0019057159159040608,0.001114514362365164,0.0,0.0,0.0
1609054408155665159,90,1609054408155665159,0.008458328119830756,0.0072475802627431475,0.0008690860770429392,6.7809794040638555e-06,0.0001244385118946721,4.7115576637325236e-05,0.9999999911245718,0.0011985180923996261,-0.003213833906083721,0.0009935188006189024,0.0,0.0,0.0
1609054408255283833,91,1609054408255283833,0.00868684449474324,0.006471739878143742,0.0008226543188377879,9.321910322765217e-06,0.00013370813778672118,3.95755699166694e-05,0.9999999902344784,0.0013730384000559333,-0.0040993690925668754,9.658373528106942e-05,0.0,0.0,0.0
1609054408355318546,92,1609054408355318546,0.009431701691106789,0.008691428212609811,0.0007468768631562537,9.302313935319066e-06,0.0001388147485458947,4.0975749824591794e-05,0.9999999894824343,0.003846863087506467,0.006363220885705938,0.00029466028893597245,0.0,0.0,0.0
1609054408456071377,93,1609054408456071377,0.007194062463119455,0.007856192789150127,0.0007591755327481583,1.1035145500573182e-05,0.0001497990248044987,3.7972912725828384e-05,0.9999999879982423,-0.008323394486715336,0.002348866790277572,0.0010177513504013307,0.0,0.0,0.0
1609054408555287600,94,1609054408555287600,0.006832401533145323,0.007929601792361036,0.0005839069084761508,-2.590722692557563e-06,0.00014705155392879122,1.0438317901890055e-05,0.9999999891300593,-0.006069299927750485,0.003171023202098445,-0.0001319370348742278,0.0,0.0,0.0
1609054408656420946,95,1609054408656420946,0.007784837210817089,0.007005741258065588,0.0006641993614948409,1.2387677875592622e-05,0.00013405033165862838,1.8613501768749068e-05,0.9999999907652698,0.0009787692522808316,-0.0002076342024976527,0.0012313936694775176,0.0,0.0,0.0
1609054408755984783,96,1609054408755984783,0.008439106616534237,0.007834135026923383,0.0008698100464979766,4.616709465357537e-06,0.00012413362918228186,5.430439534375974e-05,0.9999999908102543,0.003119042555830155,0.004602835162328975,0.0020522641530964867,0.0,0.0,0.0
1609054408854767323,97,1609054408854767323,0.00851484743184659,0.008858911171281061,0.0009649020124518491,1.3221140622103515e-05,0.00013495237895001813,5.125585254127303e-05,0.9999999894929211,0.0017954432770505128,0.007742378906119323,0.0014016127385154207,0.0,0.0,0.0
1609054408955200911,98,1609054408955200911,0.009413089449158689,0.009020238557587578,0.00098317169497993,1.529574876935474e-05,0.0001430351112427171,4.125184233140327e-05,0.9999999888026146,0.00504955120642606,0.00637052436885396,0.0012294370326696106,0.0,0.0,0.0
1609054409054822683,99,1609054409054822683,0.008770569668004097,0.009897238794845307,0.0011725163741015282,2.2474826401073507e-05,0.0001442801284199034,6.270383701046056e-05,0.9999999873731508,-0.0001254424676264904,0.009334610073364705,0.0025007711553231447,0.0,0.0,0.0
1609054409156023741,100,1609054409156023741,0.007530107841144354,0.00878030333837011,0.001217014751112297,1.125258637653566e-05,0.00014483253646846257,5.669025168010894e-05,0.9999999878415384,-0.004977696890417331,0.004146012733207421,0.0021633540845953166,0.0,0.0,0.0
1609054409255630016,101,1609054409255630016,0.006225548631350776,0.00923367993295263,0.0010390062811773224,4.487281261752605e-06,0.000125588952082926,7.108520509270488e-05,0.9999999895770592,-0.008553260035373142,0.0050782790035224495,0.00032099866935115465,0.0,0.0,0.0
1609054409355265141,102,1609054409355265141,0.006316874733927107,0.009093394347505925,0.0008602064279603334,1.2793595174430042e-05,0.00011928258556827928,2.9076543090169018e-05,0.9999999923812444,-0.004573310412607286,0.004340958448244201,-0.0008456573001394881,0.0,0.0,0.0
1609054409454890490,103,1609054409454890490,0.005622070576746518,0.008158609871155352,0.000748217170170123,1.4057938476193267e-05,0.00011118088699529837,5.535409471078366e-05,0.9999999921885275,-0.005852827523271738,0.0011179046023710652,-0.0009716355179261375,0.0,0.0,0.0
1609054409555993795,104,1609054409555993795,0.006477252736168366,0.009857199235115867,0.0006535274716144399,8.772754811821462e-06,0.00013941026413464148,4.744931792659303e-05,0.9999999891181623,-9.619661929486517e-05,0.0082696565592027,-0.0011451087195772243,0.0,0.0,0.0
1609054409655939102,105,1609054409655939102,0.0075058273871358465,0.010239421247990562,0.0008646859805240469,8.408669611434597e-06,0.00014031481060274465,6.005869759261865e-05,0.999999988316973,0.00424252741826737,0.007076097956974358,0.0011638451181970033,0.0,0.0,0.0
1609054409755505800,106,1609054409755505800,0.007630270520236251,0.009602968732581065,0.0009946795567334142,8.109760346712246e-06,0.0001357862872467209,4.964049283424043e-05,0.9999999895160409,0.0030907431848074293,0.0038929055854484665,0.001789414340472173,0.0,0.0,0.0
1609054409856244087,107,1609054409856244087,0.009539554966239979,0.009135572829714469,0.0011712897123945401,1.6463734577050048e-05,0.00013460593541136207,6.648146372530276e-05,0.9999999885951733,0.009637345596200024,0.0015878305048914515,0.0015827399176577832,0.0,0.0,0.0
1609054409954710007,108,1609054409954710007,0.009713048922806018,0.010113956070644166,0.0011939359323178906,1.6355271284701295e-05,0.00012381976436178952,2.5467289126536056e-05,0.9999999918762658,0.006196329499015137,0.0060789166232799955,0.0008167254405748562,0.0,0.0,0.0
1609054410054727793,109,1609054410054727793,0.009589425640377878,0.010745121943565004,0.0009584538220940305,1.9540687649577507e-05,0.00013745365408301561,1.905126918904216e-05,0.9999999901808234,0.0026820942893935073,0.007520817930002951,-0.0008779732067917127,0.0,0.0,0.0
1609054410154718637,110,1609054410154718637,0.007091911704237526,0.011055863771535654,0.0005082102506864261,8.489076357232223e-06,0.00013625980178042134,6.1410072149103e-05,0.9999999887949734,-0.009396151880815443,0.00726609767221821,-0.0027951539738172142,0.0,0.0,0.0
1609054410254682064,111,1609054410254682064,0.009069229329208136,0.012327403831327827,0.0010046701737685155,3.237832752227885e-05,0.00014066807160254826,7.817324264896659e-06,0.9999999895514841,0.0027997491132730618,0.009666514760841731,0.002432428933945996,0.0,0.0,0.0
1609054410354738951,112,1609054410354738951,0.007844498014873236,0.01236785582112169,0.0010253046034271495,2.1837693218791416e-06,0.00013998602858023018,5.55836272140722e-05,0.9999999886547717,-0.003275064149093156,0.008060963282369856,0.0015857440344992262,0.0,0.0,0.0
1609054410454747200,113,1609054410454747200,0.007240738460737968,0.009896176367693486,0.000864075563809378,9.56799998159508e-06,0.0001273540342132062,4.6675173926221566e-05,0.9999999907553853,-0.003885431758277544,-0.002045618705615971,-0.00013686030788495596,0.0,0.0,0.0
1609054410554725409,114,1609054410554725409,0.006902205423816189,0.00980460796694899,0.0006869709872076102,1.0006017151788438e-05,0.00012158051976135468,2.7642035151340566e-05,0.9999999921769569,-0.003672982698077529,-0.0007031462458128863,-0.0012274212894089547,0.0,0.0,0.0
1609054410655102015,115,1609054410655102015,0.00677814359909268,0.00963577135315111,0.000650444327235459,7.758592033300938e-06,0.00011723909023583064,4.0045052126298544e-05,0.9999999922955657,-0.0030134846307683905,0.0001403216366614383,-0.00014260312771475006,0.0,0.0,0.0
1609054410754685879,116,1609054410754685879,0.006924713603694379,0.008875035120468234,0.0008115130638730402,1.3896673543924919e-05,0.00013928158964723558,3.765670892046461e-05,0.9999999894947147,-0.0014672017657431837,-0.0015705000088032256,0.0012533916100329538,0.0,0.0,0.0
1609054410855473995,117,1609054410855473995,0.006043190635327937,0.009995677387461908,0.0008386924118644937,1.9321483392145058e-05,0.0001358183079587898,4.480476604145899e-05,0.9999999895862683,-0.004805946367806785,0.00299555445758699,0.0011278415328230419,0.0,0.0,0.0
1609054410956260204,118,1609054410956260204,0.006371556560291177,0.010781413485043363,0.0007780566545340755,5.165341853922615e-06,0.00013386629465690224,5.393922543366163e-05,0.9999999895718142,-0.0012590536088468189,0.005083091783607399,0.0004890368664405408,0.0,0.0,0.0
1609054411054733753,119,1609054411054733753,0.005862947447438109,0.010236764002952906,0.0009401872639582038,1.2854281339078967e-05,0.00013127440236190187,5.3239936197278476e-05,0.9999999898836208,-0.0028217313687648633,0.0025638520407084186,0.0015996533455474478,0.0,0.0,0.0
1609054411154719591,120,1609054411154719591,0.0049011174614456724,0.009281606551077218,0.0008871255410651201,1.2484917282102642e-05,0.00011236589664923412,1.3085298930254605e-05,0.999999993523371,-0.005348130732156629,-0.001045968743785225,0.0008509770774183144,0.0,0.0,0.0
1609054411254722595,121,1609054411254722595,0.006089312204462418,0.010515876839432269,0.0008872080556440289,1.3600823661341829e-05,0.0001276379774604471,4.311238630727537e-05,0.9999999908324111,0.0012006100810664508,0.004882857743275747,-0.00035243449292623585,0.0,0.0,0.0
1609054411354681969,122,1609054411354681969,0.0076282666277377635,0.008916237582233932,0.0011033757815204052,2.9828561054685254e-05,0.00014290927079637893,1.7635019061750476e-05,0.9999999891880693,0.007149231690240231,-0.0015861164668027053,0.0009714448659724837,0.0,0.0,0.0
1609054411454619169,123,1609054411454619169,0.007568710748940838,0.008192498806829736,0.0009920363374641742,2.0526758654005424e-05,0.00014862365866996906,3.986100663798389e-05,0.9999999879503476,0.004292837646390105,-0.002053664017201989,0.000343663364423113,0.0,0.0,0.0
1609054411555783987,124,1609054411555783987,0.008570726654049295,0.006739775429869888,0.0012838698458133599,2.0058980901034995e-05,0.0001359728374152048,3.930585492861657e-05,0.999999989782005,0.007088063953993613,-0.004747079905901425,0.0026002508554128596,0.0,0.0,0.0
1609054411655022144,125,1609054411655022144,0.007572544548174215,0.00917544706907092,0.0011115350817972193,1.3649656025459481e-05,0.00011729636523413108,5.0967728002902185e-05,0.9999999917287379,-0.00010361496881457471,0.0065483439062244495,0.001002691235750946,0.0,0.0,0.0
1609054411755060673,126,1609054411755060673,0.006637531031275203,0.009779895584904615,0.0015075327646351005,3.462328966120542e-05,0.00014721123473102637,2.5659588503119293e-05,0.9999999882358006,-0.00472072065551808,0.0064002865283261995,0.003451262298484676,0.0,0.0,0.0
1609054411854623318,127,1609054411854623318,0.008008601431895338,0.012021357238099531,0.0012728472853458692,1.3034513068226926e-05,0.0001323143763085833,3.7520493589555004e-05,0.9999999904575777,0.0022546528599329176,0.012950888838446528,2.002837354733245e-05,0.0,0.0,0.0
1609054411954984426,128,1609054411954984426,0.00892414584502418,0.01055834741489872,0.0009525822018204555,1.4167342841330719e-05,0.0001367494119408984,2.628469175682069e-05,0.9999999902039676,0.004553718317700675,0.004135907500033006,-0.002392730660455901,0.0,0.0,0.0
1609054412055382252,129,1609054412055382252,0.008465634166991157,0.009986148298420884,0.0007852418446176703,1.1230654886114678e-05,0.0001455208517298133,5.124724514156985e-05,0.9999999880356041,0.0007006185648996159,0.0025272309039049874,-0.0017508299726588582,0.0,0.0,0.0
1609054412155401230,130,1609054412155401230,0.006629390729331686,0.009913222481489549,0.0008308639764788389,1.390285624178038e-05,0.00011885575610672947,4.3354589129018964e-05,0.9999999919001672,-0.0075339783466235825,0.0028739245425922944,0.00039511491099456734,0.0,0.0,0.0
1609054412255767584,131,1609054412255767584,0.008367717854684455,0.010264946897544359,0.0009457962421673107,8.688928285805702e-06,0.00012543405089646196,5.057882231386009e-05,0.9999999908162596,0.0032408259123582125,0.0046338339171085674,0.0018415077359607837,0.0,0.0,0.0
1609054412354541540,132,1609054412354541540,0.010167636212431719,0.009721752521082126,0.00100678252281509,7.879082974880034e-06,0.00012692611361770443,2.1467768447215345e-05,0.9999999916833755,0.009123939809072732,0.00238504872821545,0.0007449443920426609,0.0,0.0,0.0
1609054412456123590,133,1609054412456123590,0.009787452563888797,0.005945829848720521,0.001025963905363938,2.1348711709702385e-05,0.0001552282738929331,-1.7364959122773382e-05,0.9999999875734036,0.003455066331051679,-0.010361866140974977,0.0011022131558597983,0.0,0.0,0.0
1609054412555733204,134,1609054412555733204,0.009032677213870995,0.006842880808828113,0.0010555399262895252,2.1706099277564138e-05,0.00015849437658972817,3.661022142089475e-05,0.9999999865340015,-0.00151104318781076,-0.0025114341772998205,0.0007567419427976932,0.0,0.0,0.0
1609054412654590368,135,1609054412654590368,0.009145860873541365,0.008423547517410207,0.0009693113527642963,2.1795190347244708e-05,0.0001424923198099331,1.4652898017925714e-05,0.999999989503067,-0.00022662709162973144,0.005241481943212667,0.0005218257397300311,0.0,0.0,0.0
1609054412754562140,136,1609054412754562140,0.008455914600500047,0.009208445558954502,0.0009803623504137569,1.8434253553150918e-05,0.00014004571977662404,2.8497140989659833e-05,0.9999999896176103,-0.0028816746756785173,0.007179286774325394,0.0010844485202826611,0.0,0.0,0.0
1609054412854594707,137,1609054412854594707,0.007879008415462014,0.01078447517650031,0.0009223202604041494,1.1634960318708047e-05,0.00012115327497304917,3.8908579238039885e-05,0.9999999918362835,-0.004212563864613597,0.011825167450005607,0.000558810763784175,0.0,0.0,0.0
1609054412954909801,138,1609054412954909801,0.006947743729838028,0.011506470168080396,0.0007966955366733547,6.7148606303745186e-06,0.00011026587712485146,2.546285850549404e-05,0.999999993573961,-0.006318869657830174,0.012139342144474643,-1.0848801438268331e-05,0.0,0.0,0.0
1609054413054492950,139,1609054413054492950,0.006348913259829445,0.012162227399860167,0.0009896911403376371,2.0762737398467166e-05,0.0001347561931241099,3.681883804163103e-05,0.9999999900269917,-0.006594844568253183,0.011571969968055493,0.0015967510469782182,0.0,0.0,0.0
1609054413154519081,140,1609054413154519081,0.007777153602283447,0.013536270016562737,0.0010594163672193238,1.040267978506831e-05,0.0001530207675526494,6.0529368995787263e-05,0.9999999864062783,0.0023331514516796107,0.01356634655926599,0.0018172494011228797,0.0,0.0,0.0
1609054413254467010,141,1609054413254467010,0.007673092995205625,0.013985734183305005,0.001022904871955721,9.193427864406121e-06,0.0001404920970301155,2.31731985532767e-05,0.9999999898201932,0.0011473952749382927,0.011800124532365088,0.0010665187620455849,0.0,0.0,0.0
1609054413354453802,142,1609054413354453802,0.00793978168968054,0.01230060383563803,0.0010492142169736336,1.4542187644458325e-05,0.00012585475911316323,3.5535951085684395e-05,0.9999999913431159,0.002252587766920784,0.003520961858660075,0.0012544466965293312,0.0,0.0,0.0
1609054413454449892,143,1609054413454449892,0.008952494644833353,0.01240409361827541,0.0009636290085611786,3.603465308612959e-06,0.00012745199452621176,5.280640580976301e-05,0.9999999904772096,0.005967073976787321,0.00446828116828879,0.00032542967969551256,0.0,0.0,0.0
1609054413554870367,144,1609054413554870367,0.0082674947228202,0.011103686727771886,0.000761835614639294,5.221189186398751e-06,0.00013832087807002206,2.23344967457225e-05,0.9999999901705874,0.0005841397846022729,0.0007623302669973776,-0.001272645655805166,0.0,0.0,0.0
1609054413656095028,145,1609054413656095028,0.007224136809028053,0.012866895479724463,0.0006867570674314868,3.222627375542456e-06,0.00013308845027149677,4.496824279931057e-05,0.9999999901274327,-0.004894476843569734,0.008304117859522397,-0.0009179605577697406,0.0,0.0,0.0
1609054413754509449,146,1609054413754509449,0.006555237784013518,0.013333873133090975,0.000771777889083142,1.0556099644397482e-05,0.00013671131484837187,5.4499103264013356e-05,0.9999999891141809,-0.005950052627576911,0.008189875682945914,0.00047823584086499377,0.0,0.0,0.0
1609054413854478836,147,1609054413854478836,0.006602490307022734,0.01025332842396815,0.000812690581471066,1.3890176081581225e-05,0.00013251472029171462,4.939474163771561e-05,0.9999999899034996,-0.002746617938893715,-0.0038448211715429725,0.000761675441579637,0.0,0.0,0.0
1609054413954503775,148,1609054413954503775,0.005999184337866967,0.010832933528766726,0.0009882301384009028,1.5247718748951213e-05,0.00013558838322965538,5.5651667630617694e-05,0.999999989143058,-0.004179155330726025,0.00027054592580492195,0.001902785860835198,0.0,0.0,0.0
1609054414055254936,149,1609054414055254936,0.004727553116463897,0.011860893856534842,0.0011394956504355881,1.1781694128166554e-05,0.00011787628532788057,8.630912949314169e-05,0.9999999892585166,-0.007869452266133387,0.005391136203647755,0.0028355131679448416,0.0,0.0,0.0
1609054414154425383,150,1609054414154425383,0.005095814757132017,0.012118857826089973,0.001060409892128252,1.2346447963068692e-05,0.00011584429135154553,4.910546876454086e-05,0.9999999920081221,-0.0030799311849163662,0.006397922374002114,0.0012751395193909983,0.0,0.0,0.0
1609054414254389048,151,1609054414254389048,0.005603666597674736,0.011855624262119748,0.000981663794918053,9.842012110938237e-06,0.00013699359112193162,6.526312171149989e-05,0.999999988438271,-0.000341247817501787,0.004640144934158475,6.405615023169996e-05,0.0,0.0,0.0
1609054414354392052,152,1609054414354392052,0.006695413959914107,0.012994681334700721,0.0008492053313280472,4.847148199900727e-06,0.0001362071631961314,4.3508942168290865e-05,0.9999999897655054,0.0037817345517258205,0.007877070200127451,-0.0011054433491197418,0.0,0.0,0.0
1609054414454377890,153,1609054414454377890,0.006930157746188471,0.012496542006230855,0.0009446923307296648,1.4965080056563861e-05,0.00012601683617048613,6.0055623817147325e-05,0.9999999901445248,0.0028808822101304213,0.004436607312245392,0.0004668904441958524,0.0,0.0,0.0
1609054414555142879,154,1609054414555142879,0.00836977584881558,0.012655486977476413,0.0009276412482967202,1.3703085130782453e-05,0.0001253176392751675,5.3823689052440604e-05,0.9999999906053241,0.008007082208292913,0.004433032603154986,0.000403350901337431,0.0,0.0,0.0
1609054414654390097,155,1609054414654390097,0.008707805955662276,0.012699797166117233,0.0010109017349178304,2.2473747651501192e-05,0.00014326985762480316,2.9191593508667958e-05,0.9999999890582258,0.005806151963335491,0.003696121708918001,0.00045136943723205543,0.0,0.0,0.0
1609054414754802942,156,1609054414754802942,0.008983844051078773,0.01276743463315444,0.0009573759811491946,1.1454183100171234e-05,0.00013792971328615964,5.1931767761351044e-05,0.9999999890736052,0.004490921068256123,0.003520585426692116,-0.00022050080920188981,0.0,0.0,0.0
1609054414854423523,157,1609054414854423523,0.0076687402378042115,0.013204389642050212,0.0010346275405499104,1.4168796217762465e-05,0.0001390553941723358,4.044500196904582e-05,0.9999999894134834,-0.003234130681505198,0.005114271290983367,0.0009299447511380365,0.0,0.0,0.0
1609054414954450607,158,1609054414954450607,0.00732396185296061,0.013364204033474434,0.0008040258721805061,4.819444622057198e-06,0.00014096675336191432,5.30905711586754e-05,0.9999999886432305,-0.00289482190793378,0.0047757031382492775,-0.0005958574028560462,0.0,0.0,0.0
1609054415054860830,159,1609054415054860830,0.006715294538863694,0.013802642216907907,0.001043343016255635,1.0419186070869517e-05,0.00012622409250218642,3.1286276149294897e-05,0.9999999914900047,-0.004000351806416733,0.005215429361859018,0.0024510544095414422,0.0,0.0,0.0
1609054415155585051,160,1609054415155585051,0.0079672237006256,0.01326404167674203,0.0010368268650054364,1.4996319285555187e-06,0.00012443273253225746,5.645427289730099e-05,0.9999999906635412,0.003124793146360931,0.0031520163326083208,0.0011799341917057748,0.0,0.0,0.0
1609054415255534410,161,1609054415255534410,0.008351721293854017,0.012137683578371581,0.001224481890914875,1.617597748824869e-05,0.0001421928286320847,1.619629991838014e-05,0.9999999896285691,0.0035488528842690073,-0.00010697147371150446,0.0017220171296047182,0.0,0.0,0.0
1609054415355488777,162,1609054415355488777,0.007782833232506314,0.011314000275686398,0.001032939339679074,5.1633368522777426e-06,0.00013410104446330353,6.038246134471417e-05,0.9999999891720643,-0.00024029246433210577,-0.0013183313845213168,-0.00048025942141371775,0.0,0.0,0.0
1609054415455091476,163,1609054415455091476,0.0069731763124038166,0.012899580432831688,0.0009051923152971899,7.651403434074406e-06,0.00015359524036808595,0.00010168500372707595,0.9999999830050188,-0.003910066912795961,0.005009315978541347,-0.0004350525778204741,0.0,0.0,0.0
1609054415554708242,164,1609054415554708242,0.007526681219594326,0.012626321339253378,0.0009542822704228421,1.687869405989502e-05,0.0001400045242371367,3.3434317836404506e-05,0.9999999894979542,0.00021275976337291596,0.002918070397216298,8.893173587967403e-05,0.0,0.0,0.0
1609054415654298544,165,1609054415654298544,0.006876546570810138,0.013670990787456748,0.0010420944619980116,1.6540367586160736e-05,0.00013724830876091367,5.579307618919589e-05,0.9999999888881848,-0.0020832568603044053,0.00716319830027853,0.000976888195706094,0.0,0.0,0.0
1609054415755097389,166,1609054415755097389,0.007631126113391555,0.012222368719343282,0.0012469432670793824,1.9645573469725136e-05,0.00012453552255611464,3.607955939454538e-05,0.9999999914015695,0.0019708911775217037,0.00021970901432264225,0.0026879951785046072,0.0,0.0,0.0
1609054415855490208,167,1609054415855490208,0.008489269169486231,0.011588383123570523,0.0012743918317761778,1.129420389236163e-05,0.0001420734777362538,2.8268749217499612e-05,0.9999999894441817,0.0045062504906777275,-0.0016336171325562789,0.0012501014697583251,0.0,0.0,0.0
1609054415954716444,168,1609054415954716444,0.00921426557356104,0.011689645657656282,0.0012793440744857554,1.6976683980299615e-05,0.00014497971138644448,3.9284044011757345e-05,0.9999999885746785,0.005244107957970762,0.0001590975131857829,0.0006374573165947553,0.0,0.0,0.0
1609054416054674387,169,1609054416054674387,0.006839771235516251,0.012255768937927083,0.0008666754729275071,1.2443676777852279e-05,0.00013780632679627068,4.705550152042794e-05,0.999999989320134,-0.006596248399342667,0.002955009981120682,-0.0013371847605926502,0.0,0.0,0.0
1609054416154268265,170,1609054416154268265,0.0073402483397697425,0.013542183981906314,0.0006325994451764957,-1.0102045568000197e-06,0.00012400798184006369,-1.0281727019613643e-05,0.9999999922576015,-0.0022278230455453837,0.006326560733091007,-0.0019616720239093565,0.0,0.0,0.0
1609054416254282236,171,1609054416254282236,0.0072966951542742286,0.012322481456196402,0.0008271621436114632,9.983887441318804e-06,0.00012265365584458217,4.026973874056464e-05,0.9999999916173334,-0.0015117950714532394,0.0015995295088641545,0.0009322680548187218,0.0,0.0,0.0
1609054416355056047,172,1609054416355056047,0.006429736199057448,0.01171714953324426,0.0008674459275864958,7.327196445106358e-07,0.0001293976044468723,7.506551321991508e-05,0.999999988810404,-0.004481407845754182,0.00046920554356722193,0.0013784400354421495,0.0,0.0,0.0
1609054416454278946,173,1609054416454278946,0.0056550243629643095,0.01161258714598955,0.0011147063361821074,1.309196837480855e-05,0.00013932253553739006,6.37655820467976e-05,0.9999999881758488,-0.006070952255822569,0.0013460751516007575,0.0022462630275413183,0.0,0.0,0.0
1609054416555031776,174,1609054416555031776,0.006124718191150969,0.012088819457475074,0.0011095880615302062,1.3146873195123876e-05,0.00013179130762577598,5.323672782134596e-05,0.9999999898119889,-0.001762377161293639,0.003940410489530206,0.0006137120291096201,0.0,0.0,0.0
1609054416655418873,175,1609054416655418873,0.0060499878748169434,0.01087057764478716,0.0010841156662963689,1.1222319754685253e-05,0.00013009844195161242,3.125998115633941e-05,0.9999999909855919,-0.0013654646248420612,-0.00031118091034888426,0.0009826261494621793,0.0,0.0,0.0
1609054416754223585,176,1609054416754223585,0.006117930074968661,0.011616868292161738,0.0010577035747945367,1.4598246172051141e-05,0.00013781659036577414,4.794295876393239e-05,0.9999999892474333,-0.000204837506579305,0.0030567264015098263,0.0012211309966950355,0.0,0.0,0.0
1609054416854997396,177,1609054416854997396,0.00547836808020806,0.01146909455341579,0.0007922712518880942,8.669451299221292e-06,0.00013531118884868234,4.428308994477127e-05,0.999999989827322,-0.0026053810321321875,0.0028939513434586613,-0.0008937018366600099,0.0,0.0,0.0
1609054416954173565,178,1609054416954173565,0.007335031262464911,0.010668938318186199,0.0010537460337769642,1.9026412938563362e-05,0.00014236896562138076,6.564492600426029e-05,0.9999999875298646,0.0063766076973027315,0.0004797659788790061,0.002449918122199572,0.0,0.0,0.0
1609054417055374384,179,1609054417055374384,0.007264955662365502,0.01160518289018081,0.0012077347449431855,1.7250935438304155e-05,0.00014305940470724294,4.619113586290937e-05,0.9999999885513511,0.003374281455219728,0.0038811220790285657,0.0021324567702702512,0.0,0.0,0.0
1609054417154627085,180,1609054417154627085,0.0075301345983705805,0.010942586336593728,0.001069214823667322,9.223491627326087e-06,0.00013742919419017062,2.7415370150839417e-05,0.9999999901382258,0.003288237797056144,0.001384066309225978,0.0008562140059326364,0.0,0.0,0.0
1609054417254178524,181,1609054417254178524,0.007816514508445414,0.013362112791603606,0.0009347092561613446,1.7983987654997822e-05,0.0001369974357447702,4.8642705016767466e-05,0.9999999892710384,0.0027226191540642834,0.010366986582922245,-8.151303276927337e-05,0.0,0.0,0.0
1609054417354178429,182,1609054417354178429,0.006681666351525133,0.01315410833679539,0.000930225220705807,8.450700800780408e-06,0.00012131237789987634,5.8393434641116726e-05,0.9999999909010052,-0.0030396495885361557,0.006938032420590313,0.0004917672835146718,0.0,0.0,0.0
1609054417454189539,183,1609054417454189539,0.007668886977728488,0.013544489896117121,0.0010821467282799912,9.896873253684683e-06,0.00013266891226683029,6.115170903706808e-05,0.999999989280695,0.0022157218282973026,0.007045264934363298,0.0022390460011037718,0.0,0.0,0.0
1609054417554217339,184,1609054417554217339,0.008149351093557178,0.013266494182656182,0.0011571504844921077,1.77258387563614e-05,0.00013162889675901216,6.048166818697996e-05,0.9999999893507535,0.003195933592016277,0.004921153324266825,0.0017793147264504017,0.0,0.0,0.0
1609054417654255390,185,1609054417654255390,0.007648811925689341,0.012316430099604056,0.0012103372909462238,1.2134835596755633e-05,0.0001477530406659871,3.29186198743768e-05,0.9999999884690298,-0.00020063976238305975,0.0006965396396223207,0.000828400341463267,0.0,0.0,0.0
1609054417754221916,186,1609054417754221916,0.006117660321536092,0.01341183661342734,0.001015568941669623,1.2746923805355443e-05,0.00014065876954310987,5.957523487149826e-05,0.9999999882516643,-0.006603728722751754,0.005248629500306865,-0.00045843132008951395,0.0,0.0,0.0
1609054417854145288,187,1609054417854145288,0.005848060523158615,0.013978712236312169,0.0010598596322638934,1.686587303182414e-05,0.00013608263618465952,4.527817031941211e-05,0.999999989573428,-0.00506818653515927,0.00670089362261655,0.00022535899770419383,0.0,0.0,0.0
1609054417954124928,188,1609054417954124928,0.006783690876536951,0.013680221231295985,0.0011363464758152655,1.1547735478986422e-05,0.00013077780795176227,2.607423145649056e-05,0.9999999910419299,0.0008005527175624161,0.005026070040257403,0.001603154639480106,0.0,0.0,0.0
1609054418054069996,189,1609054418054069996,0.007089235358961396,0.013153042576087688,0.001269366909632919,1.8894527303083036e-05,0.00012914985774130526,5.07384780591116e-05,0.9999999901944138,0.0018541452816930814,0.002042785172343585,0.0020997869688338658,0.0,0.0,0.0
1609054418154071331,190,1609054418154071331,0.006966024435945182,0.013985444199781701,0.0011589946830078402,8.126491024657556e-06,0.00013367781878954603,5.074380585459008e-05,0.9999999897445878,0.0007588912460396906,0.005030486687258437,0.0006913800315789817,0.0,0.0,0.0
1609054418254916430,191,1609054418254916430,0.005967234370660583,0.0140984376749963,0.0009734488859156366,1.8076553896507203e-06,0.00013987501921494002,6.284756449534821e-05,0.9999999882409014,-0.00338849490032595,0.005283198391994096,-0.0003348922918837424,0.0,0.0,0.0
1609054418355249882,192,1609054418355249882,0.0062646286243102705,0.013877694361567394,0.0009037160483283808,6.88935116147802e-06,0.00013910074943905988,5.9871059050016534e-05,0.9999999885094415,-0.0008925482260503581,0.004605492955217899,-0.00020386961725829197,0.0,0.0,0.0
1609054418454484463,193,1609054418454484463,0.006831500554451297,0.014171125022634871,0.0010723402583159335,1.375039970527313e-05,0.00013661728263792344,5.260273594527649e-05,0.9999999891897525,0.001965060461180356,0.004837490246336987,0.0015878166824488955,0.0,0.0,0.0
1609054418554482460,194,1609054418554482460,0.006610142366904939,0.01268562636961162,0.0011176490062458427,2.1721242610146407e-05,0.00013628897939365876,4.8585681933397815e-05,0.9999999892964206,0.0006512502501666555,-0.0011277219158236252,0.0013060517107127644,0.0,0.0,0.0
1609054418654048204,195,1609054418654048204,0.007861451267919947,0.011707743682592862,0.0011095007690888874,3.4110945337257986e-06,0.00012690619349367305,7.175668451097584e-05,0.9999999893670345,0.0053748022907740105,-0.0031477335862873162,0.0012797646347422293,0.0,0.0,0.0
1609054418754066706,196,1609054418754066706,0.007040588664304217,0.01076309591880765,0.0008148247931892343,2.1853641602269014e-06,0.00013477988062136074,3.791812483196599e-05,0.9999999901958665,-0.0003880518924506563,-0.0038706769448751737,-0.0014999188653657847,0.0,0.0,0.0
1609054418855262756,197,1609054418855262756,0.008517914782601594,0.011214741549336164,0.0010254785271374227,1.3415859628233342e-05,0.00014189218936835654,6.389813466737406e-05,0.9999999878017799,0.005955762188235426,-0.0005644891072316711,0.0018162329149343202,0.0,0.0,0.0
1609054418955241442,198,1609054418955241442,0.009440212049957816,0.010445967556167994,0.0010685816285433058,1.0190588623477457e-05,0.00013961813038336645,4.6215749023096914e-05,0.9999999891334717,0.007434944470204314,-0.0014781121516686722,0.0010627511321440785,0.0,0.0,0.0
1609054419054059267,199,1609054419054059267,0.008283921898530128,0.010971409544217664,0.0009237122207599321,1.0538067229451298e-05,0.00013814639655265252,4.557290799584486e-05,0.999999989363771,-3.446869137761332e-05,0.0022802115881184965,0.0003709623548812618,0.0,0.0,0.0
1609054419154078484,200,1609054419154078484,0.006959959092060345,0.012132615521661942,0.0008727924445123995,1.3708873282294041e-05,0.00012567104108933254,4.025557716222715e-05,0.9999999911991269,-0.005030368011168044,0.006533689317101743,0.00044196433081724034,0.0,0.0,0.0
1609054419255261421,201,1609054419255261421,0.006017930460920315,0.013114771912808203,0.0007199379817110097,-2.009466757985978e-06,0.00012016185375383896,5.609293785442744e-05,0.9999999912052906,-0.0069240105604338725,0.008394463199914094,0.0003093523731315046,0.0,0.0,0.0
1609054419354927063,202,1609054419354927063,0.005434674521603915,0.01339101716621326,0.0009079127472897711,9.519264627916141e-06,0.00013177944707217718,5.933630923080697e-05,0.9999999895113354,-0.006596021477997986,0.008148532759310214,0.001640489456520547,0.0,0.0,0.0
1609054419454137087,203,1609054419454137087,0.006599545611132217,0.011919591412561846,0.0010274210031630334,1.7043794594613447e-05,0.00013735093163369294,5.0887603592468835e-05,0.9999999891272953,0.0010470309461434674,0.0012512355063582885,0.0014346046470166789,0.0,0.0,0.0
1609054419554049969,204,1609054419554049969,0.0075873121650397385,0.012735793346114641,0.000987455542245737,9.27754416824905e-06,0.00014370171285267363,5.634840607984522e-05,0.9999999880442552,0.0046802199382403355,0.0055041131523320755,0.0008168892697656987,0.0,0.0,0.0
1609054419654768467,205,1609054419654768467,0.00662778331099571,0.014011360952181568,0.0009198361539845841,3.4292245142493363e-06,0.00014466338867269083,5.6219828581109274e-05,0.999999987949991,-0.001197465695662086,0.009406134433151867,0.0006331106346596046,0.0,0.0,0.0
1609054419755488396,206,1609054419755488396,0.005889079852265771,0.014121494661468892,0.0011301145012721009,1.1964208503157535e-05,0.0001325754003203171,6.0268193436754556e-05,0.999999989324136,-0.0035738558887822847,0.0069054381674744526,0.002328496929054665,0.0,0.0,0.0
1609054419855520248,207,1609054419855520248,0.0054961134827068315,0.01432144700752057,0.0011549055019349174,8.57958794767321e-06,0.00013175483612500128,5.618267905819087e-05,0.9999999897052327,-0.00404458264724072,0.0058598099497607185,0.0017299654374052034,0.0,0.0,0.0
1609054419953987837,208,1609054419953987837,0.006840177891420164,0.012814371226926857,0.0012796699095862633,2.3712766651988454e-05,0.00013718213713610492,4.174344588286453e-05,0.9999999894380777,0.0027963015315986177,-0.00026459606008358717,0.002130091515993861,0.0,0.0,0.0
1609054420054391146,209,1609054420054391146,0.007558992076984571,0.012796164543009749,0.0010813587020063727,1.972446238569393e-06,0.00012843452627960155,1.8184946658394524e-05,0.9999999915849468,0.004312035726043551,0.0005844236411373941,0.00010001086572853984,0.0,0.0,0.0
1609054420154011726,210,1609054420154011726,0.005647280432440991,0.012441029090813925,0.000767124415649003,7.996732779156204e-06,0.0001321205480340581,3.459004428229285e-05,0.9999999906418223,-0.005022360215962995,0.00014747311080013178,-0.0015520556096071795,0.0,0.0,0.0
1609054420255139828,211,1609054420255139828,0.007118112045174268,0.011624519837449387,0.0008666328275351235,1.0517321320677012e-05,0.00012746353377282644,6.92647577206999e-05,0.9999999894223648,0.003088429831730008,-0.0021911401353089323,0.0010295772596644584,0.0,0.0,0.0
1609054420354728460,212,1609054420354728460,0.008035616803030965,0.012455075796616045,0.0010186494550382015,1.327613855114376e-05,0.00013686315531054275,4.945826400314838e-05,0.9999999893230013,0.00564085707054084,0.0018006005897731356,0.0017074380544096707,0.0,0.0,0.0
1609054420453974247,213,1609054420453974247,0.007524393343381229,0.013835988672543674,0.0011283487651325718,8.943635284373007e-06,0.00013242405098314616,3.6643095723243745e-05,0.9999999905205331,0.0006016304666901957,0.007474744084359279,0.0017305435752002919,0.0,0.0,0.0
1609054420554410934,214,1609054420554410934,0.0067548190667487415,0.014279531360511369,0.0011181801274357717,4.9732495943020505e-06,0.00013492657712115835,5.067050471211462e-05,0.9999999896012431,-0.0030954264025712147,0.007362648949250062,0.0012283976827668448,0.0,0.0,0.0
1609054420653994322,215,1609054420653994322,0.007217013510586253,0.013940118788115618,0.0011165299493909073,7.3011077254520355e-06,0.00013204755531157737,5.9887397617783924e-05,0.9999999894617682,-0.00019935645836398645,0.0046716550288769575,0.0014171990412355884,0.0,0.0,0.0
1609054420754771233,216,1609054420754771233,0.0065877333416477606,0.013071325280038614,0.0012938357698651418,1.5210750994387219e-05,0.00012941477679355017,4.085546590912875e-05,0.9999999906755893,-0.002716718228629857,0.0006651863250577892,0.002419762840011357,0.0,0.0,0.0
1609054420854774475,217,1609054420854774475,0.005979605651610339,0.013783603316364185,0.0010773749182840212,3.076843267308736e-06,0.00011790292105380969,7.473501398856213e-05,0.9999999902520056,-0.004156124269483511,0.0039483170055263205,-0.00017241088223870831,0.0,0.0,0.0
1609054420953987122,218,1609054420953987122,0.006252919823760526,0.013222840273384355,0.000898415556755936,2.1666290933004114e-06,0.00013126707488649863,6.506849765215639e-05,0.9999999892651253,-0.0011538373816420877,0.002309519838538586,-0.000982504988219386,0.0,0.0,0.0
