%time,field.header.seq,field.header.stamp,field.pose.pose.position.x,field.pose.pose.position.y,field.pose.pose.position.z,field.pose.pose.orientation.x,field.pose.pose.orientation.y,field.pose.pose.orientation.z,field.pose.pose.orientation.w,field.twist.twist.linear.x,field.twist.twist.linear.y,field.twist.twist.linear.z,field.twist.twist.angular.x,field.twist.twist.angular.y,field.twist.twist.angular.z
1609055134583324671,0,1609055134583324671,-0.005498344201763265,0.007071308359153873,0.0003597437376551885,7.979979089008298e-05,-9.048434320341985e-05,-3.552417280577211e-05,0.9999999920913053,-0.0014013453520258785,0.004805926170695247,-0.0003677168029983122,0.0,0.0,0.0
1609055134683350325,1,1609055134683350325,-0.010418728529233106,0.013594570985124744,0.0002894571298816802,1.9135226062257817e-05,-6.865497709673028e-05,1.8152353341793424e-05,0.999999997295414,-0.049401738837059235,0.06485727531476278,-0.0013553484220810556,0.0,0.0,0.0
1609055134783342838,2,1609055134783342838,-0.010930356061749974,0.010755314896562531,0.00016870793730920238,8.054989671639647e-06,-3.39207874531003e-05,6.995672056064288e-05,0.9999999969452763,-0.020466971236289443,0.005438459439776014,-0.001310273213124763,0.0,0.0,0.0
1609055134883253574,3,1609055134883253574,-0.014791860886309233,0.008703281201833939,0.00010327850198981599,2.8148834934512172e-05,-1.0754046596448155e-05,-5.749085440074097e-05,0.9999999978933971,-0.030990370546593246,-0.008424144830013858,-0.0011704406897742412,0.0,0.0,0.0
1609055134983283520,4,1609055134983283520,-0.014979462030912856,0.006112227050537103,0.00017234620554439518,2.2734882697294404e-05,-3.565270298492209e-05,2.845194444501204e-05,0.9999999987012475,-0.017831091849922764,-0.01668271849485026,2.4803203844784368e-05,0.0,0.0,0.0
1609055135083284855,5,1609055135083284855,-0.011417787469828584,0.00833885024480191,0.00024446446548896607,2.153565098398015e-05,-1.0714429303765115e-05,-3.3075015060165555e-05,0.9999999991637283,0.011492656428381223,0.0035346942652022886,-6.79427158431193e-05,0.0,0.0,0.0
1609055135183259964,6,1609055135183259964,-0.007864561257614465,0.008301417413393448,0.00040562478888168956,3.6010187540821816e-05,-3.097836582773107e-05,3.4062859658590556e-05,0.9999999982916628,0.026897488633369444,0.0024715804402907302,0.0003453466474300276,0.0,0.0,0.0
1609055135283271074,7,1609055135283271074,-0.007728093744488431,0.009839073566066467,0.00029120693140384843,5.063784185429172e-06,-2.0282298186377432e-05,8.055652257084388e-05,0.9999999965368143,0.018536267606605525,0.009559657509563998,-0.0006032880215744661,0.0,0.0,0.0
1609055135383224964,8,1609055135383224964,-0.010116685672162678,0.014192798367670845,0.0002678078291612533,2.1869832999397145e-05,-1.8437502827701304e-05,-7.015106874149313e-05,0.9999999971302953,0.0017090382003691063,0.026954820623563778,0.00018715877785535116,0.0,0.0,0.0
1609055135483192682,9,1609055135483192682,-0.007577061160379035,0.010651415681820996,0.000430149208494143,2.703057442547829e-05,-2.6592936295782915e-05,-9.185671931041543e-05,0.9999999950622498,0.011881754703938083,0.0011758904503662779,0.0012110114729153485,0.0,0.0,0.0
1609055135583223820,10,1609055135583223820,-0.005244223046855769,0.012261559087139799,6.988474006817304e-05,3.6634978763183845e-05,-2.4322217838249936e-05,-7.324679619826903e-05,0.9999999963506038,0.019291622446792424,0.00932088324407761,-0.0021500002624654816,0.0,0.0,0.0
1609055135683271170,11,1609055135683271170,-0.005254538434431388,0.012626941466406168,0.0001703934633465454,4.019194269808828e-05,-1.1852861054082638e-05,-6.205444346301921e-05,0.9999999971966779,0.012410850466451628,0.007591471902262785,-0.0005865259683475073,0.0,0.0,0.0
1609055135783295393,12,1609055135783295393,-0.0037914895249188526,0.010272491135016864,0.00010453366856606904,1.1728934978962735e-05,-2.2845920026959428e-05,-7.757015863382693e-05,0.9999999966616792,0.013721176464696588,-0.005582708231699358,-0.00018071353472726644,0.0,0.0,0.0
1609055135883297920,13,1609055135883297920,-0.004248911619473797,0.010846697772510093,0.0003384946119169181,6.174048068206087e-06,-5.564657610801225e-06,-2.385677730387427e-05,0.9999999996808803,0.007648557342878226,-0.0007368729697534325,0.001076659086006217,0.0,0.0,0.0
1609055135983213425,14,1609055135983213425,-0.005285126035365473,0.01113212522989187,0.0006912959444373934,2.0974552929714608e-05,-3.72502758849075e-05,-6.0779379820042695e-05,0.9999999972391711,0.00044891892014322504,0.00042114115996960255,0.0030159738302410477,0.0,0.0,0.0
1609055136083171606,15,1609055136083171606,-0.00543511362361828,0.011391067505030501,0.0008727377888485181,1.6612787832546304e-05,-1.6751355975013734e-05,-7.50755876225192e-06,0.9999999996935167,0.0001666545539664012,0.0019464006344884052,0.0020578797969345915,0.0,0.0,0.0
1609055136183166981,16,1609055136183166981,-0.004438437451144216,0.008005943792891776,0.0008561122832941201,3.163422746745927e-05,-1.3450116926819377e-05,2.5443700793013806e-05,0.9999999990854886,0.0036060392085263374,-0.012243385410952467,3.39339898009273e-05,0.0,0.0,0.0
1609055136283152580,17,1609055136283152580,-0.0039878716781508615,0.006092797067172903,0.0006028015558608294,1.7193437849355984e-05,-9.980972482751736e-06,8.153031878079576e-06,0.9999999997691411,0.004275940675064891,-0.015381456541418204,-0.0011858793414943876,0.0,0.0,0.0
1609055136383112669,18,1609055136383112669,-0.005641512606323723,0.009303430626688388,0.00041824429212270397,2.117617744289727e-05,-1.4319948622694458e-05,-6.3808035991365595e-06,0.9999999996528905,-0.003143180114561735,0.003060452037651637,-0.0019632201281753405,0.0,0.0,0.0
1609055136483146667,19,1609055136483146667,-0.005136914488521574,0.008058170796934676,0.00014828126320209548,2.5355268057592294e-05,-1.8302867774670266e-05,-3.604202586815306e-05,0.999999998861537,0.00014539474075380516,-0.0030162115693853934,-0.002911547236324554,0.0,0.0,0.0
1609055136583167076,20,1609055136583167076,-0.00489269875784374,0.00931926329590183,0.00011761190436246272,3.768356405338511e-05,-7.543381729946546e-06,-4.6586817518707065e-05,0.9999999981763511,0.0018798250791543381,0.0034388355113608715,-0.0016820903224482081,0.0,0.0,0.0
1609055136683182716,21,1609055136683182716,-0.0049009553152781415,0.008598155924785253,0.0005859044537443408,4.599264361612191e-05,-2.3046142001137448e-05,-4.062765553044054e-05,0.9999999978514662,0.0006761480830245283,-0.000429415132656907,0.002135027666251626,0.0,0.0,0.0
1609055136783198118,22,1609055136783198118,-0.006841416322893216,0.008364177306555707,0.0002379623131763901,4.862236930456591e-06,-7.681762167500358e-06,1.0929287079716671e-05,0.9999999998989428,-0.007461116684701265,-0.002118314529773008,-0.0013465609710844478,0.0,0.0,0.0
1609055136883158207,23,1609055136883158207,-0.007640008018892597,0.00928733848967037,0.00013643250415546138,1.6152142637332014e-05,-1.1176330672078054e-05,-1.705559894094914e-05,0.9999999996616454,-0.007001644592856446,0.0021039441192250126,-0.0017927020599935164,0.0,0.0,0.0
1609055136983147144,24,1609055136983147144,-0.007820917759944495,0.013544322911492978,0.0005678721291680249,3.458753118965162e-05,-8.103422295548714e-06,-5.869293382241064e-05,0.9999999976465812,-0.0036675971288137694,0.017909186899023277,0.0014709758665593996,0.0,0.0,0.0
1609055137082360744,25,1609055137082360744,-0.008834018891292905,0.014145860072635828,0.0005902435212876529,3.0242550237071837e-05,-7.071216874221676e-06,-2.5206710392761772e-05,0.9999999991999968,-0.00695097124066483,0.014641725667559426,0.001749581999802941,0.0,0.0,0.0
1609055137183137655,26,1609055137183137655,-0.010280661675233888,0.013373907236221212,0.0004646541104525487,1.45920240811914e-05,-3.55838169741011e-05,-1.0838085929396892e-05,0.9999999992016932,-0.010772011386914616,0.0059177412271728125,9.690761602040984e-05,0.0,0.0,0.0
1609055137283139944,27,1609055137283139944,-0.010006461819413042,0.014914252521285351,0.0006304454144743928,1.1068871582176428e-05,-1.5667311448106435e-05,-1.3729540478636061e-05,0.9999999997217504,-0.004870018911437594,0.009760542575039721,0.00034260055072092734,0.0,0.0,0.0
1609055137383087873,28,1609055137383087873,-0.010202700529506897,0.014932062532745411,0.0007748070777331327,4.221640641348465e-05,-1.9486704301515437e-05,-3.9073051135459416e-05,0.9999999981556625,-0.0037702805280979915,0.005427779092194037,0.001017961427700378,0.0,0.0,0.0
1609055137483107090,29,1609055137483107090,-0.013066195773922144,0.012204328132508782,0.0007306495832110873,2.0861624927711917e-05,-6.468235721990658e-06,4.6445369239120595e-05,0.9999999986828836,-0.014903135202002494,-0.007344012861578505,0.00039156305778347434,0.0,0.0,0.0
1609055137583143234,30,1609055137583143234,-0.012475213185023126,0.011893723775075972,0.0006398731507915559,3.23336076727153e-05,-3.484232255980827e-05,1.511522676816124e-05,0.999999998756033,-0.00572811366534824,-0.005305346704406445,-0.0009560940735881608,0.0,0.0,0.0
1609055137683126450,31,1609055137683126450,-0.011164960808508621,0.01131635782173318,0.0007381924818387686,2.9422366283816277e-05,-4.689315009039943e-05,-2.7073413819803457e-05,0.9999999981011859,0.002486408288944463,-0.005250069062307356,0.00044365520185874515,0.0,0.0,0.0
1609055137783114433,32,1609055137783114433,-0.008066951909123442,0.011059528428425232,0.0006774158342133717,2.1029803649103844e-07,-3.017901650594313e-05,-1.867527857063335e-05,0.9999999993702005,0.01516301195816482,-0.003991862359078832,-0.0005647893926299389,0.0,0.0,0.0
1609055137883119583,33,1609055137883119583,-0.009253483755084037,0.012486412958290317,0.0008675626633898434,4.1316805695176803e-05,-2.8729792096501487e-05,-1.2831069664334796e-05,0.9999999986514336,0.004559490752731892,0.002241335271189145,0.0006196980179754403,0.0,0.0,0.0
1609055137983128786,34,1609055137983128786,-0.010411457251206355,0.013418661444568736,0.0006853050527924559,1.4125338040177052e-05,-4.3380824433617005e-05,-9.487789018807608e-06,0.9999999989142713,-0.0012762496493762942,0.0039285373499191225,-0.0007653213534420819,0.0,0.0,0.0
1609055138082298040,35,1609055138082298040,-0.01045993957500063,0.01282127248610837,0.0005660989415339284,8.632787940513483e-06,-1.4281055056450336e-05,-6.644919120882811e-05,0.9999999976530068,-0.0009720477407018829,0.0005433822632350555,-0.0013589977429521237,0.0,0.0,0.0
1609055138183070898,36,1609055138183070898,-0.010033259807872069,0.016414459384988592,0.000603946379826133,1.985907991497423e-05,-1.3555110644797687e-05,-7.931056680148494e-05,0.9999999965658452,0.0023294678199749868,0.014426508435010315,-0.0002948526031550016,0.0,0.0,0.0
1609055138283014536,37,1609055138283014536,-0.009880287815615379,0.01509524099683186,0.000502566636894199,6.199184749029315e-06,-2.2328976551473808e-05,-3.2731412537486447e-05,0.9999999991958101,0.0015822872311574043,0.004224566343993725,-0.0012460407623290867,0.0,0.0,0.0
1609055138383018255,38,1609055138383018255,-0.008514941230010882,0.014199293779186712,0.0006172752637242355,1.742808313293509e-05,1.1950993120992379e-05,-5.3589763169167284e-05,0.9999999983407762,0.00610539978875991,-0.0005208627832864196,0.00019280578867734142,0.0,0.0,0.0
1609055138483026981,39,1609055138483026981,-0.00880304341738186,0.013248878941510788,0.0007604890011838367,2.659546486506531e-05,-5.547593451322493e-06,-5.6533442206376194e-05,0.999999998032927,0.0018649001213234227,-0.004317688561089401,0.001238765965292501,0.0,0.0,0.0
1609055138583044529,40,1609055138583044529,-0.009244620844869107,0.013746420934315873,0.0005906901649688163,1.3177415452998083e-05,-2.635208174136565e-05,-2.1901504991926682e-05,0.9999999993261125,-2.9672182452647727e-05,-0.0006126909878352233,-2.622071552954271e-05,0.0,0.0,0.0
1609055138683067799,41,1609055138683067799,-0.008529269250922816,0.014687170429238052,0.000833127928402249,3.291339741345704e-05,-1.758954267624595e-05,-5.960958028863367e-05,0.9999999975269955,0.003160320167546308,0.0027819471734020335,0.001250402101869881,0.0,0.0,0.0
1609055138783066511,42,1609055138783066511,-0.0074486057059558065,0.014156953893050137,0.0008699768724126972,7.016701650090441e-06,-1.7566441683198358e-05,-3.6198962589209115e-05,0.9999999991658989,0.0062214244199931025,-0.0005688584199092573,0.00036430856911724816,0.0,0.0,0.0
1609055138883030891,43,1609055138883030891,-0.006809556992600198,0.012382905139133772,0.0007214493991523362,2.0286866953427723e-05,-6.5544135594100995e-06,-5.4446116824011836e-05,0.9999999982905396,0.005382264553219473,-0.006814182826271136,-0.0014118686676614137,0.0,0.0,0.0
1609055138982973099,44,1609055138982973099,-0.006128437570559264,0.01222643156208498,0.0009285851422080395,3.108461697684103e-05,-7.4372766188192516e-06,-6.842907371321739e-07,0.9999999994889709,0.006130978331859388,-0.0051954435057458,0.0006235477598443503,0.0,0.0,0.0
1609055139082940817,45,1609055139082940817,-0.007091090150338777,0.01284415867449747,0.0008019475688980849,2.2430209112416202e-05,6.470987028956434e-06,-5.013940037805547e-05,0.9999999984705145,0.00046506827278680173,-0.0016862907701185237,-0.0009088829773618727,0.0,0.0,0.0
1609055139183674097,46,1609055139183674097,-0.010134927311039965,0.012298891318435133,0.00077889343775602,2.73137130832686e-05,-5.75155386127603e-06,3.840940627112315e-05,0.9999999988727869,-0.011788820396776615,-0.004953636432811184,-2.207731536252891e-05,0.0,0.0,0.0
1609055139282899857,47,1609055139282899857,-0.008102798737770131,0.012429473411308714,0.0006425978974326703,4.240079875104398e-06,-5.965651909351699e-06,-1.0052589899121647e-05,0.9999999999226771,0.001462995935048398,-0.0017637300621129461,-0.0009795470284305208,0.0,0.0,0.0
1609055139382863283,48,1609055139382863283,-0.007737674310704397,0.01313613034652836,0.0005453946399075078,6.018087929435829e-06,-3.230659961321736e-05,-3.272384372747526e-05,0.9999999989245953,0.003374509777034889,0.001649759145957742,-0.000982540020895424,0.0,0.0,0.0
1609055139482840538,49,1609055139482840538,-0.006449523752516695,0.01324753788157784,0.0007955161743999688,3.4103857251882783e-05,-8.098967886827327e-06,-4.8495429365723574e-05,0.9999999982097498,0.006916819513481893,0.0008096615032300037,0.0006600132791412959,0.0,0.0,0.0
1609055139582153559,50,1609055139582153559,-0.006496668822903844,0.014883561955206685,0.001077011095713517,3.470682621812398e-05,7.845729477043262e-06,-6.604184998197647e-05,0.9999999971861635,0.003810201020545388,0.0069944737890077924,0.0018656885307825701,0.0,0.0,0.0
1609055139682971001,51,1609055139682971001,-0.007776836400966273,0.015610112642946091,0.0008631905413642966,1.9748838985508133e-05,1.0338542431824897e-05,-6.041401801085592e-05,0.9999999979266082,-0.003081509299435177,0.0061153361376187505,-0.0010551989683607174,0.0,0.0,0.0
1609055139783000469,52,1609055139783000469,-0.007122971690254786,0.015294993067822489,0.00099209342052865,2.6087630039071915e-05,-4.6988352711210854e-06,-2.8808619873035262e-05,0.9999999992336955,0.0012929293479142082,0.002978619434840597,0.00031297283469639784,0.0,0.0,0.0
1609055139883009672,53,1609055139883009672,-0.00807042162643227,0.01439071228058549,0.0010321854856027697,4.1548677250708696e-05,-3.0306429180935905e-05,-3.5304150989011813e-05,0.9999999980544073,-0.0029725963003215,-0.002917657069415574,0.000461439692108745,0.0,0.0,0.0
1609055139982202530,54,1609055139982202530,-0.007410219368497774,0.014828803019227203,0.0010459066889144458,2.3319796248864618e-05,-3.133105097677256e-05,-3.587973344693728e-06,0.9999999992308254,0.0009098593965561246,0.0007008634001319327,-4.630705511474403e-05,0.0,0.0,0.0
1609055140082970619,55,1609055140082970619,-0.010183699659250875,0.016002305305791803,0.0007841304603566076,1.1002228268525114e-05,-1.5184198826462858e-05,-5.3670543806535975e-05,0.9999999983839176,-0.010272992166364452,0.003919888231792978,-0.0020105784374958866,0.0,0.0,0.0
1609055140182938814,56,1609055140182938814,-0.011533445522828884,0.013992194102676879,0.0008731160624979884,1.9729569516292094e-05,4.652876121904976e-06,9.393218399212563e-05,0.9999999953829055,-0.01239230602674039,-0.004800680557508835,-0.0003455823740051607,0.0,0.0,0.0
1609055140282959700,57,1609055140282959700,-0.010347561800908317,0.015751548189046293,0.0009201417882489768,4.755486536491467e-05,6.588340999153306e-06,-9.340174666599391e-06,0.9999999988039306,-0.002057412792752117,0.003091687992576737,0.00014187233868856398,0.0,0.0,0.0
1609055140382920265,58,1609055140382920265,-0.010007395210654017,0.017573913011555902,0.001020824570655696,1.773018410790697e-05,-2.1730134041444956e-05,-5.757811242878042e-05,0.9999999979490864,0.0011440816507307925,0.009143025502337872,0.001540053126415096,0.0,0.0,0.0
1609055140482934952,59,1609055140482934952,-0.011019825984475545,0.019821179624618674,0.0008042937512674188,-3.1402633489402014e-07,-2.9885838002675772e-05,-7.698640351248281e-05,0.9999999965899008,-0.0027099843291831863,0.014458645939489308,-0.00026352598137522037,0.0,0.0,0.0
1609055140582909107,60,1609055140582909107,-0.009513139105380191,0.02032018042661845,0.0006219646347472178,1.3390562913888027e-05,-2.7950684592198043e-05,-7.972049163629067e-05,0.999999996342033,0.00375189694423157,0.011715638979908407,-0.0018697588821879468,0.0,0.0,0.0
1609055140682851076,61,1609055140682851076,-0.010010260550156,0.020383444825328428,0.0006705592890678318,1.362465495146708e-05,-6.391336629499899e-06,-6.739041508932579e-05,0.999999997616011,-0.00021657857462019066,0.007666713849655602,-0.0007240020014202438,0.0,0.0,0.0
1609055140782871246,62,1609055140782871246,-0.009256579401115145,0.018094197751814995,0.0009737325525712669,1.7081334308194342e-05,1.182380912519047e-05,-4.482013097485059e-05,0.9999999987797755,0.0018452769429416972,-0.00366976667327097,0.0018498732623272909,0.0,0.0,0.0
1609055140882904053,63,1609055140882904053,-0.010101523854308542,0.016675050086193872,0.0009247033324907451,1.75036956233552e-05,1.7554106886988883e-06,-7.060781673370077e-05,0.9999999973525228,-0.0019602687726843,-0.009029851537018272,0.0002645109820649772,0.0,0.0,0.0
1609055140983656168,64,1609055140983656168,-0.008611955752886534,0.01707244013603253,0.0007818739543635301,1.968153437040945e-05,-3.359449771888306e-05,-5.92858939248316e-05,0.9999999974845997,0.005906182926557956,-0.004004675234982472,-0.0010837774482459128,0.0,0.0,0.0
1609055141082830191,65,1609055141082830191,-0.007433117101132472,0.01633727605615255,0.0007552830965424865,2.414935721448933e-05,-3.17906023151293e-05,-7.483143461694313e-05,0.9999999964031956,0.008281916055847676,-0.004093747723439388,-0.0010674985517313328,0.0,0.0,0.0
1609055141182834864,66,1609055141182834864,-0.008598032390591516,0.015407345370837771,0.0005285436944966163,1.133896807016192e-05,1.1595803362300746e-06,1.2991869739580934e-06,0.9999999999341821,-6.442556048424919e-06,-0.007965590739022184,-0.002048131887691989,0.0,0.0,0.0
1609055141282811880,67,1609055141282811880,-0.00803065643881655,0.01616300070871277,0.0006843593246220766,1.9400277144698877e-05,4.7273672012766534e-06,-5.267414799471897e-05,0.999999998413342,0.0026663265272831287,-0.0020026089173703953,-0.0006787396217634626,0.0,0.0,0.0
1609055141382790565,68,1609055141382790565,-0.00890990349048766,0.01634098106147521,0.000840479305121159,6.912790761484357e-06,-6.321835931594609e-06,-4.667072238394183e-06,0.9999999999452167,-0.0017535263511496402,-0.00046803955788960263,0.00031739520596119823,0.0,0.0,0.0
1609055141482756615,69,1609055141482756615,-0.009967004770894843,0.01774437995545163,0.0008511765869684877,2.9154481979950148e-05,-2.1945373046173302e-05,-6.306288321542266e-05,0.9999999973457279,-0.0047427734885588015,0.004817093677956875,0.0005358405945511399,0.0,0.0,0.0
1609055141581975222,70,1609055141581975222,-0.010185838598663786,0.01709177868405742,0.0008054336331733422,5.534569765157806e-06,-3.574010881298699e-05,-6.242682538080033e-05,0.9999999973974348,-0.0041091795411175944,0.0010923329879650185,-0.00013170475365992978,0.0,0.0,0.0
1609055141682767391,71,1609055141682767391,-0.009178348656238348,0.015755258108140806,0.0008218140969873357,1.0909482000198806e-05,-1.9466926547521998e-05,-3.6688688843436134e-05,0.9999999990779631,0.0004916645551844498,-0.0053644560453485896,-0.0005058583850129057,0.0,0.0,0.0
1609055141782782555,72,1609055141782782555,-0.009974195950487772,0.016935482010665918,0.000738281273023028,1.5736449057475456e-05,7.487490262230507e-06,-6.238749881105265e-05,0.9999999979020323,-0.0027756154536884054,0.0002501754293018762,-0.0011048523055559607,0.0,0.0,0.0
1609055141882776499,73,1609055141882776499,-0.00861155446490719,0.016683122405158485,0.0005327272081102503,1.4931858187673694e-05,4.736228417419856e-06,-1.1928003681674643e-05,0.9999999998061463,0.00411328454019339,-6.70899060560506e-05,-0.002020176561211259,0.0,0.0,0.0
1609055141982751369,74,1609055141982751369,-0.00721602142296729,0.01728322545956118,0.0005295153973167003,9.702164893202943e-06,-3.44436252470975e-06,-4.4509623765444424e-05,0.9999999989564295,0.008592281687754067,0.0017219049163377622,-0.0006866917126139785,0.0,0.0,0.0
1609055142082808256,75,1609055142082808256,-0.006660672764501115,0.017569221004451067,0.0007826909703169218,2.0028139742309116e-05,-2.0885948151376274e-05,-5.006316082228526e-05,0.9999999983281453,0.007500695912901386,0.0013221771206177208,0.0009321117393871572,0.0,0.0,0.0
1609055142182793617,76,1609055142182793617,-0.0073651471545641105,0.018820135856088313,0.0008526667128545377,2.0755970038791297e-05,-2.8257908866665834e-05,-5.485005243289082e-05,0.9999999978810555,0.002530819758685055,0.004231488286400664,-2.331003336796748e-05,0.0,0.0,0.0
1609055142282798767,77,1609055142282798767,-0.006885415930424831,0.01845451990808989,0.0010295774924978535,-4.1138191482850625e-07,9.422599357561971e-06,-5.282011923613988e-05,0.9999999985605196,0.003005726501233992,0.0010414328182339616,0.0002665654484149988,0.0,0.0,0.0
1609055142382024527,78,1609055142382024527,-0.008617879641197878,0.018964194477131917,0.0008239956959519381,1.3865274413074546e-06,1.5318866565350823e-05,-2.1363642727669476e-05,0.9999999996534813,-0.005236811044810089,0.0015217158536450872,-0.0006755327071393401,0.0,0.0,0.0
1609055142481996298,79,1609055142481996298,-0.009536656633866068,0.019402288954409923,0.0008378854114140731,2.2051226258839765e-05,7.348968739851125e-06,-2.706904275519535e-05,0.99999999936348,-0.006762941925071311,0.001443127761218123,-0.00014614559293607115,0.0,0.0,0.0
1609055142582770109,80,1609055142582770109,-0.011026523619726124,0.018328490877070707,0.0006826057056990663,1.9228676574783072e-05,-2.5177893831483085e-05,-6.43067370964238e-05,0.9999999974304654,-0.010084508635382808,-0.0036505443959063792,-0.0008405281178064474,0.0,0.0,0.0
1609055142683490992,81,1609055142683490992,-0.011277147933491638,0.016474898017297412,0.0007268863751542791,1.589102019194733e-05,-4.047147653752505e-05,-5.655051934831615e-05,0.999999997455764,-0.007385649334747939,-0.008842818809983635,-0.0001260709873248274,0.0,0.0,0.0
1609055142782713652,82,1609055142782713652,-0.010259316621662642,0.015504085057990039,0.0006687055281340216,1.9764744573891152e-05,-1.7356927052630125e-05,-1.1928984389241067e-05,0.999999999582872,-0.0005758150133642406,-0.008537338252933076,-0.0006657814254649125,0.0,0.0,0.0
1609055142882687330,83,1609055142882687330,-0.009291551413194354,0.01479881519622403,0.0005477015179341354,1.4373094673364159e-05,1.0657403735979475e-06,-5.258931924439822e-05,0.999999998513297,0.0036442052781312908,-0.007680115161332553,-0.0014923993742206045,0.0,0.0,0.0
1609055142982650518,84,1609055142982650518,-0.00932622177712766,0.015517349508091163,0.0006110085023316782,2.136409759172441e-05,8.146717015665603e-06,-6.619869785895596e-05,0.9999999975474456,0.002434771975229123,-0.0026452821651757556,-0.0007945663406822671,0.0,0.0,0.0
1609055143082710028,85,1609055143082710028,-0.009612916548530522,0.016426913598756254,0.0006725910355785921,1.3637218905679277e-05,-1.1592214954299482e-05,-1.193416216223635e-05,0.9999999997685871,0.000633804396633293,0.0011042916465712443,0.0005602569315295671,0.0,0.0,0.0
1609055143182752371,86,1609055143182752371,-0.01075516444217354,0.017565084246315397,0.0008110992346361378,-1.9390941645498754e-06,-8.708272479537889e-06,-6.883027323635997e-05,0.9999999975913753,-0.003946980178269808,0.004828082355898847,0.0009785092961076063,0.0,0.0,0.0
1609055143282749414,87,1609055143282749414,-0.011733622093483819,0.018328795111228525,0.0009273851124893184,2.504681548981213e-05,-1.4329394821673359e-05,-7.683638982062047e-05,0.9999999966317222,-0.006469500288227618,0.004968553239213415,0.00011614526421588128,0.0,0.0,0.0
1609055143381925106,88,1609055143381925106,-0.011295539009600874,0.017203842802588937,0.0008038900571770495,1.58105044206526e-07,-1.9968491693561364e-05,-6.159431613791151e-05,0.9999999979036621,-0.0026280537934574733,-1.033769934536636e-05,-0.0008170258770227714,0.0,0.0,0.0
1609055143481939316,89,1609055143481939316,-0.01007398590145801,0.01746446194712164,0.0008552909658761952,1.666718105102965e-05,7.064837283774496e-06,-6.649709997420984e-05,0.9999999976251892,0.0028105732785855854,0.0018319442091041308,-0.00017250992079379576,0.0,0.0,0.0
1609055143582657814,90,1609055143582657814,-0.010730825373032845,0.01797871180253173,0.0008214096204813438,1.1765332273414236e-05,8.62859604232411e-06,-4.2542838946536475e-05,0.9999999989885899,-0.0004997732267663251,0.002764187488152656,-0.0002187230615893221,0.0,0.0,0.0
1609055143681864262,91,1609055143681864262,-0.010579666263420613,0.017468627452007432,0.0007874739657920285,9.05195187906233e-06,-1.3745225994369568e-05,-6.826248694789878e-05,0.9999999975346558,0.00027678060722734926,0.0005835954831405121,-2.7758681738120777e-05,0.0,0.0,0.0
1609055143782669544,92,1609055143782669544,-0.010959909330343397,0.015898253218598557,0.0008561641535493993,1.908978875703794e-05,-3.952353933010776e-05,5.539346824194319e-06,0.9999999990213664,-0.0007159724883539665,-0.005631265285145433,9.351968761942247e-05,0.0,0.0,0.0
1609055143882668018,93,1609055143882668018,-0.010937804749481797,0.016105623634471725,0.0008030477609908502,2.7089813294966764e-05,-1.4835323178708425e-05,-3.914303711528208e-05,0.9999999987569123,3.7129920572846254e-05,-0.0035652631438694614,-0.0007115351310627796,0.0,0.0,0.0
1609055143982673407,94,1609055143982673407,-0.010306004382996496,0.015819662219356018,0.0006966774121763794,1.2992036972020167e-05,-1.4373174213976603e-05,-4.67776692029413e-05,0.9999999987182067,0.002413503543137325,-0.0028565080194705755,-0.001012644854645927,0.0,0.0,0.0
1609055144082627535,95,1609055144082627535,-0.009253311306204052,0.01744687025521401,0.0007047640912351184,4.399149542181207e-06,1.733023649684644e-05,-4.360534700679672e-05,0.9999999988894142,0.006323946304426099,0.004000098204914661,-0.0005281354207928261,0.0,0.0,0.0
1609055144181823969,96,1609055144181823969,-0.010059225719285187,0.01760926170134003,0.0006847482894019846,8.623859303436612e-06,2.028539664475235e-05,-3.1589770302703404e-05,0.9999999992580807,0.0007489422270377495,0.0024819611199666707,-0.0008728873399980342,0.0,0.0,0.0
1609055144281774282,97,1609055144281774282,-0.011478851011712296,0.018551552217979234,0.0006682504066470508,8.45447839090613e-06,-2.0479767584909673e-06,-1.306248664789656e-05,0.9999999998768209,-0.004333739155118958,0.004869149818953261,0.0007174472202789667,0.0,0.0,0.0
1609055144382558823,98,1609055144382558823,-0.01342140444135221,0.019950819294382045,0.0008098193957214749,7.2441568300533295e-06,-3.644987391596628e-05,-4.155910055457851e-05,0.9999999984458567,-0.009116568835169855,0.00707119773469019,0.0015071019853095545,0.0,0.0,0.0
1609055144482589722,99,1609055144482589722,-0.014501473481417235,0.022850558916792666,0.0008792091364377974,3.9332202770183045e-05,-3.389956806936569e-05,-0.00011599675382872769,0.9999999919242463,-0.008235249559608956,0.013689502102659325,0.0008000429045574389,0.0,0.0,0.0
1609055144582623005,100,1609055144582623005,-0.013896189607704496,0.021701996957227555,0.0004660778532591438,-1.4347707768626108e-05,-6.186857535144746e-05,-6.566320287220085e-05,0.9999999958273545,-0.002994966938283895,0.005175815596648557,-0.0029809431074416656,0.0,0.0,0.0
1609055144682589769,101,1609055144682589769,-0.01187844769657754,0.02034413519355339,0.000548369522784044,1.8445362655386163e-05,-4.364752739223703e-05,-4.283016004779551e-05,0.9999999979600903,0.005115501001949287,-0.0005282391509436766,-0.000654025575985981,0.0,0.0,0.0
1609055144782562733,102,1609055144782562733,-0.01174561125898437,0.02112497546173155,0.0006361618313879036,8.950628926529412e-06,8.286806829645658e-06,-7.081261748924741e-05,0.9999999974183643,0.004774973866207611,0.00154018616485733,5.157616749417587e-06,0.0,0.0,0.0
1609055144883410931,103,1609055144883410931,-0.010999996676663234,0.0189714419060225,0.0005724351139748476,3.93279536581129e-06,-1.4486466797788984e-05,-4.458339570739254e-05,0.9999999988934687,0.005515129824965592,-0.00688324634498861,-0.0011806199315075412,0.0,0.0,0.0
1609055144982628107,104,1609055144982628107,-0.011631720428339988,0.018946325699512555,0.000655091293008393,1.823350281153145e-05,-1.812151989084979e-05,-1.259963643297645e-05,0.9999999995901697,0.0008976824095429988,-0.005116616401989316,0.0007628360248192608,0.0,0.0,0.0
1609055145082620859,105,1609055145082620859,-0.011949428156125552,0.018100653202363336,0.0004732023474483871,-1.1219700317047419e-05,-9.77070011457724e-07,-4.920292237977154e-05,0.9999999987260879,-0.0006311868765350879,-0.007082333091990612,-0.0010968316506517633,0.0,0.0,0.0
1609055145182562828,106,1609055145182562828,-0.011220898841514986,0.018195492790828795,0.0008356316682816202,3.206219623918521e-05,-8.153957341001677e-06,-9.15811394772476e-05,0.9999999952591813,0.0034854498929653833,-0.0030669984669331883,0.0021640150433709835,0.0,0.0,0.0
1609055145282513857,107,1609055145282513857,-0.010595149299962482,0.017084653564901298,0.0008586860894387885,1.529734234156811e-05,-3.494512440289371e-05,-3.784291041264553e-05,0.9999999985563413,0.004959324013117375,-0.007356575630830547,0.000892996053777687,0.0,0.0,0.0
1609055145382538319,108,1609055145382538319,-0.008823616006103745,0.015038174127214868,0.0007665622523441057,1.5469200028187164e-05,-2.593851890398359e-05,-6.39604749602353e-05,0.9999999974984459,0.00993038278583607,-0.012871844794106376,-0.0006918635643164228,0.0,0.0,0.0
1609055145482506752,109,1609055145482506752,-0.009340789062997849,0.014417661001604621,0.0006183723376773133,9.84854312877818e-06,-2.5728496460363246e-06,-1.5250848607305006e-05,0.9999999998318677,0.004667100423152227,-0.010773816063442581,-0.0014259804343891708,0.0,0.0,0.0
1609055145582566977,110,1609055145582566977,-0.009394675549725586,0.015579821979023498,0.000548326109189701,7.910916294846664e-06,-7.304561136656314e-06,-4.9112113469384496e-05,0.9999999987359993,0.0029990152154181927,-0.004383102271818323,-0.0013864182058239468,0.0,0.0,0.0
1609055145682546616,111,1609055145682546616,-0.009150389849047789,0.017453949774518997,0.0005131137655174517,7.512881582994438e-06,-1.2156300871979657e-05,-7.154506496170768e-05,0.999999997338511,0.0036342884474606,0.004023935073510377,-0.0007861129915617602,0.0,0.0,0.0
1609055145782554150,112,1609055145782554150,-0.010337639766802338,0.01798298893180926,0.0007545623533399828,2.3808913099294366e-05,-1.3085186647381645e-05,-3.760804702771722e-05,0.9999999989237424,-0.002571148292933553,0.003731952458682585,0.0011241277158166485,0.0,0.0,0.0
1609055145881752491,113,1609055145881752491,-0.009311638573198956,0.016676806039430097,0.0005527336832906284,-8.596905531776623e-06,-1.8175915556921247e-05,-1.2052889315309119e-06,0.9999999997971059,0.0020579339065015315,-0.002173728504026431,-0.0009999851468752846,0.0,0.0,0.0
1609055145982550621,114,1609055145982550621,-0.01097199523482367,0.01722400884566073,0.0004246589840762954,-1.611908198425127e-06,-2.4651596645713858e-05,-4.5804799861978243e-05,0.9999999986457778,-0.005328270565439553,-2.926386207228451e-05,-0.0014092438007996145,0.0,0.0,0.0
1609055146082503080,115,1609055146082503080,-0.010426854688084347,0.01797510963780908,0.00047259539241924757,5.355612161749958e-06,-7.124992469477405e-06,-4.2361386607019384e-05,0.9999999990629997,-0.0015705276924672168,0.002933901964289914,-0.0007608117117748397,0.0,0.0,0.0
1609055146182520390,116,1609055146182520390,-0.010633101591724986,0.01791440413457059,0.0003248530638720539,-7.914903390551689e-07,-2.0574943104030916e-05,-2.8740634608336312e-05,0.9999999993749775,-0.002157335737174609,0.0032339869574394007,-0.0009947201011534486,0.0,0.0,0.0
1609055146282522678,117,1609055146282522678,-0.011169137299291695,0.018499235922916493,0.0007713190265126414,1.2985877946037376e-05,-3.6994753307171353e-06,-6.779672783940165e-05,0.9999999976106083,-0.0030448185582974937,0.004167681892827096,0.003014943159685649,0.0,0.0,0.0
1609055146382483482,118,1609055146382483482,-0.009515116676848416,0.016769957092579234,0.0007097226462959359,4.430686003925357e-06,-9.484540295952807e-06,-6.700767090028656e-05,0.9999999977001577,0.0038983187224271025,-0.0031899036627611567,0.00011437181616293438,0.0,0.0,0.0
1609055146482470989,119,1609055146482470989,-0.009363735779541518,0.016694752284208893,0.0006872289886976883,1.8520754789022315e-05,-9.423654754428888e-06,-7.821141544626914e-05,0.9999999967255399,0.003459529723324627,-0.003019018711079254,-0.00021578802859605257,0.0,0.0,0.0
1609055146582453966,120,1609055146582453966,-0.011205385813660818,0.01699893733716454,0.000687529739953984,2.411329626870895e-05,-2.8312171977823867e-05,-7.389003894775617e-05,0.9999999965785802,-0.005158419537860761,-0.0012983253448735378,5.771899413305728e-05,0.0,0.0,0.0
1609055146681674480,121,1609055146681674480,-0.010696166138846101,0.018026328483632198,0.0006349228311448951,-2.5219504818926397e-06,-2.1411521916121553e-05,6.7902868656316106e-06,0.9999999997445032,-0.001022132610491622,0.0032745237271997727,-0.0005693659389418927,0.0,0.0,0.0
1609055146782409430,122,1609055146782409430,-0.01118232055668722,0.016110035363951516,0.00042580490849412504,1.2956724936858194e-05,-1.0837249108782597e-05,-5.9283763823809806e-05,0.9999999981000195,-0.0034525026023411757,-0.004807862734988726,-0.001531568614702111,0.0,0.0,0.0
1609055146882424831,123,1609055146882424831,-0.011259842371925757,0.01758182986720137,0.000363882532550521,7.292135395548012e-06,-1.587577817458204e-05,-5.5344185519205545e-05,0.9999999983158658,-0.0015601477443777682,0.00230268093233779,-0.001416592236839534,0.0,0.0,0.0
1609055146982427835,124,1609055146982427835,-0.008991371777389637,0.01713070704095672,0.0004685414289011628,6.260819006561877e-06,-2.3812947361189264e-05,-5.80367981254456e-05,0.9999999980127003,0.007887364186457895,-0.0007165500489778342,-0.0006175293479672292,0.0,0.0,0.0
1609055147082403898,125,1609055147082403898,-0.009379277269417292,0.018204932566123905,0.0004951913267940468,6.597703355220314e-06,-3.191957559779297e-05,-5.356425274265235e-05,0.9999999980342037,0.0042257680350924615,0.00305550102988996,0.0001684103978388558,0.0,0.0,0.0
1609055147182321072,126,1609055147182321072,-0.009566213072529353,0.017514970129021697,0.0005733963898595638,2.2466353253408246e-05,-1.3646596078454763e-05,-8.097302271367077e-05,0.9999999963761634,0.001054114794467425,-0.0001708908266002244,0.0002916277793213886,0.0,0.0,0.0
1609055147282403708,127,1609055147282403708,-0.010046724576715751,0.016865547481692517,0.0006525321941950972,1.2796138059440957e-05,-9.101292983169277e-06,-3.5228259183993754e-05,0.9999999992561597,-0.0020304023972733984,-0.003490263900266285,0.0006106231652810224,0.0,0.0,0.0
1609055147382420301,128,1609055147382420301,-0.010893958540739988,0.015516747002736793,0.0007434245506150897,1.448949682981799e-05,-4.341258176508143e-06,-3.6057474630569585e-05,0.9999999992354943,-0.0048242345308816634,-0.006381373252401323,0.0007658665516985073,0.0,0.0,0.0
1609055147482410192,129,1609055147482410192,-0.011585779573910137,0.015111275158364345,0.00048786084366242975,1.5730646134594583e-05,-1.5991443849132473e-05,1.071061687481335e-05,0.9999999996910128,-0.005625894406278986,-0.0062165146438338086,-0.001883486766125956,0.0,0.0,0.0
1609055147581623077,130,1609055147581623077,-0.01183193481824372,0.017446433160825926,0.0005679651713314149,4.919819411828825e-06,-1.751747240332952e-05,-5.201037977341756e-05,0.9999999984818877,-0.003457710821745319,0.004190263643416821,-0.0004823929524745646,0.0,0.0,0.0
1609055147682404995,131,1609055147682404995,-0.013061640374247988,0.01744895775088789,0.0004977783102740176,1.2074122949075905e-05,-1.9651735442135538e-05,-4.669966274341018e-05,0.9999999986435435,-0.006998267130282708,0.0025792611969119696,-0.0018416498532102283,0.0,0.0,0.0
1609055147782424450,132,1609055147782424450,-0.012859817556048213,0.01881318326314093,0.0004034533763120572,6.226528222747463e-06,-1.3272593967304983e-05,-5.0357477801124816e-05,0.9999999986245566,-0.00395610885351775,0.006691643106096731,-0.0015665464935645426,0.0,0.0,0.0
1609055147882402420,133,1609055147882402420,-0.012195120618685289,0.01693275095838294,0.0005702411749427232,1.952123770146405e-05,-1.2752193837590296e-05,-7.637681046103023e-05,0.9999999968114024,-0.0010834882702005079,-0.0018823661104068572,0.00024100314607251806,0.0,0.0,0.0
1609055147982394695,134,1609055147982394695,-0.010844644530830283,0.017137757963047253,0.0006498922511629543,1.887091140655319e-05,-6.492050441353349e-06,-4.117152792208916e-05,0.9999999989532827,0.004819712038980204,-0.00031216198798231383,-0.00018622762527982376,0.0,0.0,0.0
1609055148082374334,135,1609055148082374334,-0.010437995973673774,0.01604418817922388,0.000620332375089084,2.2558307941162492e-05,-1.2857375238725585e-05,-4.313010189171885e-05,0.9999999987327614,0.004162315422438481,-0.004861046178648601,1.777828193947744e-05,0.0,0.0,0.0
1609055148182373524,136,1609055148182373524,-0.010274375603029191,0.014876853174319676,0.0008029597396234387,2.0234788293147453e-05,-2.4406759224104683e-05,-3.936491558863882e-05,0.9999999987225926,0.003206646592023763,-0.007708960289018067,0.0011020286371876452,0.0,0.0,0.0
1609055148282317400,137,1609055148282317400,-0.009218115806574511,0.014163422788752121,0.0008231961424129126,1.934362270398345e-05,-1.2826292204493175e-05,-4.148522457242269e-05,0.999999998870102,0.00641806503977759,-0.006653603418395128,0.000475062969437726,0.0,0.0,0.0
1609055148382325888,138,1609055148382325888,-0.00945966681781386,0.01626557552691803,0.000675170992485532,6.130894405977386e-06,2.6036159189497114e-06,-4.7438326757728916e-05,0.9999999988525773,0.003621673672084561,0.0026904731621124837,-0.0011097128759015485,0.0,0.0,0.0
1609055148482305050,139,1609055148482305050,-0.009851481783752872,0.017497383806919488,0.0008994930306575981,2.6439601896637856e-05,8.566457728783876e-06,-5.933636487958748e-05,0.9999999978533375,0.0007319624887796592,0.0064214401978885585,0.000809162993119582,0.0,0.0,0.0
1609055148582317352,140,1609055148582317352,-0.010602042032808092,0.018977036917739856,0.0009495093435727598,5.275626879932271e-06,-5.011594357407441e-06,-4.759552067966582e-05,0.999999998840817,-0.0018427293373109968,0.008834318793005714,0.0009268042619607398,0.0,0.0,0.0
1609055148682345867,141,1609055148682345867,-0.009766139963673254,0.0186603233600391,0.0007950516321215724,3.570064847105414e-06,-9.80786403183106e-06,-6.885623222274465e-05,0.9999999975748973,0.0018093817913863194,0.004527835974943688,-0.0009938164607742983,0.0,0.0,0.0
1609055148782356739,142,1609055148782356739,-0.009949939460488092,0.0185588448314468,0.000730894468356194,1.8539850533611382e-05,-5.2382936192279265e-06,-4.475530256226447e-05,0.9999999988128556,-7.39135683606282e-05,0.001985886529874831,-0.0013762117072124366,0.0,0.0,0.0
1609055148882293940,143,1609055148882293940,-0.009015487848159623,0.018866099722189725,0.000892804271222867,1.746524588827312e-05,1.4061982284715168e-05,-5.9067769213211494e-05,0.9999999980040694,0.003759166778515479,0.0025933260846624047,-4.77134884258434e-05,0.0,0.0,0.0
1609055148982207775,144,1609055148982207775,-0.008872238014088648,0.020267144045055478,0.0010406335326886105,1.255868977654965e-05,2.2280543170231063e-05,-7.501713120543995e-05,0.9999999968591002,0.0028088455290575134,0.006782270128271718,0.0006892482142227788,0.0,0.0,0.0
1609055149082153559,145,1609055149082153559,-0.00998132359010076,0.02050670063459671,0.0010495417605086031,9.716612507928171e-06,1.2134394738309217e-05,-8.053148606175709e-05,0.999999996636468,-0.00233106858644514,0.004236883111600073,0.0008049783387820619,0.0,0.0,0.0
1609055149181438208,146,1609055149181438208,-0.011088937078148065,0.020022652525197977,0.0010533341109590381,1.8006992190315334e-05,3.0606815015489164e-05,-9.426748298817388e-05,0.9999999949262625,-0.005979054521688232,0.00036213540766491135,0.0008277062996509583,0.0,0.0,0.0
1609055149282285929,147,1609055149282285929,-0.010918326867138417,0.019398575222291138,0.0009132338176163207,1.570193043637284e-05,7.613448769656806e-06,-8.097192741870612e-05,0.9999999965694727,-0.002264410839340149,-0.0017935448665431664,-0.0011130264559401201,0.0,0.0,0.0
1609055149382247925,148,1609055149382247925,-0.012241987647381184,0.02012089932552828,0.0008667338146267797,2.421392722908778e-05,-3.3613650562362876e-05,-6.419062390542784e-05,0.9999999970816426,-0.005941837303444301,0.0006823773506871597,-0.0015819226968811638,0.0,0.0,0.0
1609055149482269287,149,1609055149482269287,-0.012750637334060939,0.020705322960104133,0.0005176198759877069,5.97458313889475e-06,-2.1510277777491434e-05,-9.073740493165339e-05,0.9999999956341239,-0.004979416117900667,0.0013766185217118218,-0.0036039879341581214,0.0,0.0,0.0
1609055149582281828,150,1609055149582281828,-0.012078374753262514,0.01985119338718025,0.00037040618756969127,1.1413019868473678e-05,-7.659675341584634e-06,-5.5127098459471725e-05,0.9999999983859937,0.00014967429217768898,-0.002152912949617686,-0.0027552767486765375,0.0,0.0,0.0
1609055149681496859,151,1609055149681496859,-0.011656068736411451,0.01889609274783038,0.0002893860821696092,3.492501803797556e-06,-1.9213156036533463e-05,-5.687286637617916e-05,0.9999999981920228,0.0016726478214933351,-0.005250231932118607,-0.0024698974693777966,0.0,0.0,0.0
1609055149782223225,152,1609055149782223225,-0.010266524400708823,0.020968828669946298,0.0004293218087250067,-2.324152668258192e-06,-3.828272178940119e-06,-9.660754412188094e-05,0.9999999953234183,0.006879490069890148,0.0030109071110754285,-0.0007116203505948878,0.0,0.0,0.0
1609055149882172823,153,1609055149882172823,-0.01118500223696263,0.021027232318193378,0.0004893265213470425,-1.3205481219668183e-05,-2.8659779623892596e-07,-6.399080141199365e-05,0.9999999978653109,0.0005793855864889329,0.0013421179663368073,0.00025580342088270334,0.0,0.0,0.0
1609055149982208014,154,1609055149982208014,-0.011745587984920923,0.02033053993878063,0.0005835098958097949,-1.2956801935505834e-05,2.880525047181796e-06,-4.2974313437022314e-05,0.9999999989884716,-0.0019320251535888669,-0.0019867147153624478,0.0010998310659592861,0.0,0.0,0.0
1609055150082234859,155,1609055150082234859,-0.011152879423193368,0.01976098316669504,0.0007182240150917726,-9.327096943751462e-06,-3.904926682730312e-05,-8.424753710772614e-05,0.999999995645212,0.0012537222518624205,-0.0030478715363220733,0.0016653110881821008,0.0,0.0,0.0
1609055150182242870,156,1609055150182242870,-0.011501250153999554,0.020237055253133004,0.0008615813993213979,2.0633833193820585e-05,-3.8284032798950765e-05,-8.378550413290187e-05,0.999999995544239,3.12942975416394e-05,-0.00018012457641274592,0.001228361660615892,0.0,0.0,0.0
1609055150282259464,157,1609055150282259464,-0.010374344000614598,0.02015356941728588,0.000689253165045978,9.06726867786773e-06,-2.2898508695160725e-05,-7.425191976161769e-05,0.999999996940003,0.004594006083341229,-0.000571993874372569,-0.00045267992449555356,0.0,0.0,0.0
1609055150382280588,158,1609055150382280588,-0.009450738320100136,0.01805991528070793,0.00046682893654209157,8.79867002000519e-06,-8.027605049000207e-06,-7.857696821038963e-05,0.9999999968418555,0.005464789017166375,-0.009155084707208959,-0.0026975150932367353,0.0,0.0,0.0
1609055150481418133,159,1609055150481418133,-0.009766575495803464,0.018356823129815795,0.0004371465285055431,4.129731031508058e-06,-1.8737995203613214e-05,-3.3162163830483114e-05,0.9999999992660061,0.003013628422389532,-0.004054668369291409,-0.0006092652936384132,0.0,0.0,0.0
1609055150582167864,160,1609055150582167864,-0.010307338997960123,0.01859402691836239,0.00048283165357960176,-4.864294427364695e-07,-4.808981807576031e-06,-5.497350564595222e-05,0.9999999984772292,0.0005439114216303385,-0.002863194837249166,0.00029767697256783234,0.0,0.0,0.0
1609055150682103634,161,1609055150682103634,-0.011027065965137322,0.018643676507968797,0.0005320742026976532,-5.608769928233093e-06,-2.8040181319811012e-05,-6.519386133201828e-05,0.9999999974659775,-0.0022099890262558325,-0.0017293003439528987,0.0006281787663547029,0.0,0.0,0.0
1609055150782071590,162,1609055150782071590,-0.011462934781788092,0.01809344109376275,0.0005476582380965894,1.5092033313710586e-05,-3.7366538501650946e-05,-3.9242675828247404e-05,0.9999999984179442,-0.0032096138844421186,-0.0027925747170454047,0.00023506322292757742,0.0,0.0,0.0
1609055150882137775,163,1609055150882137775,-0.01089900800571731,0.019560169754205357,0.0005630504742418624,3.326556295485772e-06,-1.6863150576915487e-05,-7.777109490883573e-05,0.9999999968280641,0.00010935584527892346,0.0034311507293638935,7.849637787301153e-05,0.0,0.0,0.0
1609055150982190132,164,1609055150982190132,-0.01103381717296739,0.0211331114384689,0.000799060993219382,8.279687046354048e-06,7.815256380641047e-06,-7.387250412593615e-05,0.9999999972065617,-0.0007092852368697808,0.007764174779100658,0.0010079203052282622,0.0,0.0,0.0
1609055151081421137,165,1609055151081421137,-0.010491579852916575,0.020508694285340492,0.0008538392406252958,1.6888876714205213e-05,2.496888133907229e-05,-4.04231645748879e-05,0.9999999987285944,0.0013889803486302568,0.002611253928863717,0.0005374613168873,0.0,0.0,0.0
1609055151182185650,166,1609055151182185650,-0.01078060186264351,0.01977529022115785,0.0008945085978824238,1.0932481082355054e-05,-1.9607775261854974e-05,-9.153474280009156e-05,0.9999999955586533,3.146798428763781e-05,-0.001958227771745204,0.0008999816651957795,0.0,0.0,0.0
1609055151282180548,167,1609055151282180548,-0.011956724888768169,0.019044294218054317,0.0007622197763583625,4.7100588101859384e-06,-2.0938448264050694e-05,-5.948485481375756e-05,0.9999999980004238,-0.00413137125198608,-0.0036012139887027987,-0.0003582560479647842,0.0,0.0,0.0
1609055151381362677,168,1609055151381362677,-0.010727108211113895,0.018622767908097186,0.0005662426933390071,6.054139607951103e-07,2.134664662376821e-05,-4.992325302493017e-05,0.9999999985257609,0.0014659731312869784,-0.0034440521273296832,-0.0022979381041963926,0.0,0.0,0.0
1609055151482099056,169,1609055151482099056,-0.010291867884667785,0.018261882618086634,0.0005819373486225226,1.4913040470072929e-05,4.214148881844894e-05,-6.554062279069892e-05,0.9999999968530107,0.002090483416897754,-0.0033001067337984206,-0.0016378287233855988,0.0,0.0,0.0
1609055151582068920,170,1609055151582068920,-0.010104923734503364,0.019193609266058134,0.0008253366779229686,3.737657632003496e-06,7.019105605556096e-05,-7.679993725430116e-05,0.9999999945804566,0.0023246707994023135,0.0012889499543595646,0.0007475294022747415,0.0,0.0,0.0
1609055151682042837,171,1609055151682042837,-0.010270600666008984,0.02095827666005048,0.0008232226302727916,-3.1581735510916544e-05,4.10261798346665e-05,-4.59201707077615e-05,0.9999999976053416,0.002686770775189996,0.007043490886190559,0.0009043668279348463,0.0,0.0,0.0
1609055151782078505,172,1609055151782078505,-0.011735453891836584,0.021337160106473803,0.0008485091654949605,1.4047488627382076e-05,-3.404460197008576e-05,-8.880140321882421e-05,0.9999999953789205,-0.001823280561170754,0.005547857948844877,0.00116221287786326,0.0,0.0,0.0
1609055151882097721,173,1609055151882097721,-0.011112514138350021,0.01934599690495142,0.0007126412793204336,2.1611616081133873e-05,-4.333538872936099e-05,-6.328471716836873e-05,0.9999999968249624,0.0014547707468404798,-0.0027884274873096124,-0.00025504410982159437,0.0,0.0,0.0
1609055151982151270,174,1609055151982151270,-0.010123362431672427,0.01943350632172258,0.0005148300518204948,-1.7162767059971583e-05,9.503526898232262e-07,-6.092885287907143e-05,0.9999999979960544,0.004442993825673624,-0.00158232229615203,-0.0021201154540262017,0.0,0.0,0.0
1609055152082099199,175,1609055152082099199,-0.009408494009266244,0.019527740292200287,0.0007041648203072256,3.896497497948372e-05,6.2655507941496e-05,-9.819327502148677e-05,0.999999992456998,0.005253953349725587,1.1073331161663962e-05,-0.0006040916694508925,0.0,0.0,0.0
1609055152181248903,176,1609055152181248903,-0.0108943137869462,0.01974178252833258,0.0008899983523519222,1.199533481912537e-05,2.0559537207983905e-05,-1.4965958410093235e-05,0.9999999996046671,-0.0011477048853876133,0.0011215649837891355,0.0013962390026306937,0.0,0.0,0.0
1609055152282023430,177,1609055152282023430,-0.011961162910012013,0.019686251962685954,0.001103373663406447,1.3188370327162932e-05,-1.3370695220376392e-05,-6.761308275560925e-05,0.9999999975378296,-0.0033527431041233406,-0.0003547264133067108,0.0023435452801441646,0.0,0.0,0.0
1609055152382028103,178,1609055152382028103,-0.0109093387926376,0.021091358255677182,0.0012388641522609663,2.9764425655930724e-05,-4.108196439417356e-05,-8.352489630827304e-05,0.9999999952249198,0.004278754788831057,0.004916752111044631,0.0020125193370979346,0.0,0.0,0.0
1609055152482002020,179,1609055152482002020,-0.011136700202433545,0.022307756122725956,0.0007734836557263208,-1.233592375510486e-05,-4.578983924225842e-05,-2.398398734059115e-05,0.99999999858789,0.003009336126214484,0.007648051513313978,-0.00233578507847708,0.0,0.0,0.0
1609055152582033396,180,1609055152582033396,-0.010095884104364286,0.021472480119820992,0.000676663615166334,1.419439996127374e-07,-1.5378856247140493e-05,-9.541982164549215e-05,0.9999999953292124,0.005537649908940706,0.0014405282187509982,-0.002628726807827917,0.0,0.0,0.0
1609055152682051897,181,1609055152682051897,-0.01099052924798519,0.021825959362047294,0.0006540963794742672,-2.3560733177639173e-06,1.0237326549650622e-05,-4.693534863404279e-05,0.9999999988433066,4.914725970533301e-05,0.002205416649938399,-0.0010836739300039045,0.0,0.0,0.0
1609055152782115936,182,1609055152782115936,-0.011379611565900295,0.021895295619408853,0.0007236462214531603,1.000436014968553e-05,1.5562422973268326e-05,-6.346412111458139e-05,0.9999999978149606,-0.00021532711483602412,0.0009257501730630604,-5.171703487096436e-05,0.0,0.0,0.0
1609055152882081985,183,1609055152882081985,-0.010270031583514173,0.02154731601240431,0.0005939361562065599,-1.1970495011931934e-05,-5.13873522135131e-05,-0.00010488145018188313,0.9999999931079103,0.004605191849254187,-0.0007671914266555589,-0.0005026097767615008,0.0,0.0,0.0
1609055152982022762,184,1609055152982022762,-0.011894317299523473,0.020993048027440564,0.0006341355725578458,2.132401272718832e-06,-1.4877103205419766e-05,-4.1463941723836355e-05,0.9999999990273793,-0.0031553941621976092,-0.002277780821298905,-0.0006997251737849268,0.0,0.0,0.0
1609055153081986666,185,1609055153081986666,-0.011309384581869376,0.020542896315944102,0.0006481654777243451,8.202677520551539e-06,1.7223312119038407e-05,-6.133010676132519e-05,0.9999999979372918,0.0006275656985360472,-0.004044296964431436,-0.0008690643423557339,0.0,0.0,0.0
1609055153181919336,186,1609055153181919336,-0.01149136607619395,0.02165313928572067,0.0007032267452959883,-4.0273365930656e-06,1.6306032863861377e-06,-9.892221203701478e-05,0.999999995097704,0.0005732124765012324,0.0016046434270876458,-3.562096843024202e-05,0.0,0.0,0.0
1609055153281872988,187,1609055153281872988,-0.012315375637750918,0.022656573003794,0.0008893333823575179,1.6911160071884666e-05,-2.1053043317587205e-05,-4.281396588925867e-05,0.9999999987188184,-0.0013108119020739757,0.004108149514917543,0.0018162366830238637,0.0,0.0,0.0
1609055153381945848,188,1609055153381945848,-0.012410823267699413,0.02268634850428469,0.0007239435153993588,1.4036845268902546e-05,-3.47869635979241e-05,-9.64054599825999e-05,0.9999999946493555,-0.00016510119649664325,0.0017855578712620288,-0.000539427604929605,0.0,0.0,0.0
1609055153481953621,189,1609055153481953621,-0.012237992293968162,0.021908670222417766,0.00020444909446086978,-1.1960259298888534e-05,-6.15155984833442e-05,-0.00010683874240551491,0.9999999923290782,0.00040897991728516364,-0.0011188784802715081,-0.0032832044827605517,0.0,0.0,0.0
1609055153582035065,190,1609055153582035065,-0.012251497598142943,0.020243891257196788,0.0003433441862674173,6.8898368413631745e-06,-2.0125034055383152e-05,-3.818398704374059e-05,0.9999999990446927,-0.0009994989052642196,-0.006370353920163878,-0.0009853593886026283,0.0,0.0,0.0
1609055153681990385,191,1609055153681990385,-0.010947905097392532,0.01970547754880201,0.0005682586705457047,3.154802935110436e-05,2.0426251867306576e-05,-0.00011003515139398329,0.9999999932398219,0.004600043053915072,-0.007324999989125224,0.00016389396371711417,0.0,0.0,0.0
1609055153781175613,192,1609055153781175613,-0.011155039232891458,0.018767504267144203,0.0004264973742203266,-1.7257493814462534e-05,-1.249795087085976e-05,-4.252483464301617e-05,0.9999999988687532,0.0029432910805967548,-0.006699730279269643,-0.0010145399467344472,0.0,0.0,0.0
1609055153881973743,193,1609055153881973743,-0.010490872992305061,0.018995211509533465,0.0006128139009123356,1.2509406644697917e-05,-1.2911163996734043e-05,-5.407209071103057e-05,0.9999999983764571,0.005449457088956375,-0.005344330428857987,0.0007925242441728453,0.0,0.0,0.0
1609055153981945515,194,1609055153981945515,-0.01092271402603345,0.01937609055538167,0.0005769154754008747,-5.240386749201623e-06,-4.524262872980764e-05,-0.00010196822190495886,0.9999999937640067,0.002664682361110658,-0.002416416837972329,0.0003216976478456373,0.0,0.0,0.0
1609055154081910133,195,1609055154081910133,-0.0120846428033058,0.01941892591888676,0.00043148912987596763,-6.488949418791379e-06,-4.408623209862805e-05,-3.745038461524671e-05,0.9999999983058276,-0.0026702722243462673,-0.0013097537567945939,-0.0011192692903546867,0.0,0.0,0.0
1609055154181909323,196,1609055154181909323,-0.010643524228504963,0.018888424769154134,0.0005680840134321221,1.6207829987413734e-05,2.96692425112042e-06,-7.492010165211187e-05,0.9999999970576855,0.0020535218690202212,-0.0038293396373827626,-0.0004834842435682955,0.0,0.0,0.0
1609055154281957150,197,1609055154281957150,-0.009933706674229346,0.01873881788351604,0.001004730856451331,1.9520911093718637e-05,4.4142839540585006e-05,-8.246910281909574e-05,0.9999999954345395,0.003588974590504743,-0.002849891190752999,0.0018122045596905378,0.0,0.0,0.0
1609055154381922722,198,1609055154381922722,-0.010366875953006428,0.019905890375222654,0.0009244614285727155,-1.0230668713370333e-05,2.709172519920028e-05,-2.986277570663301e-05,0.9999999991347374,0.0015599457859134585,0.002148703200169332,0.00064561608053824,0.0,0.0,0.0
1609055154481899500,199,1609055154481899500,-0.010153401089282352,0.021079961897972607,0.0009280256933277415,6.359970382873354e-07,-2.6287673995963747e-05,-9.864926496765934e-05,0.9999999947883822,0.0030249454097065176,0.004082017980451714,0.0006841271210831024,0.0,0.0,0.0
1609055154581883907,200,1609055154581883907,-0.00967682472075755,0.019829192886323704,0.0007610504918010265,-5.895065160131143e-06,-5.016123746254737e-05,-9.653677910155137e-05,0.9999999940648178,0.004300710074631666,-0.0008186578105090709,-0.0007524637827533875,0.0,0.0,0.0
1609055154681849957,201,1609055154681849957,-0.010950089392069469,0.01963790555365358,0.00047174346928991823,3.1776383203645142e-06,-3.731997798992908e-05,-3.8939194334224834e-05,0.9999999985403736,-0.002583728169535081,-0.0014218826180077547,-0.002570378018977486,0.0,0.0,0.0
1609055154781090736,202,1609055154781090736,-0.009593498511730568,0.01957020931280122,0.00035867248710300993,-1.3017183654206025e-05,2.5248953742359838e-05,-8.021055890311775e-05,0.9999999963795972,0.002619143755136007,-0.00014789138859381211,-0.0032577016520441123,0.0,0.0,0.0
1609055154881785870,203,1609055154881785870,-0.010262594647521012,0.018742612439086793,0.000763778831706363,2.4209998201616693e-06,4.4707793009528294e-05,-3.138016929738827e-05,0.9999999985052601,-0.0009650188316233988,-0.0036986807633571693,0.0010599556251797908,0.0,0.0,0.0
1609055154982593060,204,1609055154982593060,-0.010653742835329476,0.01703594648671982,0.0008139043389073702,-1.5467387629996553e-06,1.4477491720537428e-05,-3.4680102434764847e-05,0.9999999992925915,-0.0008701805779150076,-0.009250635640373487,0.0013828961222284901,0.0,0.0,0.0
1609055155081866980,205,1609055155081866980,-0.009316696070680183,0.017839053444467692,0.0007607207543594746,6.186872785711957e-06,-5.31690399611183e-05,-6.78555431294935e-05,0.9999999962651419,0.006203779278429548,-0.0035825659878166213,-6.251220667914345e-05,0.0,0.0,0.0
1609055155181943417,206,1609055155181943417,-0.01069256367645755,0.020905246274777557,0.0007593483594613683,2.375919844584131e-05,-6.0120717682522576e-05,-7.973105565652127e-05,0.9999999947319204,0.00023613749660285344,0.007391600705872161,-0.0008501621891681142,0.0,0.0,0.0
1609055155281135321,207,1609055155281135321,-0.011969943142267823,0.019370958493317086,0.00043913234874341886,9.164448108133472e-06,-2.660514151797424e-05,-7.128161152514995e-05,0.9999999970634971,-0.006534572743258638,-0.0005482756096777987,-0.003708143193321725,0.0,0.0,0.0
1609055155381816864,208,1609055155381816864,-0.013541263915699321,0.020628373734499644,0.00038179630729317864,-7.307704807196666e-07,4.188781782366926e-05,-7.065452604959629e-05,0.9999999966263489,-0.010328157058219363,0.004311840482406916,-0.0024872517323032417,0.0,0.0,0.0
1609055155481769085,209,1609055155481769085,-0.01321316728773436,0.02078449440468806,0.0005422312655454291,5.7672784474668914e-06,3.2904509583103865e-05,-1.5886059965729488e-05,0.9999999993157739,-0.004613538711271536,0.0036353272967076223,-0.0004852966542018091,0.0,0.0,0.0
1609055155581764936,210,1609055155581764936,-0.012025767864486758,0.01958732810947068,0.0007955137522299604,-7.774598101538261e-07,-5.207759911594001e-06,-4.522283765277653e-05,0.9999999989635259,0.0022322386880245034,-0.0023805351858687198,0.0015711632989520738,0.0,0.0,0.0
1609055155681808949,211,1609055155681808949,-0.010914796199645487,0.02011440254166774,0.0009567321132055014,2.0628902692820974e-05,-5.37915809965978e-05,-7.657437965063684e-05,0.9999999954085804,0.007112163063174158,3.651065037547398e-05,0.0021250183655901443,0.0,0.0,0.0
1609055155781791687,212,1609055155781791687,-0.010140967839417672,0.02068665288539011,0.0006248955193773029,2.0074820207349936e-06,-5.146254217721927e-05,-6.97620532467471e-05,0.9999999962403573,0.007645809097548691,0.002903247084566586,-0.0021254941298493707,0.0,0.0,0.0
1609055155881801605,213,1609055155881801605,-0.011095680528413667,0.01927442531076571,0.0006305573100702436,2.0840551355901948e-05,-1.0910938422909054e-05,-8.11173789669872e-05,0.9999999964332379,0.0003284960376832291,-0.0026939016025209882,-0.0016143221133933232,0.0,0.0,0.0
1609055155981820822,214,1609055155981820822,-0.011387822398032056,0.018538339803121383,0.000887481722027933,1.122429059546475e-05,3.795572386446124e-05,-4.123335457928335e-05,0.9999999983665351,-0.0016180295124257255,-0.004980848712854901,0.000933300051183287,0.0,0.0,0.0
1609055156081070185,215,1609055156081070185,-0.012852057748203286,0.017516528879195418,0.000941723564305281,8.045421032287536e-06,1.7947124672757008e-05,-4.1691851818239674e-05,0.9999999989374212,-0.006417711773320927,-0.006793925651945972,0.0003621018272863557,0.0,0.0,0.0
1609055156181857824,216,1609055156181857824,-0.013227353043076975,0.016964072291634814,0.0010049595213130565,1.871217650385523e-05,-3.824186070923691e-05,-7.201457420013952e-05,0.9999999965005977,-0.004537251631488697,-0.006968700132292817,0.0014089866457734847,0.0,0.0,0.0
