%time,field.header.seq,field.header.stamp,field.pose.pose.position.x,field.pose.pose.position.y,field.pose.pose.position.z,field.pose.pose.orientation.x,field.pose.pose.orientation.y,field.pose.pose.orientation.z,field.pose.pose.orientation.w,field.twist.twist.linear.x,field.twist.twist.linear.y,field.twist.twist.linear.z,field.twist.twist.angular.x,field.twist.twist.angular.y,field.twist.twist.angular.z
1609045331634266615,0,1609045331634266615,0.0014612619663148163,0.0005256352856244606,-0.00016316345593497144,-5.719548618432236e-05,-2.351832980426937e-05,-0.0001510848425816016,0.9999999866744672,0.0009372506620831848,0.0009957447780963252,-0.00016398124606178128,0.0,0.0,0.0
1609045331733877659,1,1609045331733877659,0.005429875579594356,-0.00047084453210351337,0.0008320456609746849,-3.128841082612822e-06,6.99622140872133e-05,-0.00018171737860460895,0.9999999810371465,0.039750990650539365,-0.007101762961892131,0.011223314521373222,0.0,0.0,0.0
1609045331833857059,2,1609045331833857059,0.006783593477783833,-0.00219318304460033,0.001605550976055178,5.5291898189502405e-05,4.27154596330332e-05,-0.0001892182865565753,0.9999999796573171,0.023229466975435095,-0.011190490475580767,0.00912190043381271,0.0,0.0,0.0
1609045331934235573,3,1609045331934235573,0.006445917552388185,-0.001900408805485228,0.0016012045573104735,1.8215299528769708e-05,7.055322262720744e-05,-0.00021614856594401967,0.9999999739851202,0.008962100137856203,7.059158815679589e-06,0.004199527402783494,0.0,0.0,0.0
1609045332034223557,4,1609045332034223557,0.004655532157509365,-0.0004925552204224303,0.0012696982891871513,3.358177376653427e-05,4.0940685490268706e-05,-8.991878684043344e-05,0.9999999945553673,-0.005736218582199455,0.012618171047491055,-9.3892613330703e-05,0.0,0.0,0.0
1609045332134177923,5,1609045332134177923,0.004363289294256144,0.0008674560839804902,0.0012325285218704437,2.516890196960244e-05,5.2785487622592475e-05,-7.798484371541548e-05,0.9999999952492903,-0.006491740207079245,0.017859439679688036,-0.00033072931856950637,0.0,0.0,0.0
1609045332234174728,6,1609045332234174728,0.0058738850631515505,0.0032736908073744348,0.001016214401853088,2.343787381674108e-05,5.525207272762102e-05,-0.00022470625758983008,0.9999999729524848,0.0025041057314313716,0.026487507901393526,-0.0017067681328664722,0.0,0.0,0.0
1609045332333854437,7,1609045332333854437,0.005063996432429623,0.0027887099970640003,0.0012903570909026344,5.118468432129334e-05,3.497774444746478e-05,-0.00019210856198764926,0.9999999796254917,-0.0033817731326631984,0.012117876344071445,0.0016551400119892618,0.0,0.0,0.0
1609045332434290648,8,1609045332434290648,0.0032383651734915367,0.003362765349099108,0.0014346468558412225,-5.930708872117773e-06,1.7517961755707993e-05,-0.00011385143137668137,0.9999999933478988,-0.012304845835435847,0.012396895359785866,0.0018905655280831257,0.0,0.0,0.0
1609045332534264088,9,1609045332534264088,0.0039035830422360323,0.003430925563151405,0.0010624076434709727,8.586941722883317e-07,1.6516340313921506e-05,-0.00021871083830082676,0.9999999759460191,-0.004815217653207098,0.007432728218354035,-0.00189303701068891,0.0,0.0,0.0
1609045332633856058,10,1609045332633856058,0.005438388820238371,0.003710831124889027,0.0014025550626666074,2.4639538720512684e-05,3.944886197940925e-05,-0.00012920911639330166,0.9999999905708405,0.0036612651514533407,0.007248128015920733,0.0014961961618207482,0.0,0.0,0.0
1609045332734226465,11,1609045332734226465,0.005894839292687045,0.0032511771955616906,0.0013705589403131574,2.1961470757130338e-05,3.869719826991559e-05,-0.00016031867859649899,0.9999999861590689,0.0035266335206792835,0.001648131126714131,2.731079176604759e-05,0.0,0.0,0.0
1609045332834168911,12,1609045332834168911,0.006379922007971404,0.0023900974449077555,0.0012288533329738063,5.7254210788674206e-05,4.42682833113058e-05,-0.00019513167340432823,0.9999999783429496,0.0040185973036817035,-0.002125177903105473,-0.0007555591020128364,0.0,0.0,0.0
1609045332933733463,13,1609045332933733463,0.004387254409486839,0.002334679363862225,0.0015082811602107366,4.2740546645492754e-05,2.059272975890116e-05,-0.00017699484395169388,0.9999999832110026,-0.007304146606609576,0.001283312365307558,0.0013188083429875052,0.0,0.0,0.0
1609045333033754587,14,1609045333033754587,0.004837454035729356,0.002714852058883146,0.0013007775322455171,3.359473764918724e-05,4.343827698817145e-05,-0.00019116976502836952,0.9999999802193128,-0.00318532590347435,0.004427953174108611,-0.0004462923364218869,0.0,0.0,0.0
1609045333134163380,15,1609045333134163380,0.005161273588100565,0.002488697286113486,0.0012616535013027382,3.152267173307473e-05,4.328610055989479e-05,-0.0001356832498313638,0.9999999893613423,-0.0007570897265411843,0.001934896559671692,-5.039500671521932e-05,0.0,0.0,0.0
1609045333234260798,16,1609045333234260798,0.003837242592299548,0.002574082339089813,0.0008866899467398934,6.2796122307319784e-06,2.430798150964681e-05,-0.00018245852237179185,0.9999999830392847,-0.006811330254492541,0.0028499465991654095,-0.0018820058337461361,0.0,0.0,0.0
1609045333333922863,17,1609045333333922863,0.005567591658518388,0.0023854985408872467,0.0011323744982979747,4.49191490805184e-05,5.5494490468837264e-05,-7.532462913405374e-05,0.9999999946144124,0.003070169702696834,0.0016009775976760174,0.0005220280966347752,0.0,0.0,0.0
1609045333434313536,18,1609045333434313536,0.006335644282064952,0.0011812415227798248,0.0014024905411946377,4.3608430341740094e-05,4.924222784148358e-05,-0.00017507816499033463,0.9999999825105685,0.004632826742422628,-0.004517149952429376,0.0022300969526968446,0.0,0.0,0.0
1609045333534251213,19,1609045333534251213,0.007547561800909947,6.650960000841807e-05,0.0010058241272264676,2.889279924832148e-06,3.248028048717349e-05,-5.5939628729617374e-05,0.9999999979037175,0.0075754680092772,-0.00656921773250671,-0.0012657431084193405,0.0,0.0,0.0
1609045333634147644,20,1609045333634147644,0.00875454314743404,0.0014598140820717702,0.0010470550476864898,2.816790045302165e-05,5.480366505969557e-05,-0.00018713658180831617,0.9999999805915109,0.009251905775311887,0.004650010675378095,-0.00023800373189500866,0.0,0.0,0.0
1609045333733727217,21,1609045333733727217,0.007744531692360175,0.0015868741423610156,0.001182795598488654,3.056045909952046e-05,3.6611343724102924e-05,-9.581422871039084e-05,0.999999994272648,0.0010108241730352706,0.005869417179482077,0.0006408903654900769,0.0,0.0,0.0
1609045333834091663,22,1609045333834091663,0.007817709648487336,0.0018533057717031991,0.0010540510851671052,2.1979008492627643e-05,4.575907223114041e-05,-0.00015954810476585932,0.9999999859837138,0.0008883980603002103,0.006209870992479815,4.8730444357334216e-05,0.0,0.0,0.0
1609045333934115171,23,1609045333934115171,0.00870553875734939,0.0005700890863740558,0.0008772683952527293,1.1465696569090676e-05,4.477594023384395e-05,-0.00010327015342572023,0.9999999935994619,0.004151878503839877,-0.0020048696196457005,-0.0016964691100346666,0.0,0.0,0.0
1609045334034074783,24,1609045334034074783,0.00892199840391685,0.0009894176948363018,0.0010065291196118067,3.238503679920735e-05,4.334451183131752e-05,-0.00016897538660875028,0.9999999842598886,0.003407314147421461,0.002881784313495614,0.0005247140299536317,0.0,0.0,0.0
1609045334133683443,25,1609045334133683443,0.009025816583288706,0.0012708230814359876,0.0012890673339340196,4.649136895051194e-05,6.0809957055857396e-05,-0.0002625307906644495,0.9999999626091397,0.002493297704844604,0.003924765380818065,0.0021960146507285444,0.0,0.0,0.0
1609045334234052658,26,1609045334234052658,0.009903731376672916,0.0008830818867566406,0.001466643297746749,4.842668750334593e-05,5.936913600699224e-05,-7.912167485891509e-05,0.9999999939349588,0.005173419391295918,0.0014027472967811532,0.0021542835862425557,0.0,0.0,0.0
1609045334334029198,27,1609045334334029198,0.009889185192272588,0.0010264208643280066,0.0016483725065663574,4.238726287953896e-05,5.255756016313433e-05,-0.00014154590942430526,0.9999999877028867,0.0027948573700292767,0.0032026092975640076,0.0023671824850213237,0.0,0.0,0.0
1609045334434133768,28,1609045334434133768,0.011125435752635287,0.0008486038605400216,0.0014783671576880325,5.8592128512566275e-05,6.45164700706785e-05,-0.00012034164565949514,0.9999999889612354,0.00699368116287204,0.001869445703949579,0.00046417313833553987,0.0,0.0,0.0
1609045334533760786,29,1609045334533760786,0.011365126910323637,-0.00019837622949666004,0.001448360385170955,4.633279380819522e-05,6.765708587885491e-05,-6.174022790767118e-05,0.9999999947319651,0.005481893173362652,-0.002619303155716088,0.00040222806438519214,0.0,0.0,0.0
1609045334634128809,30,1609045334634128809,0.011702869973281568,0.0003525412925928069,0.001244581781985539,6.139805833968833e-05,5.657916642776542e-05,-0.00010215493906275826,0.9999999912967201,0.0038267385941248414,0.004077778792783227,0.00010216100087600904,0.0,0.0,0.0
1609045334733697414,31,1609045334733697414,0.010403830286252407,0.00031121475792965977,0.0011872953392811423,6.330158629461809e-05,6.500184542653826e-05,-0.00014090233801508807,0.9999999859570977,-0.0036039487375487847,0.003882684175299381,-0.0002477112420206258,0.0,0.0,0.0
1609045334834057093,32,1609045334834057093,0.010631612796650815,0.0013287574519505665,0.0011481188208992991,4.088861614915076e-05,5.3356734421197165e-05,-0.00011297806294213058,0.9999999913585661,-0.001618983405481042,0.008602210603965828,-0.00014279886251156922,0.0,0.0,0.0
1609045334933672667,33,1609045334933672667,0.01099314964471479,0.0015649781352562965,0.0011899806271050335,5.278030953991704e-05,5.5265471941100444e-05,-0.00010499861545345866,0.9999999915676261,4.498971359396262e-05,0.006870881611472067,0.0003125414968921218,0.0,0.0,0.0
1609045335034033298,34,1609045335034033298,0.00997871294964279,0.0008781653161110232,0.0012556799257481609,4.6141451822585155e-05,4.9797548079686735e-05,-5.141803740788329e-05,0.9999999963736759,-0.0037031323977924115,0.0010334680502330443,0.0008634638536676714,0.0,0.0,0.0
1609045335134069443,35,1609045335134069443,0.009840829020129147,-0.00028621649064091445,0.0011282365039765592,4.373312115898584e-05,6.34763073581535e-05,-8.2632125255846e-05,0.9999999936150494,-0.0031172164314047044,-0.00371550321100148,-0.0005365762699041238,0.0,0.0,0.0
1609045335234067202,36,1609045335234067202,0.007602634436047363,-9.363647125976225e-05,0.000945822510870975,4.8029913474627656e-05,4.617813296570812e-05,-6.461794478654977e-05,0.9999999956926117,-0.011465617014245694,0.0013784097142734847,-0.0004098403201166774,0.0,0.0,0.0
1609045335334103346,37,1609045335334103346,0.007387089887534939,-5.054813888772246e-05,0.0009225298115357878,3.634016100747401e-05,4.911308469720427e-05,-9.58115025568116e-05,0.9999999935437248,-0.008216073555067213,0.0023422877728893916,0.00016860598063370163,0.0,0.0,0.0
1609045335433675528,38,1609045335433675528,0.0076058558688949975,0.0008081059311465222,0.0008572809185110029,4.754045496299418e-05,4.324931814587443e-05,-0.00012729666247139528,0.9999999898324785,-0.004729309634205025,0.0075469220589800745,0.00027074241966475404,0.0,0.0,0.0
1609045335534034967,39,1609045335534034967,0.008764402522018702,0.0007337487365993854,0.0012773191362689636,5.791404731558074e-05,5.393816542733441e-05,-6.132204169556309e-05,0.9999999949881204,0.0016546855649547205,0.004413915384373371,0.0029199724973298486,0.0,0.0,0.0
1609045335633616924,40,1609045335633616924,0.008811285778176945,0.0009226273603581623,0.0012773148960330382,4.4408731131926525e-05,3.104257509519254e-05,-0.00011530119150958944,0.9999999918849273,0.0012055012176112577,0.005289384665369757,0.00213051309111974,0.0,0.0,0.0
1609045335733986616,41,1609045335733986616,0.009080787851534764,0.0027000866209859306,0.001204191739490909,3.085712266302794e-05,3.946679223030105e-05,-7.165159451365274e-05,0.999999996178128,0.0015931771719773398,0.013091021958043434,5.5136772183537065e-05,0.0,0.0,0.0
1609045335833649158,42,1609045335833649158,0.010236108708176707,0.0023876348777414264,0.0013914425619644551,4.631808946240942e-05,5.172717912498926e-05,-0.00010929481504806183,0.9999999916167872,0.0054602651156624715,0.006700176773605551,0.00170777560572141,0.0,0.0,0.0
1609045335934047937,43,1609045335934047937,0.009039102082804633,0.0032290048048994793,0.001082538311001823,3.2618976363539793e-05,5.340971772962728e-05,-9.558623332326474e-05,0.9999999934733359,-0.0011671233704473784,0.009429606163404464,-0.0008401734711941105,0.0,0.0,0.0
1609045336034000874,44,1609045336034000874,0.009635188939523582,0.0031730213246573893,0.001241442975784128,6.056843247483309e-05,4.905509000451331e-05,-0.0001463518049316792,0.9999999862531038,0.0017968754061049054,0.005645354382747745,0.0007033421689442247,0.0,0.0,0.0
1609045336133555651,45,1609045336133555651,0.00947575178328716,0.0011481904113077818,0.0012860478922087836,5.860937063251196e-05,5.3599863258212316e-05,-0.0001684298392459949,0.9999999826616904,0.0006687666747157615,-0.006229944010718294,0.0010113551924504308,0.0,0.0,0.0
1609045336233938932,46,1609045336233938932,0.008386650986321855,0.0015082847850547085,0.0013578924659200242,5.49742271034993e-05,6.574227691115157e-05,-0.0001030155024016364,0.9999999910217947,-0.004221979936523299,-0.00048298720997180886,0.0008538885558029785,0.0,0.0,0.0
1609045336334015369,47,1609045336334015369,0.007376946264707232,0.0013357596598498225,0.0012896976213634657,4.1669228126839796e-05,4.6800755528619294e-05,-0.00013991890658005235,0.9999999882480297,-0.007364723033214634,0.0005231498817190505,0.0001511146606579013,0.0,0.0,0.0
1609045336434011698,48,1609045336434011698,0.006721748920290146,0.0008818104417141283,0.0011618618061831803,4.183955271759397e-05,5.009409437495815e-05,-4.94856782462292e-05,0.9999999966455978,-0.007280695939748913,-0.0007192245621696612,-0.0006507607029476161,0.0,0.0,0.0
1609045336534009933,49,1609045336534009933,0.006074456939753768,0.002182187786322521,0.001123436937822917,5.224628067898203e-05,4.4709882230571456e-05,-0.00011177068599186483,0.9999999913893297,-0.0077841958588076065,0.006897376961176729,-0.0001542506648872685,0.0,0.0,0.0
1609045336633953810,50,1609045336633953810,0.008414905124701196,0.0022776586880242713,0.0012333794693086466,5.32845852999934e-05,4.2971385868191714e-05,-0.00012149643456449123,0.999999990276411,0.004413509500388772,0.004852257248244318,0.0007859155284223742,0.0,0.0,0.0
1609045336733601809,51,1609045336733601809,0.011819253430538967,0.0028305195734147784,0.0011245141271455708,3.6257152487782054e-05,5.218412677118468e-05,-0.00014738617538984222,0.9999999871197718,0.016206627610949355,0.0067067450463263074,0.00027722152893648795,0.0,0.0,0.0
1609045336833993196,52,1609045336833993196,0.010632443524962005,0.0024537071877391496,0.0009242483676850107,3.597263826322474e-05,5.1043829543595544e-05,-0.00017616238334213074,0.9999999825336524,0.004672062244812949,0.0035447453427636336,-0.00044689857993595575,0.0,0.0,0.0
1609045336933983803,53,1609045336933983803,0.009051651612994899,0.0020308263135760726,0.0011533327543683976,4.020114116821904e-05,5.0908076956687565e-05,-9.712306631929904e-05,0.9999999931796691,-0.003913684948563899,0.0016593336036343207,0.00199619112261831,0.0,0.0,0.0
1609045337033953428,54,1609045337033953428,0.010436079354366572,0.0012622043890766746,0.0010114837817759928,2.3695613231100237e-05,5.349128716456552e-05,-0.00017805350981809986,0.9999999824370696,0.0032793873863201,-0.0011150347569655302,0.00040597673698932607,0.0,0.0,0.0
1609045337133954525,55,1609045337133954525,0.01051686118177532,0.001455089721115674,0.0012471890364949144,3.149714127441458e-05,3.660745608576413e-05,-9.756923841684795e-05,0.9999999940740297,0.0024748410143902617,0.001808902474574933,0.0029634024642156776,0.0,0.0,0.0
1609045337233958006,56,1609045337233958006,0.010125937525137541,0.002249044614026446,0.0015601539792085206,6.529750368940511e-05,6.572888545960256e-05,-0.00012563907052922618,0.9999999878153822,-0.0001959332337638812,0.006292034296794508,0.003205119801176375,0.0,0.0,0.0
1609045337333929539,57,1609045337333929539,0.008817101521411084,0.0018995190270843481,0.0014383932138826206,4.395191037287465e-05,4.727400019087169e-05,-9.672275715831281e-05,0.9999999932390482,-0.005352853582882335,0.0035722677031961403,0.0014485459221464797,0.0,0.0,0.0
1609045337433864594,58,1609045337433864594,0.010930487697935868,0.0020124926561366587,0.0013155763714580626,4.640729406080279e-05,7.277434230493673e-05,-0.00012849429770531658,0.9999999880197314,0.0054050531464905245,0.0034197562656807737,-0.00012375134154378963,0.0,0.0,0.0
1609045337533449650,59,1609045337533449650,0.00913767823625784,0.0012904432712568057,0.001055762239133433,4.323099937384226e-05,4.755091975858678e-05,-9.87131358973037e-05,0.9999999930628479,-0.0043671588659427414,-0.0005305891204318049,-0.0015048562955590873,0.0,0.0,0.0
1609045337633447409,60,1609045337633447409,0.01011923472990938,0.0014023569358839014,0.0011088809245071584,5.9887257564415716e-05,6.001045384206737e-05,-0.00018391060872211394,0.9999999794945688,0.0007292369515303513,0.0015218828139489425,-0.0005380640418417518,0.0,0.0,0.0
1609045337733842611,61,1609045337733842611,0.00945339224399083,0.001366122282738263,0.0009811606772227753,4.565050837211678e-05,5.5594608271642145e-05,-0.0001040106950240773,0.9999999920035164,-0.0025036695757520806,0.0013501847264899033,-0.0003952164846515677,0.0,0.0,0.0
1609045337833924055,62,1609045337833924055,0.011991863254099969,0.0038315177658017996,0.0012582458066573384,5.3459130536076534e-05,6.725526794454961e-05,-8.776889391587529e-05,0.9999999924577291,0.00801290690947286,0.013356208551877462,0.0016406821742469622,0.0,0.0,0.0
1609045337933974028,63,1609045337933974028,0.012727827371149261,0.004516356571609614,0.001187624601663915,3.5675746677570596e-05,5.808467659858247e-05,-0.00011205167753213419,0.9999999913989089,0.008231312679818116,0.012027082828975388,0.0008267808902853279,0.0,0.0,0.0
1609045338034001589,64,1609045338034001589,0.013309644062775653,0.003395623166083479,0.0016688687597952911,6.852338477055229e-05,5.905845393317637e-05,-0.00010243005051002016,0.9999999906623569,0.007297888770395953,0.0020533697098952947,0.0034224098895781177,0.0,0.0,0.0
1609045338133944273,65,1609045338133944273,0.011558927937865707,0.002999822195192097,0.0014753436502673134,4.8488834715932605e-05,5.816924295899312e-05,-0.0001314986577850412,0.9999999884866296,-0.0029569194122083834,0.0009586606773492228,1.585296312139016e-05,0.0,0.0,0.0
1609045338233917236,66,1609045338233917236,0.00893908789364501,0.002017064776190164,0.0013759438908776107,5.471709268593317e-05,5.451894539404078e-05,-9.570754394078907e-05,0.999999992436887,-0.012462739332232629,-0.003040234821329332,0.0001389673194691525,0.0,0.0,0.0
1609045338333878279,67,1609045338333878279,0.006260068142111853,0.0010893576743534132,0.001216409900468372,5.781163702492491e-05,5.0507526413191184e-05,-6.46267433221504e-05,0.9999999949650853,-0.018627505232037805,-0.0054659786505353814,-0.0007027591013258916,0.0,0.0,0.0
1609045338433815241,68,1609045338433815241,0.0063083793063120975,0.0013481129957024997,0.0011320263347576933,5.9387322635418896e-05,4.750002613216059e-05,-0.00010907731584603425,0.9999999911595069,-0.011107983456522062,-0.0008010734073994243,-0.0005023378183203091,0.0,0.0,0.0
1609045338533415079,69,1609045338533415079,0.007129595180717832,0.0006872993029021132,0.0011213503088494383,5.31256437096358e-05,3.6324198264239214e-05,-1.603970926904318e-05,0.9999999978004633,-0.0034970040259355312,-0.002137313395613764,-0.00019346781348508388,0.0,0.0,0.0
1609045338633384228,70,1609045338633384228,0.009314000012258579,0.0008634427683464633,0.0011075295371526478,7.114868377183966e-05,4.915441871795148e-05,-6.991930081096657e-05,0.9999999938164894,0.006683468985261362,0.0006330220839486306,0.00036305319524255553,0.0,0.0,0.0
1609045338733451605,71,1609045338733451605,0.010409703023267592,0.001110908510399086,0.0010294476421477976,5.8297098180903804e-05,5.3232712902069464e-05,-6.852763106174967e-05,0.9999999945358348,0.009034783505195971,0.0028846236542373477,0.0003097328912588196,0.0,0.0,0.0
1609045338833846092,72,1609045338833846092,0.011665266668436192,0.0005307586309594795,0.0010749502871626913,5.8645257400100744e-05,7.272697501808577e-05,-0.0001810324804928421,0.9999999792493705,0.010891245425011173,0.00021919797400098877,0.00040565554271665167,0.0,0.0,0.0
1609045338933432102,73,1609045338933432102,0.011978015982433988,0.00044577137637723745,0.0011181533216615635,6.168819954987707e-05,5.211977205287141e-05,-5.625452818683748e-05,0.9999999951567514,0.0072119148111635615,0.0008606373273494442,0.0012372773503275486,0.0,0.0,0.0
1609045339033821106,74,1609045339033821106,0.011871906860381228,0.0025302431396843133,0.0010478666846951853,5.945221031837669e-05,5.352903689220945e-05,-7.886448089051032e-05,0.9999999936902247,0.003589394203512734,0.011711075000759312,-0.0001764917989420086,0.0,0.0,0.0
1609045339133768082,75,1609045339133768082,0.011775794930032767,0.004025583882463642,0.0010890052080096203,4.88537109080929e-05,5.066358787551526e-05,-0.00014050804248329666,0.9999999876519916,0.0018786820802278964,0.01504439975228993,0.0009409951637292339,0.0,0.0,0.0
1609045339233780622,76,1609045339233780622,0.0119826606090222,0.003500025429290523,0.0011870263354566693,5.6754913886857275e-05,6.916458659984493e-05,-6.97980989362894e-05,0.9999999935616715,0.0017225409161205907,0.007100328577858424,0.00128074845587538,0.0,0.0,0.0
1609045339333819628,77,1609045339333819628,0.010649503201530137,0.00232858553627864,0.0010328082646484335,4.076163493445714e-05,4.9511368101572356e-05,-1.1967107129029581e-05,0.99999999787194,-0.004201569671762726,-0.0012510497518148419,0.0002996554544191861,0.0,0.0,0.0
1609045339433810234,78,1609045339433810234,0.009928589633869675,0.0013379104845115159,0.0009452613593021469,4.923922364498271e-05,4.629619903844313e-05,-7.703499473434773e-05,0.9999999947488745,-0.005024844771453981,-0.003880731873745883,-0.0002680879754235288,0.0,0.0,0.0
1609045339533368349,79,1609045339533368349,0.012181028233816766,0.00035977694845931604,0.0011974692625753853,6.231830674012392e-05,5.38162868740385e-05,-0.00010879733459167157,0.9999999906916764,0.0063451966902287075,-0.0062064718967728034,0.0011092947585034957,0.0,0.0,0.0
1609045339633709908,80,1609045339633709908,0.01075355962058239,0.0010709250700616543,0.0012401557155066933,5.8491387723391316e-05,4.323347098883334e-05,-7.572491014964126e-05,0.9999999944876697,-0.002212169171643034,0.0020363378408813967,0.0016440297148903925,0.0,0.0,0.0
1609045339733794451,81,1609045339733794451,0.010424713326136844,0.0015814923878791803,0.0014484713063497912,6.56539265013172e-05,5.837736106014324e-05,-1.7049872977880663e-05,0.999999995995462,-0.003019404044208425,0.003988856161961248,0.0027379577373862736,0.0,0.0,0.0
1609045339833410025,82,1609045339833410025,0.010823661612702061,0.00033397349511271265,0.001378805355422235,5.8205460936639615e-05,6.0399886173238146e-05,-0.00013315557054852665,0.9999999876167742,-0.00048753515225717766,-0.0028742253186781986,0.0003753405009607341,0.0,0.0,0.0
1609045339933334112,83,1609045339933334112,0.013055704875529723,0.001234468312330453,0.0011133983246556156,5.65005070739548e-05,5.877419536297931e-05,-0.00011983489565887262,0.9999999894964302,0.008599869512182787,0.004286918108666018,-0.0016002013320802861,0.0,0.0,0.0
1609045340033682823,84,1609045340033682823,0.013142463977858156,0.0013389733282511125,0.000999785025114117,4.594721901313553e-05,4.942433840529628e-05,-0.00017021982397561283,0.9999999832356378,0.004849963534156262,0.004063813852214972,-0.00046581726752791257,0.0,0.0,0.0
1609045340133725882,85,1609045340133725882,0.014938327733332113,0.002131882509959636,0.0008935712067302687,4.908759268433397e-05,6.0870082955246064e-05,-0.00012427777505755433,0.9999999892201259,0.009421885717657643,0.007262415695211815,-0.0002322066775232222,0.0,0.0,0.0
1609045340233378887,86,1609045340233378887,0.016042911448949104,0.002421503992912706,0.0010165294731433261,5.857748295533848e-05,7.041780109942422e-05,-0.00015672092978386278,0.9999999835242689,0.010031066663249188,0.0064276671147888,0.00043570285509023955,0.0,0.0,0.0
1609045340333396673,87,1609045340333396673,0.013322309466467452,0.0017149401106191042,0.0012356068899536294,6.126610877896069e-05,6.433806794887756e-05,-5.754548685174947e-05,0.9999999943977848,-0.005070425264872624,0.0012912974737138072,0.0019400938773054721,0.0,0.0,0.0
1609045340433444262,88,1609045340433444262,0.012701137846643682,0.0006453202014463754,0.0013586219109229607,7.02730304461416e-05,5.487260976572521e-05,-8.895410692278852e-05,0.9999999920689197,-0.005490367521662873,-0.003621925756134673,0.002796207556207744,0.0,0.0,0.0
1609045340533825397,89,1609045340533825397,0.012431310446951163,5.124041993895901e-05,0.0011654460472590926,4.9947246993664035e-05,4.763755320364824e-05,-0.00012142319612339334,0.9999999902461593,-0.004269115200027099,-0.0031469241379159037,0.0009662758141230914,0.0,0.0,0.0
1609045340633383989,90,1609045340633383989,0.011551357181996829,0.0005829437079195955,0.0009823794741629643,4.0792314107942644e-05,4.775760247975651e-05,-6.711591767566066e-05,0.999999995775314,-0.006259149791001101,0.0022680396445712127,-0.0004494295853819663,0.0,0.0,0.0
1609045340733730316,91,1609045340733730316,0.012539209281702199,0.0018045969291557195,0.001209082818285991,6.418605798325298e-05,7.262160455729213e-05,-0.00011112067410978127,0.9999999891292118,-5.3094827055268946e-05,0.00831227484994795,0.001436848565955979,0.0,0.0,0.0
1609045340833725929,92,1609045340833725929,0.013820375568780026,0.0018698897407866304,0.001395283305351217,6.313102774837143e-05,5.500372049899587e-05,-0.0001645544697797441,0.9999999829554331,0.005357928553222453,0.005605630847566488,0.0015190793399322148,0.0,0.0,0.0
1609045340933748245,93,1609045340933748245,0.014104563104996932,0.0012861445372692808,0.0011462829737883574,4.5385265087967616e-05,5.129766157540301e-05,-5.391026419927854e-05,0.9999999962011936,0.004577971910702186,0.00228877051895682,-0.0011336012910888795,0.0,0.0,0.0
1609045341033715963,94,1609045341033715963,0.013115962411582015,0.0007022355902775206,0.0009163715195186662,3.791287873333862e-05,5.836888691718235e-05,-6.444726664911711e-05,0.9999999955011062,-0.0009774435391369726,0.00042325516053558004,-0.0017581785761737814,0.0,0.0,0.0
1609045341133682728,95,1609045341133682728,0.013308658920129845,0.0018513456525797248,0.001143083168698204,6.221181427575429e-05,5.4160853760593374e-05,-9.41091773565015e-05,0.9999999921698647,-5.520750384384863e-05,0.006272784080443475,0.001282868353517241,0.0,0.0,0.0
1609045341233607531,96,1609045341233607531,0.015412844027164543,0.0010048227339736616,0.0013122386849682257,4.770944409272933e-05,5.421075915056442e-05,-0.00016067643590591616,0.9999999844840296,0.00888914164775094,0.00018324808121915684,0.002189361824112863,0.0,0.0,0.0
1609045341333629847,97,1609045341333629847,0.016250286722965194,0.002194480008357385,0.001329423573959124,4.764449523542427e-05,6.406546652684837e-05,-0.00015896538962816023,0.9999999841777989,0.008835456855787583,0.007417673456208839,0.001403435749459562,0.0,0.0,0.0
1609045341433165789,98,1609045341433165789,0.014511807546331731,0.0023742577624020203,0.001011475278386186,4.085880427015769e-05,6.91928757490339e-05,-8.201822391663712e-05,0.9999999934079453,-0.0015040350217553084,0.006474577673058039,-0.0004371609655964639,0.0,0.0,0.0
1609045341533604145,99,1609045341533604145,0.014597591204343535,0.0023708371647534047,0.0010732967674302952,2.2643206853207845e-05,6.476631566673372e-05,-0.00010686698543504635,0.9999999919360164,-8.32029189581485e-05,0.005071070170026271,0.0007800148009149802,0.0,0.0,0.0
1609045341633643150,100,1609045341633643150,0.016381804203431712,0.0036397554369203347,0.001360910281004045,4.529052380131003e-05,7.267252754186056e-05,-0.00014784674319368526,0.9999999854043937,0.006821175993103722,0.010498802061589554,0.0028482901088429744,0.0,0.0,0.0
1609045341733671188,101,1609045341733671188,0.016574080809031055,0.0036961085964782162,0.0018434607205451434,6.784741333180207e-05,7.194788066921768e-05,-9.11952066573318e-05,0.9999999909518202,0.004871113261944236,0.007029397582216825,0.004399978990548616,0.0,0.0,0.0
1609045341833660841,102,1609045341833660841,0.01609791594471847,0.0013625999596798327,0.0018516273266784167,6.183726574194695e-05,5.895127676196315e-05,-0.00013468504549132902,0.9999999872804063,0.0010680922785081541,-0.00653671338214643,0.001946509350615985,0.0,0.0,0.0
1609045341933282375,103,1609045341933282375,0.01643954956151593,-0.0002560121728011044,0.0012379963288608898,5.0156464542897665e-05,6.944972525706138e-05,-0.00014695744519903936,0.9999999855322749,0.002053485058072226,-0.00957245955570488,-0.00237165226699914,0.0,0.0,0.0
1609045342033227205,104,1609045342033227205,0.015283498200671347,2.091878235352792e-05,0.00125637717785572,6.397492872237007e-05,7.275036593799722e-05,-0.0001704324218869287,0.9999999807836787,-0.0034369621127746616,-0.0034787990343815587,-0.00013768027910911933,0.0,0.0,0.0
1609045342133602858,105,1609045342133602858,0.015360207186582358,0.00027830840597274024,0.0012299859347691072,5.174606134116602e-05,6.042111278336701e-05,-0.00010804610958431013,0.9999999909988241,-0.0018617744049482289,0.0005152752808536185,0.00024516160434941094,0.0,0.0,0.0
1609045342233207703,106,1609045342233207703,0.014888697074504336,0.0011045536962958392,0.0011422328492589006,4.845673030016436e-05,6.005793243670207e-05,-0.00011259860140671007,0.9999999906832602,-0.003435748230441399,0.006115785255873974,-0.00040667780616865265,0.0,0.0,0.0
1609045342333560944,107,1609045342333560944,0.01365560220516856,0.0015024394089339687,0.0011650262373949652,5.426026263927542e-05,5.404817866551989e-05,-0.00010236195049598504,0.999999991828312,-0.007350267184406806,0.0064665064701478,-4.455337833644845e-05,0.0,0.0,0.0
1609045342433207989,108,1609045342433207989,0.01082516189334074,0.0012774112664879326,0.0014102385717209578,5.831837577721706e-05,4.8428952768302775e-05,-0.0001065916509035346,0.9999999914458997,-0.015769999236962762,0.003209686226890766,0.0011820749891654724,0.0,0.0,0.0
1609045342533601046,109,1609045342533601046,0.013412723074791242,0.0016920109366475558,0.0013361887893191412,5.3372267089276257e-05,5.869202020156472e-05,-7.98796292546417e-05,0.9999999936629345,0.00013441514038624314,0.005247128059471506,2.5620717442457726e-05,0.0,0.0,0.0
1609045342633659840,110,1609045342633659840,0.014265463068800624,0.0021420531672491027,0.001507555035445022,5.596762692416136e-05,6.774400250453966e-05,-0.0001429597600601554,0.9999999859204283,0.002917732451381474,0.006068895916332451,0.0017078545688246271,0.0,0.0,0.0
1609045342733266354,111,1609045342733266354,0.014650490302221496,0.0019061255167413314,0.0012868065092770148,4.585508501122968e-05,6.850988950022011e-05,-8.425352494308261e-05,0.9999999930525121,0.0034562192486012025,0.003546576748081831,-7.552961185065062e-05,0.0,0.0,0.0
1609045342833655834,112,1609045342833655834,0.015933606058828678,0.003047251490359531,0.0014269256629660372,5.070675141168536e-05,7.172712024297038e-05,-0.0001289131213193222,0.999999987832713,0.006796658948223285,0.009135285548750023,0.0010558437263907372,0.0,0.0,0.0
1609045342933616161,113,1609045342933616161,0.015241487002167422,0.0030104279615019995,0.0012189139775661193,4.314420826009968e-05,7.569151867463443e-05,-0.00016641439571112433,0.9999999823577967,0.001098190020428374,0.006037271715056269,-0.000699346023842402,0.0,0.0,0.0
1609045343033575058,114,1609045343033575058,0.014660986002851192,0.002246719981376905,0.0012719504510880814,4.35245029666483e-05,6.409785778546399e-05,-0.0001634515173357278,0.9999999836403286,-0.0018185562634288454,0.0006400149678251442,0.0005569020366168241,0.0,0.0,0.0
1609045343133574247,115,1609045343133574247,0.015935702744086296,0.0015292135400947482,0.001342127022588239,5.101441776206793e-05,6.67638339381323e-05,-0.00019613451121700318,0.9999999772356728,0.0038059046902617225,-0.002807692609100856,0.00083878836905283,0.0,0.0,0.0
1609045343233563662,116,1609045343233563662,0.01587846078392735,0.002641898928880803,0.0014644989479295854,4.737713668853158e-05,8.404460497997115e-05,-0.0001235974948093249,0.9999999877077717,0.001863200789943226,0.006060794176264899,0.0021303168380350443,0.0,0.0,0.0
1609045343333574295,117,1609045343333574295,0.014792973625580031,0.0025013253324005775,0.0012893082097264654,5.177231444579677e-05,7.682208051360398e-05,-0.00013913980011842704,0.9999999860290417,-0.003521104102694514,0.0037119119851217806,-0.0003988829208001769,0.0,0.0,0.0
1609045343433518648,118,1609045343433518648,0.014434261933449672,0.0013969838818745383,0.0013146264359045862,6.374324883249353e-05,7.142619954812634e-05,-9.724621140249635e-05,0.9999999906891214,-0.0036784146502516985,-0.0029108634583746725,0.0004884525408501845,0.0,0.0,0.0
1609045343533510447,119,1609045343533510447,0.013245067900612277,0.0021366998463036675,0.001450665829589801,6.288631302891879e-05,7.081524045421084e-05,-0.0001787007991316314,0.9999999795482546,-0.007206075120252181,0.002920791836118231,0.0010422503603976768,0.0,0.0,0.0
1609045343633079052,120,1609045343633079052,0.014061776354145154,0.0025043462938690647,0.0009617738756721498,2.981885695667677e-05,6.613478794695471e-05,-0.0001659375571821096,0.9999999836008618,-0.0011273451035813589,0.004410809707017434,-0.0016386634914927866,0.0,0.0,0.0
1609045343733448982,121,1609045343733448982,0.013481050995868537,0.0020572320888061434,0.0009251308701693722,4.103259178294111e-05,5.9788700154324076e-05,-0.00011922842407138286,0.9999999902630959,-0.002845762867241794,0.0016411012327019851,-0.0005776300328713189,0.0,0.0,0.0
1609045343833493948,122,1609045343833493948,0.01437820385863988,0.001604766539349665,0.0012475119249182088,5.5883688807260375e-05,6.974105893964854e-05,-0.00013790067700325333,0.9999999864982857,0.0016375254569834428,-0.0008169730445420377,0.0012902772499365344,0.0,0.0,0.0
1609045343933466196,123,1609045343933466196,0.015073627971143554,0.0024248976464321297,0.001121253594831018,3.299753922194598e-05,6.131067226308492e-05,-7.947374003147463e-05,0.999999994418029,0.0036456895391550996,0.004448530688611648,0.0001168660585766884,0.0,0.0,0.0
1609045344033510447,124,1609045344033510447,0.014728028247270292,0.004404013678495465,0.0014676563926666532,5.2489929807584725e-05,7.028063469804241e-05,-0.00020822731999096435,0.9999999744733955,0.0007471352724700651,0.013331208146373247,0.0033305188003522005,0.0,0.0,0.0
1609045344133503437,125,1609045344133503437,0.013964283223301286,0.003370969629854465,0.0014821155058562766,5.29159486968148e-05,6.085298453152163e-05,-0.00014601836039175708,0.9999999860877118,-0.0026708625486811704,0.003102184261557865,0.0017799525301862612,0.0,0.0,0.0
1609045344233507395,126,1609045344233507395,0.017062606131226697,0.002763998426124994,0.0011561737971898724,4.301632807357189e-05,8.752643285221941e-05,-0.0001876539451788243,0.999999977637342,0.010228469512211685,-5.609976927634444e-05,-0.001379734011170819,0.0,0.0,0.0
1609045344333471775,127,1609045344333471775,0.017000003042173646,0.002795275368428657,0.0009540222743377381,4.010602256649755e-05,7.513097504448781e-05,-0.00016777732929445174,0.9999999822987896,0.005959604248141445,0.002331497760148774,-0.0014123888815739884,0.0,0.0,0.0
1609045344433473587,128,1609045344433473587,0.015560437973292074,0.0019908217778837355,0.0009485271477655056,4.338246510688842e-05,7.290841240978971e-05,-0.00012275451156693168,0.9999999888668114,-0.002480836437018295,-0.0010286610943814763,0.0006563422667108415,0.0,0.0,0.0
1609045344533505201,129,1609045344533505201,0.01388487699641421,0.0024106266739652668,0.0012685325896908601,5.2077042741968334e-05,7.612194736925844e-05,-0.00011669480152674307,0.999999988937861,-0.008235522148163041,0.0021536010945265613,0.0028757602710234474,0.0,0.0,0.0
1609045344633117199,130,1609045344633117199,0.01450298028882274,0.003789702613542687,0.0011470547332742063,4.033351224642585e-05,7.564013118456264e-05,-0.00011440215801071091,0.9999999897819464,-0.0031030928615081886,0.008720699789862464,0.00040553573124482733,0.0,0.0,0.0
1609045344733502388,131,1609045344733502388,0.014192015969497344,0.004086536750820539,0.0011129102996619,3.9010873735492216e-05,6.495935091411915e-05,-0.00010007260968838633,0.9999999921219379,-0.003132065746883235,0.007445829887090541,0.0004915908218825983,0.0,0.0,0.0
1609045344833082676,132,1609045344833082676,0.013105184830774937,0.002962503877204111,0.0010621703308698615,3.7083062729939946e-05,6.361987531129034e-05,-9.944410040109658e-05,0.9999999923440988,-0.006253946725844541,-4.599932572386164e-05,0.000774694080595833,0.0,0.0,0.0
1609045344933494806,133,1609045344933494806,0.013868112848863709,0.002547360554448376,0.0011564696670765707,4.813068022131656e-05,7.631717557719519e-05,-0.00013722616045044918,0.9999999865140381,-0.0008325963284175897,-0.0008996005472075147,0.0003669866601287063,0.0,0.0,0.0
1609045345033488035,134,1609045345033488035,0.015528770967566712,0.002656185584411977,0.001325863439423223,4.5256441732928896e-05,7.534629016932663e-05,-0.00015789416510145603,0.9999999836720957,0.0063541691883419165,0.0009000668644849911,0.001959992812555129,0.0,0.0,0.0
1609045345133445740,135,1609045345133445740,0.016045474019282614,0.0029615316848458544,0.001224114709834578,4.3648907797214265e-05,7.440276007385445e-05,-0.00012139827180234962,0.999999988910714,0.006567875767414415,0.0037167423961505077,0.0008289896429363812,0.0,0.0,0.0
1609045345233447552,136,1609045345233447552,0.015461647568401212,0.0028986686484104426,0.0010200364605659627,2.771716403613657e-05,7.929953834539082e-05,-0.00010594973975269546,0.9999999908589805,0.0016456795483653554,0.003630768198287231,-0.0004573378924078626,0.0,0.0,0.0
1609045345333406925,137,1609045345333406925,0.01552875937661727,0.004177723333939428,0.0008887804924069559,2.209906005450704e-05,6.990385070014571e-05,-4.657100768503842e-05,0.999999996228096,0.0017024006407131496,0.009801824050490161,-0.0004735868660931888,0.0,0.0,0.0
1609045345433429718,138,1609045345433429718,0.014343960497393808,0.0026911039375032814,0.0011955060168668292,4.0279862165403305e-05,7.132536363993748e-05,-9.342528249239031e-05,0.9999999922809547,-0.0031943349902993634,-0.0011564931814123675,0.0028633191825378364,0.0,0.0,0.0
1609045345533440351,139,1609045345533440351,0.01496048115316994,0.0021714014072548057,0.0012607307026608508,4.159533783976395e-05,7.032547200613213e-05,-0.00013681378386631401,0.999999987303056,0.0003144629660987129,-0.002330343808743954,0.002447288915776558,0.0,0.0,0.0
1609045345633023500,140,1609045345633023500,0.011782398704149908,0.001751179851204602,0.0011241390679818202,3.876473514982883e-05,6.379419149812131e-05,-6.789565330896477e-05,0.9999999949088719,-0.012744280325339676,-0.0013417574830275713,0.000916018219107913,0.0,0.0,0.0
1609045345733378172,141,1609045345733378172,0.01197450172463051,0.0013293807301219009,0.0011459250117079045,4.633714022603069e-05,6.992578990823614e-05,-0.0001112904440592548,0.9999999902888282,-0.006938309780310146,-0.0013847141960824831,0.0005108944221746119,0.0,0.0,0.0
1609045345832983255,142,1609045345832983255,0.012227012808079378,0.0021252159482551603,0.001235726627626305,6.246080821220045e-05,7.568459655564286e-05,-0.00014227370476482264,0.999999985064324,-0.003621534948434347,0.0037952417672882017,0.0008343875147735013,0.0,0.0,0.0
1609045345933364391,143,1609045345933364391,0.013846154174361061,0.002339418885391166,0.001240431766480438,4.8226986258556197e-05,7.241127828583414e-05,-8.84133609543258e-05,0.9999999923069042,0.0038705365974234483,0.004355745797146753,0.0012247096179570677,0.0,0.0,0.0
1609045346033399820,144,1609045346033399820,0.015219365865086576,0.0031108774993612396,0.001033923002490978,4.171382213530376e-05,6.552296112183528e-05,-8.660211484409582e-05,0.9999999932333692,0.007885326088839613,0.007327386910320716,-0.0003358858421284492,0.0,0.0,0.0
1609045346132992744,145,1609045346132992744,0.01426105506341886,0.003526188093791176,0.0007348527940408089,2.367894040688303e-05,6.810888873033805e-05,-0.00012951164098308206,0.9999999890135941,0.0009859904626638005,0.0066276470352190486,-0.001421364589138125,0.0,0.0,0.0
1609045346233362198,146,1609045346233362198,0.015336571847645654,0.0036754458239295416,0.0006858929128520769,2.406698010563346e-05,6.785793988490662e-05,-0.0001396491596913841,0.9999999876570801,0.0048754253851761315,0.004822847876958041,-0.0005576717270681653,0.0,0.0,0.0
1609045346333378315,147,1609045346333378315,0.0148409912260267,0.002719297542257585,0.0006790230359057847,2.951425678633704e-05,7.053252179303617e-05,-0.0001184706622667156,0.9999999900593709,0.001046603960406288,-0.0009097455206087445,6.479588310098099e-05,0.0,0.0,0.0
1609045346432999372,148,1609045346432999372,0.014426911516954634,0.002169241746829872,0.0007902181319671187,4.7978584723464445e-05,6.810965056303742e-05,-8.823882680196931e-05,0.9999999926365037,-0.001045881187118057,-0.000985197208511672,0.0011593497974888463,0.0,0.0,0.0
1609045346533389091,149,1609045346533389091,0.014055954786531297,0.0013341470466595722,0.0010985788907256963,3.908462799792005e-05,6.967539996177057e-05,-6.521201275745511e-05,0.9999999946825452,-0.0018512883580209386,-0.004135343268474442,0.0025612084631193074,0.0,0.0,0.0
1609045346633351803,150,1609045346633351803,0.014316810621940948,0.002209941180113024,0.0009078946957881552,3.131340517763302e-05,6.663648575334882e-05,-4.038522804207488e-05,0.9999999964740246,-0.0004899083651919113,0.0029229125717870298,0.000720054145367164,0.0,0.0,0.0
1609045346733332872,151,1609045346733332872,0.014536260132994822,0.002666364468381561,0.0006013733162676798,2.033690843332339e-05,6.143720163485203e-05,-6.451348090454024e-05,0.9999999958249284,0.0008463394675903161,0.004916342284356142,-0.000854149298817165,0.0,0.0,0.0
1609045346833348513,152,1609045346833348513,0.01484457962299662,0.0025751416994371,0.0007955334027486725,3.282631096173057e-05,6.0420896121571276e-05,-8.335050842985054e-05,0.9999999941622032,0.0017397179621581984,0.0034911072354471186,0.0020045536862170893,0.0,0.0,0.0
1609045346932919264,153,1609045346932919264,0.014270808770521098,0.0027930290376873552,0.0010185620167651218,3.369061415901364e-05,6.14135217863472e-05,-0.00010892453950335128,0.9999999916143666,-0.0015997138973488298,0.004547251316354675,0.003684711991411012,0.0,0.0,0.0
1609045347033307076,154,1609045347033307076,0.013935792475631224,0.002087320366632208,0.0013130787941176955,6.0638526190337556e-05,7.20735462629178e-05,-9.397964647677892e-05,0.9999999911480828,-0.002359612013305875,-0.0002217071132126526,0.0036806353301613907,0.0,0.0,0.0
1609045347133301258,155,1609045347133301258,0.015005377658052833,0.0010716122855035056,0.0009803511670211206,3.245850953374171e-05,5.93938380584854e-05,-0.00015042059945557357,0.9999999863962133,0.002811803922730076,-0.0035928429693962644,-3.7465592447455225e-05,0.0,0.0,0.0
1609045347233282089,156,1609045347233282089,0.01600920084052876,0.002219735028477699,0.0010133475024214768,3.8988854271676686e-05,7.896888465354112e-05,-0.00014664904033474208,0.9999999853689049,0.0055705549310943415,0.004829920278993588,0.0007384198562165914,0.0,0.0,0.0
1609045347333236933,157,1609045347333236933,0.015043763817273327,0.002896272977876323,0.0008734883122194322,3.620783601547464e-05,6.571403069565561e-05,-9.563262505820799e-05,0.999999992612513,-0.000527440028147602,0.00684154426696691,-0.0004785027981713504,0.0,0.0,0.0
1609045347433240414,158,1609045347433240414,0.013962661634839186,0.0038516754278796065,0.001135106416997594,4.646548379523288e-05,7.595841830232876e-05,-0.0001188938666451146,0.9999999889677457,-0.004159188595492384,0.009141725581464569,0.00213879359249303,0.0,0.0,0.0
1609045347532793999,159,1609045347532793999,0.014071550666762658,0.004295098480948897,0.001133345789877398,3.0260935660059676e-05,6.216068871020069e-05,-0.00015950663247005895,0.9999999848889621,-0.00190693523224341,0.008997622411478945,0.0010550673272071475,0.0,0.0,0.0
1609045347633229256,160,1609045347633229256,0.017262419913849785,0.005046558138729094,0.0011829227905969621,4.1538246186854486e-05,8.33391414278507e-05,-0.00020722030380477196,0.9999999741944361,0.011531968119684335,0.009255789675932088,0.0010360233263737991,0.0,0.0,0.0
1609045347733255625,161,1609045347733255625,0.016892469098388242,0.0037253912862689775,0.0009122368485962796,3.565952137710339e-05,7.482310008208452e-05,-0.00015270540471906265,0.9999999849054634,0.004718687310820074,-0.0009135880170169954,-0.0014196647143894204,0.0,0.0,0.0
1609045347833230495,162,1609045347833230495,0.016989319699421954,0.0025284962237030655,0.0008742749507895189,3.678267778080203e-05,7.423732817103332e-05,-6.53550948062723e-05,0.9999999944322651,0.0036641233053302056,-0.0048368789479897815,-0.0005888593755613012,0.0,0.0,0.0
1609045347933256388,163,1609045347933256388,0.015882126124974673,0.0013473789109789132,0.0008449794309081017,5.0385628851114654e-05,7.86127814032973e-05,-0.00012874066109783123,0.9999999873535633,-0.0023931831574128077,-0.006960035941280453,0.00025118613373917753,0.0,0.0,0.0
1609045348033252954,164,1609045348033252954,0.015529733061865067,0.0024032972408627924,0.0008359112318176974,4.7143641282914994e-05,7.207969127414846e-05,-0.0001425121702984243,0.9999999861361206,-0.003171361092318548,0.0026012292346683057,0.0007889891700754316,0.0,0.0,0.0
1609045348132873535,165,1609045348132873535,0.014675647846023918,0.0010785633665151653,0.0008168244411318289,4.354934679598811e-05,6.245147872764101e-05,-9.204466429862409e-05,0.9999999928655054,-0.0050652053066066755,-0.003484993918713176,0.0009759961096238985,0.0,0.0,0.0
1609045348233250856,166,1609045348233250856,0.014595670885052751,0.0018891343857034544,0.000767351248824593,3.376224462188097e-05,6.440801397526926e-05,-0.00010297243408043858,0.9999999920541797,-0.0034645740555967162,0.0035120167889229575,0.0003547725994524784,0.0,0.0,0.0
1609045348332832336,167,1609045348332832336,0.014064559148143151,0.0026637355612230402,0.0008263373433872221,3.6892656093019864e-05,8.089633065899512e-05,-0.0001383274189315687,0.9999999864801021,-0.004361013938281597,0.007009286342858551,0.0010303240740001198,0.0,0.0,0.0
1609045348433150768,168,1609045348433150768,0.014545536477165543,0.0014446976565941254,0.000847667402645565,5.4077644140933664e-05,6.18308505615882e-05,-3.890790991802167e-05,0.9999999958693455,-0.0005644460628402605,-0.0013448712519163845,0.0012818610663642024,0.0,0.0,0.0
1609045348533159256,169,1609045348533159256,0.013389846880154987,0.0022957619399457388,0.0008790804013253293,4.3415361873876286e-05,6.36471709975528e-05,-4.672356842477965e-05,0.9999999959405075,-0.004721306571456456,0.004188853099441839,0.0014232369274259618,0.0,0.0,0.0
1609045348633211374,170,1609045348633211374,0.012456589271850194,0.0025302250618262456,0.0010760442579457975,4.8922539430996206e-05,6.956453606457836e-05,-0.00013444656491313128,0.999999987345722,-0.006929778106489848,0.00507637847738932,0.0019215677848783506,0.0,0.0,0.0
1609045348732811928,171,1609045348732811928,0.014169758206940625,0.0018509132396900612,0.0013282488386972676,5.587819604885651e-05,7.848919379138375e-05,-0.00016734257783822344,0.9999999813567487,0.0030665588604555268,-0.00028192520260837944,0.0023347037504814175,0.0,0.0,0.0
1609045348833230019,172,1609045348833230019,0.013825478392692594,0.001401566319412242,0.0014593710481479293,6.110755606164655e-05,6.589257382997933e-05,-0.00016189478390753772,0.9999999828570385,0.0003239880288561244,-0.0011722856411182493,0.0023424533086847566,0.0,0.0,0.0
1609045348933183908,173,1609045348933183908,0.015083391548153347,0.002442304229700041,0.0012405851542875998,4.560691381014176e-05,7.318430753969305e-05,-0.0001473451499700575,0.9999999854267184,0.004816628969157157,0.0047317803212434785,-0.0005266884350517821,0.0,0.0,0.0
1609045349033185244,174,1609045349033185244,0.014497389225537697,0.0006732421506548717,0.001061198651717618,5.603199434845694e-05,6.465652678464526e-05,-0.00012611717094069085,0.9999999883871862,0.0005565686744151213,-0.00429723375240386,-0.0005527048557861003,0.0,0.0,0.0
1609045349133191347,175,1609045349133191347,0.01421706348558463,0.0009900660109704157,0.0010245228515437937,4.781644458184774e-05,7.482300760496882e-05,-8.755554831590102e-05,0.9999999922245479,-0.001384959036497724,-0.00028558066514616873,-0.00017771350512158803,0.0,0.0,0.0
1609045349233205795,176,1609045349233205795,0.014136006931622336,0.0006363012419200145,0.0010095099816082628,5.059362689923607e-05,6.978364203461818e-05,-0.00011992439269840804,0.9999999890943156,-0.001316163191301025,-0.00024062969659043585,0.00034384461256347775,0.0,0.0,0.0
1609045349333194494,177,1609045349333194494,0.01285325220053876,0.0008042250497686313,0.0008472529321574089,4.9751287989649135e-05,6.374763140455887e-05,-8.112935152866994e-05,0.9999999934395201,-0.005702313869832178,0.001864044436211985,0.0004646350757659583,0.0,0.0,0.0
1609045349432717562,178,1609045349432717562,0.013722191458481501,0.0009142606971842943,0.0009662689846998128,3.60109959225903e-05,6.303135356380738e-05,-8.677118311731271e-05,0.9999999936004902,0.0002513732581381576,0.003093135529086457,0.0013979652693417006,0.0,0.0,0.0
1609045349532734871,179,1609045349532734871,0.014515135461586035,0.0006813500307609235,0.0008095209912632402,4.2285380968492544e-05,6.759921547672858e-05,-8.415667561477444e-05,0.9999999932799545,0.003399826930368518,0.0010291177544915536,0.0004315729152958316,0.0,0.0,0.0
1609045349633163691,180,1609045349633163691,0.014257299476769977,0.0013414758568508342,0.0008352174733590364,3.219301385606777e-05,5.741864187611407e-05,-8.893985657812964e-05,0.999999993878187,0.0007282733934950406,0.005375971644543792,0.0010814325296213477,0.0,0.0,0.0
1609045349733167171,181,1609045349733167171,0.013724206489045165,0.0013472566981223629,0.0008899362859254533,3.452056012182283e-05,6.91901321238233e-05,-0.00010373340953962181,0.9999999916301995,-0.0015972625064862712,0.004197572531049878,0.0011710941709041208,0.0,0.0,0.0
1609045349833175182,182,1609045349833175182,0.01204271239298021,0.001394133810996181,0.0010480709494284383,5.7110621146263385e-05,5.684502657126186e-05,-9.54556822200186e-05,0.9999999921975974,-0.007511219515335609,0.0033931823293815934,0.001789441285976435,0.0,0.0,0.0
1609045349933181047,183,1609045349933181047,0.012812052673111257,0.001661126714151997,0.0009365824327790448,4.2511484382811496e-05,9.665778196904084e-05,-7.725416767321647e-05,0.9999999914409003,-0.0012966091710257532,0.0043370927116370495,0.0004558656854624233,0.0,0.0,0.0
1609045350033188343,184,1609045350033188343,0.012824509035134874,0.0013557202797539667,0.0010426555230572008,6.567455883074243e-05,6.715462033523399e-05,-9.096596588961198e-05,0.999999991451131,-0.0008207769543009746,0.0018073139724152456,0.0008375510570806514,0.0,0.0,0.0
1609045350133138895,185,1609045350133138895,0.013234029267256435,0.0018198337738685095,0.0010953365584394316,5.091891891252047e-05,7.432736104452194e-05,-9.195614917872994e-05,0.9999999917133668,0.0008562401643434141,0.00415967227691642,0.0009894139919907634,0.0,0.0,0.0
1609045350233119249,186,1609045350233119249,0.012801520773200431,0.0027128803707267154,0.0010455532143975705,3.8430763325117344e-05,5.846069795489863e-05,-0.00014146272146700167,0.9999999875468406,-0.0015253582536235496,0.007462037160655251,0.0002489547631407738,0.0,0.0,0.0
1609045350333093405,187,1609045350333093405,0.013923464809857037,0.0023762573943739407,0.0009612747894668852,4.056502523221169e-05,6.586246396034738e-05,-0.00010353617982255883,0.9999999916484164,0.0031345397362675053,0.003118162194083866,-0.000685996051931852,0.0,0.0,0.0
1609045350432652473,188,1609045350432652473,0.015186642342293059,0.0013009240704666641,0.0009835237692831322,3.795794899673491e-05,5.856198009191418e-05,-7.49450164030387e-05,0.9999999947564459,0.00660594452899722,-0.002562984222556044,0.0006724856768530859,0.0,0.0,0.0
1609045350532962799,189,1609045350532962799,0.0159512799986402,0.000937436542445156,0.0010045038302495585,5.182661082643241e-05,7.735276495796648e-05,-9.6341235058175e-05,0.999999991024439,0.006732800047553348,-0.0011903211712708706,0.00029642424855805933,0.0,0.0,0.0
1609045350632987976,190,1609045350632987976,0.013813358772521399,0.0010263427877419038,0.0009965349620255437,3.720482694884347e-05,5.581066109706923e-05,-6.598098936503982e-05,0.9999999955737194,-0.004516666100838185,0.0018302942034588692,0.0007383015785083348,0.0,0.0,0.0
1609045350732635021,191,1609045350732635021,0.013440793726989728,0.0013811405155404082,0.0011659123536381165,4.1131116203434085e-05,6.221539123928481e-05,-3.732838234243957e-05,0.9999999965220133,-0.0045701129068040185,0.0038088273305347327,0.0017311046146246721,0.0,0.0,0.0
1609045350833009481,192,1609045350833009481,0.013642808221564438,0.0016277512943028314,0.0009162493898442065,3.294468356226843e-05,6.640531516363506e-05,-9.454065855080803e-05,0.9999999927835026,-0.002131498609853548,0.003983846740731832,-0.0002852404956620409,0.0,0.0,0.0
1609045350933027029,193,1609045350933027029,0.015696917956909303,0.0012684556433190197,0.0007898512084847675,3.657095534305066e-05,7.767690106937693e-05,-6.742647056182566e-05,0.9999999940412467,0.007108609568043456,0.0009707659119439506,-0.0006145362014857412,0.0,0.0,0.0
1609045351033023119,194,1609045351033023119,0.014568361797108482,0.0017566337730750541,0.0007333404089787053,2.8465239383812478e-05,6.98683891590627e-05,-8.215518839178084e-05,0.9999999937793106,-0.0001093996332977177,0.004511145488484911,0.00039465816103733114,0.0,0.0,0.0
1609045351133091450,195,1609045351133091450,0.013538057136222977,0.0017011059005177932,0.0008143324426449425,3.3191057483463486e-05,5.889325570297637e-05,-0.00011460049824326947,0.9999999911483113,-0.004407973131265339,0.0031107687112064677,0.0010947090388553633,0.0,0.0,0.0
1609045351232735872,196,1609045351232735872,0.014171057972555438,0.0018168710971648088,0.0009791383761552411,4.490206157992467e-05,7.357789448879375e-05,-7.414103925954786e-05,0.9999999935365818,-0.0006958767782896981,0.003278254477279522,0.0017137882043930844,0.0,0.0,0.0
1609045351333117723,197,1609045351333117723,0.014381078034653725,0.0018859416550783682,0.0009895178413385154,4.146487750302275e-05,6.983044905852353e-05,-8.435388735525636e-05,0.9999999931443768,0.00017995438224830936,0.0028628071859331653,0.0016330468558437617,0.0,0.0,0.0
1609045351433108091,198,1609045351433108091,0.014954624501548866,0.0020750088874819726,0.001149167079624719,4.386561487345908e-05,7.280399179031757e-05,-7.499903444690973e-05,0.999999993575245,0.0025054844651349116,0.0038808213285155867,0.001585568422446737,0.0,0.0,0.0
1609045351533084154,199,1609045351533084154,0.014531851223158376,0.0034118555201191176,0.0010572151681548815,5.0659313749005425e-05,8.11691288199712e-05,-0.00014264377033763878,0.9999999852489591,-0.00011978863925802326,0.009383165176426797,0.0003860044208684435,0.0,0.0,0.0
1609045351633044958,200,1609045351633044958,0.012732938730719304,0.0033128352698929397,0.0010212801643608455,3.146580674014549e-05,5.6875982083900334e-05,-0.00014635989241269966,0.999999987176882,-0.006857244220335041,0.006204256136209839,0.0002540584317960102,0.0,0.0,0.0
1609045351732623816,201,1609045351732623816,0.01186448550622166,0.0035501054322283464,0.0010583768258312786,3.831426869365821e-05,6.400484464808018e-05,-0.0001241881712035861,0.9999999895063252,-0.007963539321671596,0.006177893108332002,0.0008450643147126874,0.0,0.0,0.0
1609045351832652569,202,1609045351832652569,0.013372840923187615,0.0025642652449527005,0.0009876243911457038,4.02262534125987e-05,6.61315708284499e-05,-5.895138537338431e-05,0.9999999952665766,0.0009377596631429033,9.390947273247088e-05,-0.00016066092570626,0.0,0.0,0.0
1609045351933029652,203,1609045351933029652,0.012689554671640353,0.0014659118666023566,0.0009913203134593255,4.0289303369997865e-05,6.41595916425484e-05,-0.0001257975048037152,0.9999999892176316,-0.002116522599947179,-0.0037539975911340313,0.0005987776137808814,0.0,0.0,0.0
1609045352032656193,204,1609045352032656193,0.01344392804606623,0.0015279990161834848,0.0008420359155064145,3.9092019023714717e-05,6.531047013560492e-05,-0.00010288117440835235,0.9999999918108884,0.0016010095903925968,-0.0004480108758627634,-0.0003133477826963992,0.0,0.0,0.0
1609045352132605553,205,1609045352132605553,0.014385278090754496,0.000943496661693383,0.0009082411423936189,5.22211405846169e-05,6.670354302538407e-05,-7.776856540840158e-05,0.9999999933877977,0.004660322312991754,-0.0025291197989665013,0.0002486380539349259,0.0,0.0,0.0
1609045352232569933,206,1609045352232569933,0.014726553018727568,0.0018011750397259585,0.0009094531984528429,3.950426593296266e-05,7.278699666578674e-05,-9.681427139239156e-05,0.9999999918842086,0.004140576849495856,0.004569868862033511,0.0011235930161910324,0.0,0.0,0.0
1609045352332911015,207,1609045352332911015,0.014836861599699346,0.0021008915319386937,0.0010784055362357363,5.289641055485878e-05,7.371169566758121e-05,-0.00013887020588931545,0.999999986241788,0.0028743091276047564,0.004291768856816287,0.0013076326371690037,0.0,0.0,0.0
1609045352432854414,208,1609045352432854414,0.01277164514155622,0.0025664882960926526,0.001052941532524458,3.9106181730553825e-05,5.7459123779175325e-05,-0.00011197845676411628,0.9999999913149669,-0.006505764899932071,0.00637303868982849,0.00041296035355082574,0.0,0.0,0.0
1609045352532428980,209,1609045352532428980,0.01328023341552639,0.002637176532086427,0.0008620058175885966,3.520384996501091e-05,7.13707750366355e-05,-7.825788411313446e-05,0.9999999937712784,-0.0013678113088314344,0.005509323509647184,-0.0005253226648668328,0.0,0.0,0.0
1609045352632833719,210,1609045352632833719,0.013591099208759784,0.003801414099710076,0.000674821473699592,2.237281108762521e-05,6.470899872244856e-05,-0.00010258312784857407,0.9999999923944279,0.0005855525878933488,0.009451726338723852,-0.0015412317577469146,0.0,0.0,0.0
1609045352732909679,211,1609045352732909679,0.013693256349029535,0.003062155199708149,0.0008606528420135122,3.430491118839163e-05,6.78721559002023e-05,-0.00011767528975910132,0.99999999018451,0.0010652725425514221,0.0033371299950765553,0.0010637554603306447,0.0,0.0,0.0
1609045352833002806,212,1609045352833002806,0.014014273438322854,0.0024283822096724745,0.0007865243841675244,3.30004035264487e-05,6.30496123337246e-05,-9.472807710015739e-05,0.9999999929811308,0.002046884618655778,0.0006551921201107874,0.0002042378110557701,0.0,0.0,0.0
1609045352933086395,213,1609045352933086395,0.013767781184882994,0.0022476082835286254,0.0005809186094698246,3.243495371047836e-05,7.19564739952563e-05,-0.0001511546564075759,0.9999999854612298,-0.00020090691619045818,-1.1460683142980053e-05,-0.0006978079144739025,0.0,0.0,0.0
1609045353033074379,214,1609045353033074379,0.013737278231650317,0.0028343222744985305,0.0005401874921539968,2.88870063855813e-05,5.906508287941681e-05,-0.00012957317504404622,0.999999989443799,-0.0004315660299220358,0.00396342912464283,-0.0003862331961604949,0.0,0.0,0.0
1609045353132659912,215,1609045353132659912,0.013203736949100313,0.002621770477915906,0.0006108342304536464,2.4699392954196545e-05,5.4600856189228964e-05,-0.00011045871015074327,0.9999999921037533,-0.002748576947867968,0.002389395136741988,0.0007750463176067047,0.0,0.0,0.0
1609045353232658625,216,1609045353232658625,0.013692939392497796,0.001328592908238219,0.0008370091743859598,4.057706418598011e-05,6.126105193889143e-05,-9.439794606169738e-05,0.9999999928447805,0.0001783051394760155,-0.003182158263521735,0.001666963702062818,0.0,0.0,0.0
1609045353332566500,217,1609045353332566500,0.013636945624569682,0.0008600282144179207,0.000958602145039678,4.3229601922064847e-05,6.337135983491501e-05,-8.727067761399398e-05,0.9999999932495245,-0.00048441269668534644,-0.0032133544805949257,0.0020179705518031596,0.0,0.0,0.0
